{"country":"AE","pois":[{"id":"suhaylah_9191","citySlug":"suhaylah","name":"Castillo de Suhaylah","category":"historia","lat":24.813007585620635,"lng":56.17703149454975,"avgVisitMinutes":35,"estimatedCostEur":3,"score":3.421301758378066},{"id":"suhaylah_3764","citySlug":"suhaylah","name":"Ruta de Tapas","category":"gastronomia","lat":24.80679015941441,"lng":56.18314625644514,"avgVisitMinutes":71,"estimatedCostEur":0,"score":3.027288160905586},{"id":"suhaylah_6319","citySlug":"suhaylah","name":"Centro de Arte de Suhaylah","category":"cultura","lat":24.809494863509258,"lng":56.19190190726693,"avgVisitMinutes":29,"estimatedCostEur":16,"score":1.559325713262319},{"id":"suhaylah_3012","citySlug":"suhaylah","name":"Galería de Arte","category":"cultura","lat":24.799559679441657,"lng":56.191745138208084,"avgVisitMinutes":28,"estimatedCostEur":25,"score":2.1311740121878238},{"id":"suhaylah_5327","citySlug":"suhaylah","name":"Galería de Arte","category":"cultura","lat":24.798832645996466,"lng":56.17605049316109,"avgVisitMinutes":41,"estimatedCostEur":18,"score":2.536953976601642},{"id":"warisan_4918","citySlug":"warisan","name":"Punto Panorámico","category":"mirador","lat":25.16196157475318,"lng":55.41624257146845,"avgVisitMinutes":26,"estimatedCostEur":2,"score":1.1197485642133154},{"id":"warisan_3057","citySlug":"warisan","name":"Playa Central","category":"playa","lat":25.160887507149898,"lng":55.41451354498187,"avgVisitMinutes":75,"estimatedCostEur":24,"score":2.023212492331044},{"id":"warisan_2872","citySlug":"warisan","name":"Restaurante Típico de Warīsān","category":"gastronomia","lat":25.158635614543716,"lng":55.40622462172284,"avgVisitMinutes":25,"estimatedCostEur":17,"score":0.8315151047318458},{"id":"warisan_2528","citySlug":"warisan","name":"Playa Norte","category":"playa","lat":25.168498910558228,"lng":55.40237749609497,"avgVisitMinutes":20,"estimatedCostEur":3,"score":4.090721884716365},{"id":"warisan_2433","citySlug":"warisan","name":"Playa Norte","category":"playa","lat":25.168410531439452,"lng":55.40789945268738,"avgVisitMinutes":44,"estimatedCostEur":22,"score":1.4046200232301969},{"id":"umm-al-quwain-city_1809","citySlug":"umm-al-quwain-city","name":"Museo Local de Umm Al Quwain City","category":"historia","lat":25.564237778256775,"lng":55.563013377929096,"avgVisitMinutes":67,"estimatedCostEur":20,"score":4.043119228678621},{"id":"umm-al-quwain-city_1915","citySlug":"umm-al-quwain-city","name":"Playa Sur","category":"playa","lat":25.566907177195187,"lng":55.55372012072073,"avgVisitMinutes":81,"estimatedCostEur":12,"score":4.108315377239738},{"id":"umm-al-quwain-city_6647","citySlug":"umm-al-quwain-city","name":"Punto Panorámico","category":"mirador","lat":25.55825966124918,"lng":55.55355256760786,"avgVisitMinutes":27,"estimatedCostEur":23,"score":3.38942255615267},{"id":"umm-al-quwain-city_6784","citySlug":"umm-al-quwain-city","name":"Murallas de Umm Al Quwain City","category":"historia","lat":25.55795143497425,"lng":55.55885964752705,"avgVisitMinutes":47,"estimatedCostEur":9,"score":1.3974527961054997},{"id":"umm-al-quwain-city_9818","citySlug":"umm-al-quwain-city","name":"Centro de Arte de Umm Al Quwain City","category":"cultura","lat":25.570020258920803,"lng":55.5557248507103,"avgVisitMinutes":84,"estimatedCostEur":14,"score":1.2751222371696032},{"id":"umm-al-quwain-city_7091","citySlug":"umm-al-quwain-city","name":"Vista Alta de Umm Al Quwain City","category":"mirador","lat":25.56806636354341,"lng":55.547154038159555,"avgVisitMinutes":50,"estimatedCostEur":18,"score":3.439378315585702},{"id":"tarif-kalba_8424","citySlug":"tarif-kalba","name":"Punto Panorámico","category":"mirador","lat":25.073310828919322,"lng":56.33401459772263,"avgVisitMinutes":50,"estimatedCostEur":6,"score":4.8225316613634766},{"id":"tarif-kalba_1639","citySlug":"tarif-kalba","name":"Parque Central","category":"ocio","lat":25.074714989941068,"lng":56.33122473603359,"avgVisitMinutes":30,"estimatedCostEur":10,"score":2.845570686165253},{"id":"tarif-kalba_9708","citySlug":"tarif-kalba","name":"Parque Central","category":"ocio","lat":25.067526902205174,"lng":56.33126088316295,"avgVisitMinutes":68,"estimatedCostEur":9,"score":1.036674287797155},{"id":"tarif-kalba_5570","citySlug":"tarif-kalba","name":"Museo Cultural de Ţarīf Kalbā","category":"cultura","lat":25.062025035491143,"lng":56.337184971632695,"avgVisitMinutes":64,"estimatedCostEur":12,"score":2.5326962567352944},{"id":"tarif-kalba_2092","citySlug":"tarif-kalba","name":"Mirador de Ţarīf Kalbā","category":"mirador","lat":25.066382308394175,"lng":56.32593642334542,"avgVisitMinutes":54,"estimatedCostEur":0,"score":2.2563659114822503},{"id":"tarif-kalba_9411","citySlug":"tarif-kalba","name":"Teatro Municipal","category":"cultura","lat":25.06182970557373,"lng":56.32273242716476,"avgVisitMinutes":26,"estimatedCostEur":4,"score":3.9348232607282414},{"id":"tarif-kalba_8151","citySlug":"tarif-kalba","name":"Museo Cultural de Ţarīf Kalbā","category":"cultura","lat":25.070230164349308,"lng":56.326785896555116,"avgVisitMinutes":80,"estimatedCostEur":14,"score":2.945806691864788},{"id":"tarif-kalba_7495","citySlug":"tarif-kalba","name":"Playa Norte","category":"playa","lat":25.063379380967568,"lng":56.33176248301672,"avgVisitMinutes":51,"estimatedCostEur":24,"score":3.5340461250951516},{"id":"tarif-kalba_8601","citySlug":"tarif-kalba","name":"Playa Norte","category":"playa","lat":25.06445066493013,"lng":56.33255657328653,"avgVisitMinutes":66,"estimatedCostEur":12,"score":1.9753892139150702},{"id":"ras-al-khaimah_7204","citySlug":"ras-al-khaimah","name":"Parque Central","category":"ocio","lat":25.796739473122102,"lng":55.94325158425632,"avgVisitMinutes":40,"estimatedCostEur":18,"score":2.7975973179814613},{"id":"ras-al-khaimah_4664","citySlug":"ras-al-khaimah","name":"Zona Comercial","category":"ocio","lat":25.79156913754326,"lng":55.939426475763,"avgVisitMinutes":24,"estimatedCostEur":20,"score":4.663743309744818},{"id":"ras-al-khaimah_9374","citySlug":"ras-al-khaimah","name":"Castillo de Ras Al Khaimah","category":"historia","lat":25.782386365081262,"lng":55.95064799361547,"avgVisitMinutes":36,"estimatedCostEur":18,"score":3.0445387266135953},{"id":"ras-al-khaimah_7191","citySlug":"ras-al-khaimah","name":"Playa Norte","category":"playa","lat":25.794192668537853,"lng":55.940515838279,"avgVisitMinutes":56,"estimatedCostEur":24,"score":1.6120346821854712},{"id":"ras-al-khaimah_1231","citySlug":"ras-al-khaimah","name":"Teatro Municipal","category":"cultura","lat":25.79620787137926,"lng":55.950799222419285,"avgVisitMinutes":59,"estimatedCostEur":17,"score":0.675563018451275},{"id":"ras-al-khaimah_7000","citySlug":"ras-al-khaimah","name":"Restaurante Típico de Ras Al Khaimah","category":"gastronomia","lat":25.780007411424194,"lng":55.93444064073637,"avgVisitMinutes":60,"estimatedCostEur":25,"score":4.21249336541551},{"id":"nahwa_6510","citySlug":"nahwa","name":"Parque Central","category":"ocio","lat":25.270526476509446,"lng":56.270676072422326,"avgVisitMinutes":38,"estimatedCostEur":1,"score":3.76880744087923},{"id":"nahwa_2007","citySlug":"nahwa","name":"Parque Central","category":"ocio","lat":25.25981028097631,"lng":56.281540936060914,"avgVisitMinutes":90,"estimatedCostEur":24,"score":4.2112309842588065},{"id":"nahwa_8041","citySlug":"nahwa","name":"Playa Sur","category":"playa","lat":25.271592540457664,"lng":56.27780531053075,"avgVisitMinutes":77,"estimatedCostEur":1,"score":2.147804546365459},{"id":"nahwa_5608","citySlug":"nahwa","name":"Iglesia de Nahwa","category":"historia","lat":25.26721172624508,"lng":56.283137058990924,"avgVisitMinutes":80,"estimatedCostEur":18,"score":1.775513578355099},{"id":"nahwa_5076","citySlug":"nahwa","name":"Mercado Gastronómico","category":"gastronomia","lat":25.26668339365627,"lng":56.28482957102428,"avgVisitMinutes":31,"estimatedCostEur":9,"score":0.7367873561733049},{"id":"nahwa_4823","citySlug":"nahwa","name":"Mercado Gastronómico","category":"gastronomia","lat":25.263972134250853,"lng":56.276860731846014,"avgVisitMinutes":63,"estimatedCostEur":7,"score":4.2433581131531914},{"id":"nahwa_4448","citySlug":"nahwa","name":"Zona Comercial","category":"ocio","lat":25.27188729243141,"lng":56.28952240677915,"avgVisitMinutes":34,"estimatedCostEur":10,"score":4.389251376572213},{"id":"nahwa_4219","citySlug":"nahwa","name":"Centro Histórico","category":"historia","lat":25.261594758388693,"lng":56.27792770310551,"avgVisitMinutes":63,"estimatedCostEur":0,"score":0.7212277397638418},{"id":"nahwa_8098","citySlug":"nahwa","name":"Centro Histórico","category":"historia","lat":25.274967698650535,"lng":56.28099746032717,"avgVisitMinutes":47,"estimatedCostEur":8,"score":0.9313677127703386},{"id":"nahwa_9114","citySlug":"nahwa","name":"Playa Central","category":"playa","lat":25.26285633485449,"lng":56.27281341824953,"avgVisitMinutes":70,"estimatedCostEur":10,"score":1.6417173404333916},{"id":"nahwa_8325","citySlug":"nahwa","name":"Playa Norte","category":"playa","lat":25.277848996288242,"lng":56.27253341576345,"avgVisitMinutes":80,"estimatedCostEur":5,"score":1.8403016859513117},{"id":"muzayri_1953","citySlug":"muzayri","name":"Mirador de Muzayri‘","category":"mirador","lat":23.150291792214258,"lng":53.782596302847836,"avgVisitMinutes":78,"estimatedCostEur":14,"score":1.7809405439276718},{"id":"muzayri_7216","citySlug":"muzayri","name":"Playa Central","category":"playa","lat":23.15087365578237,"lng":53.79313410151684,"avgVisitMinutes":86,"estimatedCostEur":16,"score":3.0440866566550344},{"id":"muzayri_2289","citySlug":"muzayri","name":"Vista Alta de Muzayri‘","category":"mirador","lat":23.14294539496294,"lng":53.785841968080476,"avgVisitMinutes":44,"estimatedCostEur":14,"score":2.224161397208265},{"id":"muzayri_7144","citySlug":"muzayri","name":"Murallas de Muzayri‘","category":"historia","lat":23.14008830357347,"lng":53.78701486703916,"avgVisitMinutes":84,"estimatedCostEur":11,"score":1.5528101500846954},{"id":"muzayri_1517","citySlug":"muzayri","name":"Playa Sur","category":"playa","lat":23.14206006569214,"lng":53.790696543676006,"avgVisitMinutes":52,"estimatedCostEur":9,"score":2.022922533706197},{"id":"murbah_8035","citySlug":"murbah","name":"Museo Cultural de Murbaḩ","category":"cultura","lat":25.272340568408403,"lng":56.36706127236393,"avgVisitMinutes":60,"estimatedCostEur":22,"score":0.9323004494074012},{"id":"murbah_6116","citySlug":"murbah","name":"Playa Norte","category":"playa","lat":25.280531460266406,"lng":56.370078471275285,"avgVisitMinutes":22,"estimatedCostEur":0,"score":3.9392110591799243},{"id":"murbah_7169","citySlug":"murbah","name":"Mirador de Murbaḩ","category":"mirador","lat":25.277059450639936,"lng":56.36631573487,"avgVisitMinutes":55,"estimatedCostEur":12,"score":1.5071782194425065},{"id":"murbah_4108","citySlug":"murbah","name":"Punto Panorámico","category":"mirador","lat":25.28107427825122,"lng":56.365568256943604,"avgVisitMinutes":23,"estimatedCostEur":11,"score":0.7465885486904178},{"id":"murbah_1490","citySlug":"murbah","name":"Mercado Gastronómico","category":"gastronomia","lat":25.27766931030613,"lng":56.35506468139291,"avgVisitMinutes":55,"estimatedCostEur":15,"score":4.357796067359256},{"id":"murbah_3734","citySlug":"murbah","name":"Galería de Arte","category":"cultura","lat":25.28480845941907,"lng":56.35971479048602,"avgVisitMinutes":83,"estimatedCostEur":22,"score":2.7586169656357833},{"id":"murbah_2153","citySlug":"murbah","name":"Restaurante Típico de Murbaḩ","category":"gastronomia","lat":25.26787886240304,"lng":56.362613781427456,"avgVisitMinutes":26,"estimatedCostEur":17,"score":2.6408121652658134},{"id":"murbah_3613","citySlug":"murbah","name":"Playa Central","category":"playa","lat":25.281353483964235,"lng":56.365333853726106,"avgVisitMinutes":39,"estimatedCostEur":17,"score":0.7625973336129676},{"id":"murbah_2447","citySlug":"murbah","name":"Playa Norte","category":"playa","lat":25.273384021241117,"lng":56.356092126193644,"avgVisitMinutes":77,"estimatedCostEur":3,"score":0.8807018089991375},{"id":"murbah_1382","citySlug":"murbah","name":"Murallas de Murbaḩ","category":"historia","lat":25.26863290219872,"lng":56.3541978581084,"avgVisitMinutes":80,"estimatedCostEur":3,"score":3.654858753113876},{"id":"murbah_6537","citySlug":"murbah","name":"Centro Histórico","category":"historia","lat":25.270583874655017,"lng":56.35533109662489,"avgVisitMinutes":69,"estimatedCostEur":7,"score":4.467592068381723},{"id":"masfut_4465","citySlug":"masfut","name":"Museo Local de Maşfūţ","category":"historia","lat":24.81474190042468,"lng":56.114068216873626,"avgVisitMinutes":53,"estimatedCostEur":12,"score":1.8617712674803721},{"id":"masfut_1187","citySlug":"masfut","name":"Playa Norte","category":"playa","lat":24.811828383391724,"lng":56.10064196925781,"avgVisitMinutes":86,"estimatedCostEur":7,"score":4.287959912233216},{"id":"masfut_8761","citySlug":"masfut","name":"Centro Histórico","category":"historia","lat":24.803181823200052,"lng":56.10707013903994,"avgVisitMinutes":86,"estimatedCostEur":10,"score":1.9767808266685671},{"id":"masfut_1429","citySlug":"masfut","name":"Mirador de Maşfūţ","category":"mirador","lat":24.801096679461534,"lng":56.10170271612292,"avgVisitMinutes":33,"estimatedCostEur":9,"score":3.827038973864748},{"id":"masfut_6592","citySlug":"masfut","name":"Centro de Arte de Maşfūţ","category":"cultura","lat":24.819584799814375,"lng":56.1121875344883,"avgVisitMinutes":20,"estimatedCostEur":2,"score":0.5275218024448918},{"id":"masfut_7581","citySlug":"masfut","name":"Parque Central","category":"ocio","lat":24.80622573006678,"lng":56.10045414733383,"avgVisitMinutes":33,"estimatedCostEur":7,"score":1.9651735297556745},{"id":"masfut_4385","citySlug":"masfut","name":"Playa Norte","category":"playa","lat":24.80145733863798,"lng":56.105087241210704,"avgVisitMinutes":86,"estimatedCostEur":5,"score":3.70602549670909},{"id":"zayed-city_8948","citySlug":"zayed-city","name":"Restaurante Típico de Zayed City","category":"gastronomia","lat":23.64991470829954,"lng":53.70733238232906,"avgVisitMinutes":86,"estimatedCostEur":17,"score":4.844506325376138},{"id":"zayed-city_8468","citySlug":"zayed-city","name":"Teatro Municipal","category":"cultura","lat":23.659082591728307,"lng":53.702796773785316,"avgVisitMinutes":54,"estimatedCostEur":8,"score":1.3047522340387638},{"id":"zayed-city_4759","citySlug":"zayed-city","name":"Vista Alta de Zayed City","category":"mirador","lat":23.65790492586342,"lng":53.71044408370029,"avgVisitMinutes":89,"estimatedCostEur":6,"score":4.901454817830468},{"id":"zayed-city_6024","citySlug":"zayed-city","name":"Vista Alta de Zayed City","category":"mirador","lat":23.65684756216877,"lng":53.69677909424614,"avgVisitMinutes":34,"estimatedCostEur":8,"score":2.1964487748373056},{"id":"zayed-city_4217","citySlug":"zayed-city","name":"Restaurante Típico de Zayed City","category":"gastronomia","lat":23.64761952156017,"lng":53.69628036893465,"avgVisitMinutes":54,"estimatedCostEur":18,"score":2.6034297104390385},{"id":"zayed-city_9810","citySlug":"zayed-city","name":"Playa Norte","category":"playa","lat":23.661212530825416,"lng":53.712063633925844,"avgVisitMinutes":60,"estimatedCostEur":14,"score":3.481639874094874},{"id":"zayed-city_7426","citySlug":"zayed-city","name":"Playa Sur","category":"playa","lat":23.657231962943225,"lng":53.70612752469769,"avgVisitMinutes":33,"estimatedCostEur":5,"score":1.1337848184200439},{"id":"zayed-city_3416","citySlug":"zayed-city","name":"Playa Sur","category":"playa","lat":23.654527562033387,"lng":53.70650373421618,"avgVisitMinutes":30,"estimatedCostEur":21,"score":3.7415403874213684},{"id":"zayed-city_5799","citySlug":"zayed-city","name":"Parque Central","category":"ocio","lat":23.654867979068268,"lng":53.710020620950836,"avgVisitMinutes":30,"estimatedCostEur":21,"score":2.8250918413006127},{"id":"zayed-city_4683","citySlug":"zayed-city","name":"Zona Comercial","category":"ocio","lat":23.65373371262071,"lng":53.71205739010338,"avgVisitMinutes":66,"estimatedCostEur":8,"score":3.370606649012105},{"id":"khawr-fakkan_9906","citySlug":"khawr-fakkan","name":"Mirador de Khawr Fakkān","category":"mirador","lat":25.327060787311108,"lng":56.342578545527786,"avgVisitMinutes":83,"estimatedCostEur":19,"score":1.5969026075983306},{"id":"khawr-fakkan_1107","citySlug":"khawr-fakkan","name":"Zona Comercial","category":"ocio","lat":25.32448928006007,"lng":56.33704359351332,"avgVisitMinutes":24,"estimatedCostEur":14,"score":3.243336786215419},{"id":"khawr-fakkan_2782","citySlug":"khawr-fakkan","name":"Museo Local de Khawr Fakkān","category":"historia","lat":25.333900640794866,"lng":56.34760513706128,"avgVisitMinutes":78,"estimatedCostEur":14,"score":2.948716762833926},{"id":"khawr-fakkan_3031","citySlug":"khawr-fakkan","name":"Iglesia de Khawr Fakkān","category":"historia","lat":25.3242146271527,"lng":56.34544410907936,"avgVisitMinutes":56,"estimatedCostEur":10,"score":3.3152151475176517},{"id":"khawr-fakkan_9726","citySlug":"khawr-fakkan","name":"Centro de Arte de Khawr Fakkān","category":"cultura","lat":25.336769374570707,"lng":56.33790579115724,"avgVisitMinutes":72,"estimatedCostEur":22,"score":2.5080722667229525},{"id":"khawr-fakkan_6925","citySlug":"khawr-fakkan","name":"Ruta de Tapas","category":"gastronomia","lat":25.338024570023332,"lng":56.34601370985077,"avgVisitMinutes":34,"estimatedCostEur":12,"score":4.967200186272715},{"id":"kalba_9008","citySlug":"kalba","name":"Centro Histórico","category":"historia","lat":25.049382628640227,"lng":56.355755765822096,"avgVisitMinutes":51,"estimatedCostEur":14,"score":1.8585698792383978},{"id":"kalba_9912","citySlug":"kalba","name":"Castillo de Kalbā","category":"historia","lat":25.0591533456165,"lng":56.34997867920003,"avgVisitMinutes":74,"estimatedCostEur":22,"score":0.7289068826705538},{"id":"kalba_6596","citySlug":"kalba","name":"Galería de Arte","category":"cultura","lat":25.04841145151025,"lng":56.355090352539335,"avgVisitMinutes":72,"estimatedCostEur":14,"score":2.065296855063882},{"id":"kalba_9983","citySlug":"kalba","name":"Centro Histórico","category":"historia","lat":25.048285127288096,"lng":56.35801415302747,"avgVisitMinutes":49,"estimatedCostEur":12,"score":0.8160033511204325},{"id":"kalba_4529","citySlug":"kalba","name":"Galería de Arte","category":"cultura","lat":25.057129838360485,"lng":56.346033184143856,"avgVisitMinutes":90,"estimatedCostEur":11,"score":0.8522087245756427},{"id":"al-jazirah-al-hamra_1129","citySlug":"al-jazirah-al-hamra","name":"Mercado Gastronómico","category":"gastronomia","lat":25.70402113690733,"lng":55.79842781785627,"avgVisitMinutes":37,"estimatedCostEur":8,"score":2.0486422086706115},{"id":"al-jazirah-al-hamra_2550","citySlug":"al-jazirah-al-hamra","name":"Castillo de Al Jazīrah al Ḩamrā’","category":"historia","lat":25.703384942365133,"lng":55.814826350332496,"avgVisitMinutes":76,"estimatedCostEur":21,"score":2.718361449685109},{"id":"al-jazirah-al-hamra_9150","citySlug":"al-jazirah-al-hamra","name":"Museo Local de Al Jazīrah al Ḩamrā’","category":"historia","lat":25.70884461220373,"lng":55.80976424071105,"avgVisitMinutes":74,"estimatedCostEur":17,"score":2.0753685177515844},{"id":"al-jazirah-al-hamra_4774","citySlug":"al-jazirah-al-hamra","name":"Playa Central","category":"playa","lat":25.709851039267452,"lng":55.79917123566329,"avgVisitMinutes":23,"estimatedCostEur":13,"score":3.3085187680463104},{"id":"al-jazirah-al-hamra_7653","citySlug":"al-jazirah-al-hamra","name":"Paseo Principal","category":"ocio","lat":25.70540416565435,"lng":55.80902884081883,"avgVisitMinutes":78,"estimatedCostEur":3,"score":4.005327031317558},{"id":"al-jazirah-al-hamra_8623","citySlug":"al-jazirah-al-hamra","name":"Murallas de Al Jazīrah al Ḩamrā’","category":"historia","lat":25.70282565372233,"lng":55.80842203837981,"avgVisitMinutes":50,"estimatedCostEur":22,"score":0.9204891892442194},{"id":"al-jazirah-al-hamra_3189","citySlug":"al-jazirah-al-hamra","name":"Ruta de Tapas","category":"gastronomia","lat":25.715729656463225,"lng":55.81033728667801,"avgVisitMinutes":58,"estimatedCostEur":16,"score":3.638916367346104},{"id":"dubai_9693","citySlug":"dubai","name":"Restaurante Típico de Dubai","category":"gastronomia","lat":25.077985464652688,"lng":55.30612799299827,"avgVisitMinutes":22,"estimatedCostEur":21,"score":4.003724880876122},{"id":"dubai_4831","citySlug":"dubai","name":"Centro de Arte de Dubai","category":"cultura","lat":25.073632008684875,"lng":55.30465960188678,"avgVisitMinutes":52,"estimatedCostEur":24,"score":4.689337266469611},{"id":"dubai_4639","citySlug":"dubai","name":"Playa Central","category":"playa","lat":25.073766278388053,"lng":55.30691804890782,"avgVisitMinutes":61,"estimatedCostEur":18,"score":2.225815457476918},{"id":"dubai_7384","citySlug":"dubai","name":"Teatro Municipal","category":"cultura","lat":25.075510230890263,"lng":55.31137882594195,"avgVisitMinutes":69,"estimatedCostEur":11,"score":2.1975137139790206},{"id":"dubai_8471","citySlug":"dubai","name":"Teatro Municipal","category":"cultura","lat":25.081194103699357,"lng":55.30002204971649,"avgVisitMinutes":73,"estimatedCostEur":15,"score":1.4568594955432737},{"id":"dubai_7426","citySlug":"dubai","name":"Zona Comercial","category":"ocio","lat":25.084252135896502,"lng":55.30784346726789,"avgVisitMinutes":47,"estimatedCostEur":2,"score":2.9979106116181518},{"id":"dubai_4311","citySlug":"dubai","name":"Murallas de Dubai","category":"historia","lat":25.073174320990923,"lng":55.31364858742009,"avgVisitMinutes":86,"estimatedCostEur":16,"score":3.727578301386746},{"id":"dibba-al-fujairah_6024","citySlug":"dibba-al-fujairah","name":"Galería de Arte","category":"cultura","lat":25.59102842251043,"lng":56.25947211440724,"avgVisitMinutes":30,"estimatedCostEur":7,"score":3.8039027237247027},{"id":"dibba-al-fujairah_2221","citySlug":"dibba-al-fujairah","name":"Punto Panorámico","category":"mirador","lat":25.602400028169612,"lng":56.26205137684643,"avgVisitMinutes":78,"estimatedCostEur":24,"score":3.530723687653047},{"id":"dibba-al-fujairah_7635","citySlug":"dibba-al-fujairah","name":"Restaurante Típico de Dibba Al-Fujairah","category":"gastronomia","lat":25.595508148424827,"lng":56.27071753355703,"avgVisitMinutes":57,"estimatedCostEur":4,"score":2.6958439826905853},{"id":"dibba-al-fujairah_1183","citySlug":"dibba-al-fujairah","name":"Centro de Arte de Dibba Al-Fujairah","category":"cultura","lat":25.58727370910008,"lng":56.25199173686557,"avgVisitMinutes":55,"estimatedCostEur":8,"score":4.139199794204526},{"id":"dibba-al-fujairah_7902","citySlug":"dibba-al-fujairah","name":"Paseo Principal","category":"ocio","lat":25.583343635196385,"lng":56.26822514337837,"avgVisitMinutes":62,"estimatedCostEur":8,"score":4.392248408615561},{"id":"dibba-al-fujairah_2278","citySlug":"dibba-al-fujairah","name":"Playa Central","category":"playa","lat":25.59847013101844,"lng":56.26700458089841,"avgVisitMinutes":70,"estimatedCostEur":12,"score":4.192642155380881},{"id":"dibba-al-fujairah_7887","citySlug":"dibba-al-fujairah","name":"Mirador de Dibba Al-Fujairah","category":"mirador","lat":25.585686071139637,"lng":56.26710175266542,"avgVisitMinutes":54,"estimatedCostEur":20,"score":1.127099374842708},{"id":"dibba-al-fujairah_7955","citySlug":"dibba-al-fujairah","name":"Restaurante Típico de Dibba Al-Fujairah","category":"gastronomia","lat":25.58711529113931,"lng":56.25488321728062,"avgVisitMinutes":60,"estimatedCostEur":8,"score":2.6469137549441895},{"id":"dibba-al-hisn_4600","citySlug":"dibba-al-hisn","name":"Restaurante Típico de Dibba Al-Hisn","category":"gastronomia","lat":25.621687292676217,"lng":56.275866952093615,"avgVisitMinutes":73,"estimatedCostEur":13,"score":3.850232448966646},{"id":"dibba-al-hisn_4345","citySlug":"dibba-al-hisn","name":"Playa Norte","category":"playa","lat":25.61018404527776,"lng":56.263973481111265,"avgVisitMinutes":55,"estimatedCostEur":9,"score":2.911126897842952},{"id":"dibba-al-hisn_1258","citySlug":"dibba-al-hisn","name":"Playa Sur","category":"playa","lat":25.61186956308265,"lng":56.26863333493448,"avgVisitMinutes":44,"estimatedCostEur":12,"score":1.263014471449363},{"id":"dibba-al-hisn_6328","citySlug":"dibba-al-hisn","name":"Mirador de Dibba Al-Hisn","category":"mirador","lat":25.627459967623462,"lng":56.276799206647524,"avgVisitMinutes":44,"estimatedCostEur":12,"score":3.605074490764035},{"id":"dibba-al-hisn_8397","citySlug":"dibba-al-hisn","name":"Parque Central","category":"ocio","lat":25.615331587221075,"lng":56.27875013543909,"avgVisitMinutes":73,"estimatedCostEur":20,"score":4.7043928798051455},{"id":"dibba-al-hisn_8729","citySlug":"dibba-al-hisn","name":"Vista Alta de Dibba Al-Hisn","category":"mirador","lat":25.62490412244013,"lng":56.28124086994934,"avgVisitMinutes":72,"estimatedCostEur":5,"score":2.6180462719375592},{"id":"dibba-al-hisn_6885","citySlug":"dibba-al-hisn","name":"Museo Cultural de Dibba Al-Hisn","category":"cultura","lat":25.628643231139744,"lng":56.28266621236015,"avgVisitMinutes":86,"estimatedCostEur":7,"score":1.3263169148135923},{"id":"sharjah_9126","citySlug":"sharjah","name":"Zona Comercial","category":"ocio","lat":25.326058776900826,"lng":55.406575833584014,"avgVisitMinutes":77,"estimatedCostEur":23,"score":2.868637628496173},{"id":"sharjah_4741","citySlug":"sharjah","name":"Mercado Gastronómico","category":"gastronomia","lat":25.339785306607357,"lng":55.40892999363134,"avgVisitMinutes":31,"estimatedCostEur":14,"score":4.278667756613677},{"id":"sharjah_1988","citySlug":"sharjah","name":"Vista Alta de Sharjah","category":"mirador","lat":25.3265826944437,"lng":55.4115043508109,"avgVisitMinutes":27,"estimatedCostEur":11,"score":4.489723481805651},{"id":"sharjah_3508","citySlug":"sharjah","name":"Parque Central","category":"ocio","lat":25.326944006754577,"lng":55.422117633328014,"avgVisitMinutes":49,"estimatedCostEur":8,"score":2.6646974503404683},{"id":"sharjah_5365","citySlug":"sharjah","name":"Ruta de Tapas","category":"gastronomia","lat":25.329754330893543,"lng":55.415547686265135,"avgVisitMinutes":52,"estimatedCostEur":16,"score":0.7766790090808583},{"id":"sharjah_6353","citySlug":"sharjah","name":"Punto Panorámico","category":"mirador","lat":25.338628426480536,"lng":55.405346018101014,"avgVisitMinutes":44,"estimatedCostEur":16,"score":3.3903018775509044},{"id":"ash-sham_6114","citySlug":"ash-sham","name":"Castillo de Ash Sha‘m","category":"historia","lat":26.0347769300694,"lng":56.0922897173775,"avgVisitMinutes":41,"estimatedCostEur":21,"score":3.388839274892275},{"id":"ash-sham_7120","citySlug":"ash-sham","name":"Centro de Arte de Ash Sha‘m","category":"cultura","lat":26.034341186681807,"lng":56.073933920142366,"avgVisitMinutes":54,"estimatedCostEur":8,"score":3.104911831178449},{"id":"ash-sham_3570","citySlug":"ash-sham","name":"Teatro Municipal","category":"cultura","lat":26.029911102681517,"lng":56.075376597615545,"avgVisitMinutes":36,"estimatedCostEur":12,"score":1.7843787821144734},{"id":"ash-sham_3712","citySlug":"ash-sham","name":"Playa Norte","category":"playa","lat":26.026452594283217,"lng":56.084378504485734,"avgVisitMinutes":84,"estimatedCostEur":10,"score":1.5450285381336322},{"id":"ash-sham_6768","citySlug":"ash-sham","name":"Playa Central","category":"playa","lat":26.02840379857167,"lng":56.08047767788762,"avgVisitMinutes":57,"estimatedCostEur":24,"score":1.1143201490243047},{"id":"ar-ruways_2847","citySlug":"ar-ruways","name":"Museo Cultural de Ar Ruways","category":"cultura","lat":24.118701475267432,"lng":52.73418950613949,"avgVisitMinutes":50,"estimatedCostEur":10,"score":2.595782173224228},{"id":"ar-ruways_7436","citySlug":"ar-ruways","name":"Centro Histórico","category":"historia","lat":24.102969288583605,"lng":52.73870946203758,"avgVisitMinutes":38,"estimatedCostEur":16,"score":1.8823969322111358},{"id":"ar-ruways_6650","citySlug":"ar-ruways","name":"Ruta de Tapas","category":"gastronomia","lat":24.115146369337953,"lng":52.7259334909978,"avgVisitMinutes":26,"estimatedCostEur":22,"score":1.3196881782218535},{"id":"ar-ruways_7431","citySlug":"ar-ruways","name":"Playa Central","category":"playa","lat":24.116407826943952,"lng":52.72887789500336,"avgVisitMinutes":60,"estimatedCostEur":24,"score":3.9076880135928516},{"id":"ar-ruways_5655","citySlug":"ar-ruways","name":"Mirador de Ar Ruways","category":"mirador","lat":24.117610108807305,"lng":52.729413559246225,"avgVisitMinutes":21,"estimatedCostEur":2,"score":2.537312195516309},{"id":"ar-ruways_9164","citySlug":"ar-ruways","name":"Mercado Gastronómico","category":"gastronomia","lat":24.10223886471873,"lng":52.720641486606276,"avgVisitMinutes":50,"estimatedCostEur":2,"score":1.7586840010071476},{"id":"ar-ruways_4834","citySlug":"ar-ruways","name":"Paseo Principal","category":"ocio","lat":24.108762242401294,"lng":52.729701152265804,"avgVisitMinutes":36,"estimatedCostEur":25,"score":2.006367512645425},{"id":"ar-ruways_3562","citySlug":"ar-ruways","name":"Paseo Principal","category":"ocio","lat":24.10625174274309,"lng":52.732959459046604,"avgVisitMinutes":90,"estimatedCostEur":3,"score":3.564537225706957},{"id":"ar-ruways_2546","citySlug":"ar-ruways","name":"Museo Cultural de Ar Ruways","category":"cultura","lat":24.104279518278208,"lng":52.735674122777425,"avgVisitMinutes":52,"estimatedCostEur":4,"score":4.108661065385119},{"id":"ar-ruways_6034","citySlug":"ar-ruways","name":"Centro Histórico","category":"historia","lat":24.1069246207202,"lng":52.72130046976818,"avgVisitMinutes":29,"estimatedCostEur":15,"score":4.094643420600157},{"id":"ar-rams_7700","citySlug":"ar-rams","name":"Iglesia de Ar Rams","category":"historia","lat":25.883697958457034,"lng":56.02409402231186,"avgVisitMinutes":68,"estimatedCostEur":20,"score":1.3670699442494931},{"id":"ar-rams_1049","citySlug":"ar-rams","name":"Playa Sur","category":"playa","lat":25.86849054644229,"lng":56.013955794454574,"avgVisitMinutes":90,"estimatedCostEur":6,"score":2.3780188731496765},{"id":"ar-rams_9207","citySlug":"ar-rams","name":"Ruta de Tapas","category":"gastronomia","lat":25.87995163948693,"lng":56.02517665300283,"avgVisitMinutes":86,"estimatedCostEur":18,"score":1.148825976561723},{"id":"ar-rams_6021","citySlug":"ar-rams","name":"Playa Norte","category":"playa","lat":25.867274213767484,"lng":56.027059815360474,"avgVisitMinutes":20,"estimatedCostEur":17,"score":1.7292044492583474},{"id":"ar-rams_5574","citySlug":"ar-rams","name":"Iglesia de Ar Rams","category":"historia","lat":25.875616993010883,"lng":56.01613404174224,"avgVisitMinutes":23,"estimatedCostEur":5,"score":4.567479935888053},{"id":"ar-rams_8819","citySlug":"ar-rams","name":"Playa Central","category":"playa","lat":25.88507934737637,"lng":56.01000076667323,"avgVisitMinutes":85,"estimatedCostEur":19,"score":4.973530130186544},{"id":"ar-rams_9230","citySlug":"ar-rams","name":"Playa Sur","category":"playa","lat":25.877971708792582,"lng":56.0144085162436,"avgVisitMinutes":58,"estimatedCostEur":14,"score":4.238050294006418},{"id":"al-manamah_6175","citySlug":"al-manamah","name":"Centro Histórico","category":"historia","lat":25.321478097114728,"lng":56.01831022596624,"avgVisitMinutes":29,"estimatedCostEur":8,"score":2.1643236508536168},{"id":"al-manamah_6762","citySlug":"al-manamah","name":"Zona Comercial","category":"ocio","lat":25.323608536928386,"lng":56.024955058169986,"avgVisitMinutes":50,"estimatedCostEur":9,"score":0.5493753883513164},{"id":"al-manamah_3214","citySlug":"al-manamah","name":"Zona Comercial","category":"ocio","lat":25.335174764949674,"lng":56.02911337610092,"avgVisitMinutes":76,"estimatedCostEur":3,"score":2.9933426162948154},{"id":"al-manamah_7858","citySlug":"al-manamah","name":"Mercado Gastronómico","category":"gastronomia","lat":25.332432833110424,"lng":56.030801798114005,"avgVisitMinutes":47,"estimatedCostEur":13,"score":2.1148542262719143},{"id":"al-manamah_1770","citySlug":"al-manamah","name":"Paseo Principal","category":"ocio","lat":25.320251251031273,"lng":56.02949713358024,"avgVisitMinutes":33,"estimatedCostEur":22,"score":0.7185189800076357},{"id":"al-manamah_4538","citySlug":"al-manamah","name":"Centro de Arte de Al Manāmah","category":"cultura","lat":25.326978829759874,"lng":56.019310322319406,"avgVisitMinutes":76,"estimatedCostEur":0,"score":2.5546786378034945},{"id":"al-manamah_7211","citySlug":"al-manamah","name":"Parque Central","category":"ocio","lat":25.329974210271498,"lng":56.013625189101994,"avgVisitMinutes":69,"estimatedCostEur":1,"score":0.7554233071327733},{"id":"al-manamah_4874","citySlug":"al-manamah","name":"Vista Alta de Al Manāmah","category":"mirador","lat":25.327705404170057,"lng":56.02006028701678,"avgVisitMinutes":72,"estimatedCostEur":9,"score":2.320366890186265},{"id":"al-hamriyah_2944","citySlug":"al-hamriyah","name":"Paseo Principal","category":"ocio","lat":25.47728739016837,"lng":55.53663939056779,"avgVisitMinutes":49,"estimatedCostEur":4,"score":1.9786847739939826},{"id":"al-hamriyah_7879","citySlug":"al-hamriyah","name":"Playa Sur","category":"playa","lat":25.485181055634506,"lng":55.53274527698123,"avgVisitMinutes":82,"estimatedCostEur":4,"score":0.8458156876045936},{"id":"al-hamriyah_6290","citySlug":"al-hamriyah","name":"Punto Panorámico","category":"mirador","lat":25.47400972418895,"lng":55.54099738862097,"avgVisitMinutes":74,"estimatedCostEur":13,"score":3.733852937864353},{"id":"al-hamriyah_3875","citySlug":"al-hamriyah","name":"Museo Cultural de Al Ḩamrīyah","category":"cultura","lat":25.482396252158786,"lng":55.538695618170316,"avgVisitMinutes":43,"estimatedCostEur":10,"score":1.7133480454905545},{"id":"al-hamriyah_2791","citySlug":"al-hamriyah","name":"Paseo Principal","category":"ocio","lat":25.47133371328841,"lng":55.526841127399685,"avgVisitMinutes":21,"estimatedCostEur":20,"score":0.6861718207081264},{"id":"al-hamriyah_4635","citySlug":"al-hamriyah","name":"Ruta de Tapas","category":"gastronomia","lat":25.4730543300349,"lng":55.52581110399995,"avgVisitMinutes":34,"estimatedCostEur":0,"score":4.32038821000366},{"id":"al-hamriyah_8956","citySlug":"al-hamriyah","name":"Playa Norte","category":"playa","lat":25.48079987542487,"lng":55.543668323202844,"avgVisitMinutes":87,"estimatedCostEur":11,"score":3.068611995464439},{"id":"al-hamriyah_1559","citySlug":"al-hamriyah","name":"Vista Alta de Al Ḩamrīyah","category":"mirador","lat":25.471296276372776,"lng":55.52639303577624,"avgVisitMinutes":33,"estimatedCostEur":15,"score":2.407431118101521},{"id":"al-hamriyah_9709","citySlug":"al-hamriyah","name":"Mercado Gastronómico","category":"gastronomia","lat":25.475621891837342,"lng":55.52844550918089,"avgVisitMinutes":73,"estimatedCostEur":0,"score":3.3294798694440138},{"id":"al-hamriyah_1415","citySlug":"al-hamriyah","name":"Restaurante Típico de Al Ḩamrīyah","category":"gastronomia","lat":25.484694130504998,"lng":55.524764317746644,"avgVisitMinutes":86,"estimatedCostEur":16,"score":1.777576656436336},{"id":"al-hamriyah_5880","citySlug":"al-hamriyah","name":"Ruta de Tapas","category":"gastronomia","lat":25.48192362270723,"lng":55.537418693210206,"avgVisitMinutes":76,"estimatedCostEur":7,"score":3.434465521817391},{"id":"al-hamriyah_8074","citySlug":"al-hamriyah","name":"Playa Central","category":"playa","lat":25.488052281274513,"lng":55.527774427520264,"avgVisitMinutes":89,"estimatedCostEur":5,"score":2.409164798529697},{"id":"hatta_5466","citySlug":"hatta","name":"Centro de Arte de Ḩattā","category":"cultura","lat":24.79721246682179,"lng":56.12346252029245,"avgVisitMinutes":40,"estimatedCostEur":2,"score":4.388008578837701},{"id":"hatta_6621","citySlug":"hatta","name":"Playa Sur","category":"playa","lat":24.805410103815465,"lng":56.13054129925682,"avgVisitMinutes":29,"estimatedCostEur":17,"score":1.0428601450855837},{"id":"hatta_9754","citySlug":"hatta","name":"Punto Panorámico","category":"mirador","lat":24.80470227480631,"lng":56.12887307356724,"avgVisitMinutes":31,"estimatedCostEur":18,"score":3.1862745922239415},{"id":"hatta_4697","citySlug":"hatta","name":"Restaurante Típico de Ḩattā","category":"gastronomia","lat":24.801797613504604,"lng":56.12635354368022,"avgVisitMinutes":32,"estimatedCostEur":12,"score":3.360690416246877},{"id":"hatta_5541","citySlug":"hatta","name":"Ruta de Tapas","category":"gastronomia","lat":24.801558141554523,"lng":56.12047916089325,"avgVisitMinutes":61,"estimatedCostEur":5,"score":2.606746092369917},{"id":"hatta_7831","citySlug":"hatta","name":"Centro Histórico","category":"historia","lat":24.803104737120652,"lng":56.13611230963217,"avgVisitMinutes":52,"estimatedCostEur":21,"score":4.565844563389807},{"id":"fujairah_8400","citySlug":"fujairah","name":"Zona Comercial","category":"ocio","lat":25.120190510661523,"lng":56.3338970172548,"avgVisitMinutes":37,"estimatedCostEur":1,"score":4.8831880585057785},{"id":"fujairah_1662","citySlug":"fujairah","name":"Punto Panorámico","category":"mirador","lat":25.119581952199606,"lng":56.34468546932358,"avgVisitMinutes":34,"estimatedCostEur":20,"score":2.6711332671359935},{"id":"fujairah_6777","citySlug":"fujairah","name":"Centro de Arte de Fujairah","category":"cultura","lat":25.10698635694079,"lng":56.344393774614645,"avgVisitMinutes":33,"estimatedCostEur":1,"score":3.9512987277293146},{"id":"fujairah_7856","citySlug":"fujairah","name":"Zona Comercial","category":"ocio","lat":25.108408156435722,"lng":56.34757457650089,"avgVisitMinutes":25,"estimatedCostEur":10,"score":3.2168084099197363},{"id":"fujairah_8042","citySlug":"fujairah","name":"Parque Central","category":"ocio","lat":25.118573241510024,"lng":56.33506717047441,"avgVisitMinutes":52,"estimatedCostEur":21,"score":0.9417172010265421},{"id":"al-ain-city_6584","citySlug":"al-ain-city","name":"Playa Sur","category":"playa","lat":24.186656412318094,"lng":55.76242589281735,"avgVisitMinutes":30,"estimatedCostEur":15,"score":3.3518024406036764},{"id":"al-ain-city_9686","citySlug":"al-ain-city","name":"Centro de Arte de Al Ain City","category":"cultura","lat":24.193751542686297,"lng":55.76762023747983,"avgVisitMinutes":33,"estimatedCostEur":5,"score":1.9437268679586945},{"id":"al-ain-city_7816","citySlug":"al-ain-city","name":"Teatro Municipal","category":"cultura","lat":24.1859589719777,"lng":55.75205185118632,"avgVisitMinutes":26,"estimatedCostEur":25,"score":1.6673704654599275},{"id":"al-ain-city_6486","citySlug":"al-ain-city","name":"Teatro Municipal","category":"cultura","lat":24.186715360880054,"lng":55.75383826778169,"avgVisitMinutes":75,"estimatedCostEur":23,"score":3.6019824894655272},{"id":"al-ain-city_8377","citySlug":"al-ain-city","name":"Punto Panorámico","category":"mirador","lat":24.18866531867931,"lng":55.76002870410724,"avgVisitMinutes":23,"estimatedCostEur":11,"score":2.9494782759070732},{"id":"al-ain-city_4516","citySlug":"al-ain-city","name":"Centro Histórico","category":"historia","lat":24.18461436727959,"lng":55.76573187755331,"avgVisitMinutes":42,"estimatedCostEur":23,"score":0.5596533092432541},{"id":"al-ain-city_9699","citySlug":"al-ain-city","name":"Galería de Arte","category":"cultura","lat":24.189728897221123,"lng":55.760380113787335,"avgVisitMinutes":46,"estimatedCostEur":16,"score":2.142707876153747},{"id":"al-ain-city_4992","citySlug":"al-ain-city","name":"Restaurante Típico de Al Ain City","category":"gastronomia","lat":24.19320557664234,"lng":55.7541714313264,"avgVisitMinutes":73,"estimatedCostEur":18,"score":4.433903454374285},{"id":"al-ain-city_7096","citySlug":"al-ain-city","name":"Parque Central","category":"ocio","lat":24.184505489220857,"lng":55.76898117187933,"avgVisitMinutes":67,"estimatedCostEur":6,"score":1.448205445215204},{"id":"ajman_1901","citySlug":"ajman","name":"Vista Alta de Ajman","category":"mirador","lat":25.408395197866,"lng":55.48851832780895,"avgVisitMinutes":56,"estimatedCostEur":14,"score":4.756989363550528},{"id":"ajman_4399","citySlug":"ajman","name":"Mercado Gastronómico","category":"gastronomia","lat":25.39633665155098,"lng":55.48405546993169,"avgVisitMinutes":84,"estimatedCostEur":15,"score":4.7870844762563545},{"id":"ajman_7893","citySlug":"ajman","name":"Playa Norte","category":"playa","lat":25.39565275992379,"lng":55.486675660572594,"avgVisitMinutes":79,"estimatedCostEur":11,"score":1.2498595639314367},{"id":"ajman_8676","citySlug":"ajman","name":"Playa Norte","category":"playa","lat":25.40272758987251,"lng":55.47545829376907,"avgVisitMinutes":69,"estimatedCostEur":12,"score":2.405332971919832},{"id":"ajman_8344","citySlug":"ajman","name":"Punto Panorámico","category":"mirador","lat":25.397775885763558,"lng":55.48796285668305,"avgVisitMinutes":27,"estimatedCostEur":18,"score":4.711702259373892},{"id":"adh-dhayd_5019","citySlug":"adh-dhayd","name":"Teatro Municipal","category":"cultura","lat":25.281692189295935,"lng":55.879152270903056,"avgVisitMinutes":79,"estimatedCostEur":12,"score":1.9639500066874513},{"id":"adh-dhayd_3161","citySlug":"adh-dhayd","name":"Playa Sur","category":"playa","lat":25.29733318529294,"lng":55.89114850017307,"avgVisitMinutes":35,"estimatedCostEur":3,"score":4.046341954259018},{"id":"adh-dhayd_5146","citySlug":"adh-dhayd","name":"Ruta de Tapas","category":"gastronomia","lat":25.288877258718212,"lng":55.8888922915816,"avgVisitMinutes":90,"estimatedCostEur":1,"score":4.471372895403672},{"id":"adh-dhayd_9465","citySlug":"adh-dhayd","name":"Playa Norte","category":"playa","lat":25.29055614375437,"lng":55.87552739742584,"avgVisitMinutes":44,"estimatedCostEur":13,"score":1.2096092201112918},{"id":"adh-dhayd_8370","citySlug":"adh-dhayd","name":"Iglesia de Adh Dhayd","category":"historia","lat":25.28531516283937,"lng":55.8903096088411,"avgVisitMinutes":27,"estimatedCostEur":19,"score":1.8966972245956062},{"id":"adh-dhayd_9385","citySlug":"adh-dhayd","name":"Playa Sur","category":"playa","lat":25.294958684064365,"lng":55.87668225421219,"avgVisitMinutes":40,"estimatedCostEur":18,"score":3.300242275012425},{"id":"adh-dhayd_9443","citySlug":"adh-dhayd","name":"Parque Central","category":"ocio","lat":25.289980718020896,"lng":55.87290732582487,"avgVisitMinutes":50,"estimatedCostEur":25,"score":1.9381724036892924},{"id":"adh-dhayd_9585","citySlug":"adh-dhayd","name":"Teatro Municipal","category":"cultura","lat":25.282422206713804,"lng":55.88805053865221,"avgVisitMinutes":77,"estimatedCostEur":9,"score":3.982627400359347},{"id":"adh-dhayd_3704","citySlug":"adh-dhayd","name":"Castillo de Adh Dhayd","category":"historia","lat":25.278815043392612,"lng":55.88215719190923,"avgVisitMinutes":89,"estimatedCostEur":8,"score":4.176778669794586},{"id":"adh-dhayd_2988","citySlug":"adh-dhayd","name":"Vista Alta de Adh Dhayd","category":"mirador","lat":25.279422362917575,"lng":55.878541574326896,"avgVisitMinutes":60,"estimatedCostEur":3,"score":2.3255271669088007},{"id":"adh-dhayd_5842","citySlug":"adh-dhayd","name":"Galería de Arte","category":"cultura","lat":25.27922456450249,"lng":55.88146619468366,"avgVisitMinutes":24,"estimatedCostEur":12,"score":0.5453696111312867},{"id":"abu-dhabi_7450","citySlug":"abu-dhabi","name":"Ruta de Tapas","category":"gastronomia","lat":24.446034930964906,"lng":54.40435611806268,"avgVisitMinutes":71,"estimatedCostEur":25,"score":2.3400859435269696},{"id":"abu-dhabi_6918","citySlug":"abu-dhabi","name":"Teatro Municipal","category":"cultura","lat":24.445310858701976,"lng":54.39416013835829,"avgVisitMinutes":67,"estimatedCostEur":11,"score":1.0725823053599566},{"id":"abu-dhabi_5106","citySlug":"abu-dhabi","name":"Galería de Arte","category":"cultura","lat":24.45511436172858,"lng":54.39074741838059,"avgVisitMinutes":79,"estimatedCostEur":10,"score":0.833235016800786},{"id":"abu-dhabi_9860","citySlug":"abu-dhabi","name":"Parque Central","category":"ocio","lat":24.449746800582226,"lng":54.387544020111946,"avgVisitMinutes":37,"estimatedCostEur":25,"score":2.978503126577565},{"id":"abu-dhabi_5006","citySlug":"abu-dhabi","name":"Iglesia de Abu Dhabi","category":"historia","lat":24.44137640111707,"lng":54.40307138121465,"avgVisitMinutes":87,"estimatedCostEur":12,"score":4.364754678606094},{"id":"abu-dhabi_1013","citySlug":"abu-dhabi","name":"Castillo de Abu Dhabi","category":"historia","lat":24.457741878785573,"lng":54.398141946437235,"avgVisitMinutes":47,"estimatedCostEur":7,"score":2.44780056752354},{"id":"abu-dhabi_7435","citySlug":"abu-dhabi","name":"Restaurante Típico de Abu Dhabi","category":"gastronomia","lat":24.457438314616937,"lng":54.39029566984551,"avgVisitMinutes":36,"estimatedCostEur":16,"score":4.279083115649536},{"id":"abu-dhabi_7134","citySlug":"abu-dhabi","name":"Museo Cultural de Abu Dhabi","category":"cultura","lat":24.444899921201603,"lng":54.403318500124385,"avgVisitMinutes":50,"estimatedCostEur":24,"score":2.3525535248414506},{"id":"abu-dhabi_9734","citySlug":"abu-dhabi","name":"Playa Central","category":"playa","lat":24.447191249165513,"lng":54.391812472575815,"avgVisitMinutes":56,"estimatedCostEur":11,"score":0.7867310794659361},{"id":"margham_5835","citySlug":"margham","name":"Playa Sur","category":"playa","lat":24.890443957957586,"lng":55.630246162591554,"avgVisitMinutes":85,"estimatedCostEur":0,"score":4.6193593637594965},{"id":"margham_8171","citySlug":"margham","name":"Playa Sur","category":"playa","lat":24.900101332318542,"lng":55.6257344542404,"avgVisitMinutes":29,"estimatedCostEur":0,"score":2.0892448724850823},{"id":"margham_7002","citySlug":"margham","name":"Museo Cultural de Margham","category":"cultura","lat":24.894072512714388,"lng":55.615977141877295,"avgVisitMinutes":22,"estimatedCostEur":21,"score":1.0255443662036883},{"id":"margham_7108","citySlug":"margham","name":"Playa Sur","category":"playa","lat":24.899208219503493,"lng":55.61735960686196,"avgVisitMinutes":79,"estimatedCostEur":7,"score":3.9814228735879436},{"id":"margham_9549","citySlug":"margham","name":"Vista Alta de Margham","category":"mirador","lat":24.905756346811927,"lng":55.62228267376481,"avgVisitMinutes":33,"estimatedCostEur":6,"score":4.881180860930548},{"id":"margham_4436","citySlug":"margham","name":"Punto Panorámico","category":"mirador","lat":24.901367499841076,"lng":55.619391254832166,"avgVisitMinutes":89,"estimatedCostEur":2,"score":3.7323528815920026},{"id":"margham_2177","citySlug":"margham","name":"Punto Panorámico","category":"mirador","lat":24.906518519520148,"lng":55.63342006774805,"avgVisitMinutes":20,"estimatedCostEur":2,"score":1.1274076671130164},{"id":"margham_1662","citySlug":"margham","name":"Parque Central","category":"ocio","lat":24.89283879767734,"lng":55.616501595290565,"avgVisitMinutes":41,"estimatedCostEur":17,"score":4.38661221033002},{"id":"margham_6637","citySlug":"margham","name":"Mirador de Margham","category":"mirador","lat":24.889930369932465,"lng":55.623577037336105,"avgVisitMinutes":74,"estimatedCostEur":22,"score":2.1902289286593},{"id":"margham_5169","citySlug":"margham","name":"Paseo Principal","category":"ocio","lat":24.902906082511254,"lng":55.63097014911035,"avgVisitMinutes":76,"estimatedCostEur":2,"score":4.782154471943289},{"id":"margham_5895","citySlug":"margham","name":"Playa Sur","category":"playa","lat":24.890067103588013,"lng":55.616451159563404,"avgVisitMinutes":84,"estimatedCostEur":20,"score":3.194989180589711},{"id":"margham_8413","citySlug":"margham","name":"Mirador de Margham","category":"mirador","lat":24.90554858670405,"lng":55.6286664937677,"avgVisitMinutes":76,"estimatedCostEur":4,"score":0.8864435010708149},{"id":"abu-musa_1625","citySlug":"abu-musa","name":"Parque Central","category":"ocio","lat":25.874751766583625,"lng":55.02471528801057,"avgVisitMinutes":31,"estimatedCostEur":25,"score":3.736006125552825},{"id":"abu-musa_3802","citySlug":"abu-musa","name":"Iglesia de Abū Mūsá","category":"historia","lat":25.866098293145622,"lng":55.016768720885196,"avgVisitMinutes":79,"estimatedCostEur":19,"score":3.434762210101968},{"id":"abu-musa_8339","citySlug":"abu-musa","name":"Ruta de Tapas","category":"gastronomia","lat":25.875732891304818,"lng":55.031062465791024,"avgVisitMinutes":32,"estimatedCostEur":9,"score":0.5677808083257717},{"id":"abu-musa_1488","citySlug":"abu-musa","name":"Centro Histórico","category":"historia","lat":25.872259313855672,"lng":55.03106680315064,"avgVisitMinutes":54,"estimatedCostEur":10,"score":2.3623372967406935},{"id":"abu-musa_3822","citySlug":"abu-musa","name":"Parque Central","category":"ocio","lat":25.858443175071415,"lng":55.01837029094829,"avgVisitMinutes":24,"estimatedCostEur":17,"score":3.9098319250612663},{"id":"abu-musa_5556","citySlug":"abu-musa","name":"Mercado Gastronómico","category":"gastronomia","lat":25.865757698907615,"lng":55.01664678478023,"avgVisitMinutes":48,"estimatedCostEur":13,"score":3.724316038152051},{"id":"abu-musa_4938","citySlug":"abu-musa","name":"Murallas de Abū Mūsá","category":"historia","lat":25.876325501377625,"lng":55.033086835408646,"avgVisitMinutes":41,"estimatedCostEur":24,"score":4.100914970547164},{"id":"abu-musa_2092","citySlug":"abu-musa","name":"Mercado Gastronómico","category":"gastronomia","lat":25.85731395539742,"lng":55.016586103942835,"avgVisitMinutes":55,"estimatedCostEur":24,"score":3.2478866167156304},{"id":"al-lusayli_1847","citySlug":"al-lusayli","name":"Restaurante Típico de Al Lusaylī","category":"gastronomia","lat":24.936242603191406,"lng":55.47964958789072,"avgVisitMinutes":77,"estimatedCostEur":22,"score":3.508887690282471},{"id":"al-lusayli_4705","citySlug":"al-lusayli","name":"Museo Cultural de Al Lusaylī","category":"cultura","lat":24.9259661476484,"lng":55.48166274600449,"avgVisitMinutes":67,"estimatedCostEur":2,"score":1.6051406594977782},{"id":"al-lusayli_6146","citySlug":"al-lusayli","name":"Galería de Arte","category":"cultura","lat":24.922970225249184,"lng":55.47224853414133,"avgVisitMinutes":70,"estimatedCostEur":19,"score":3.2695931928731157},{"id":"al-lusayli_9783","citySlug":"al-lusayli","name":"Vista Alta de Al Lusaylī","category":"mirador","lat":24.929055811502128,"lng":55.473838470577654,"avgVisitMinutes":20,"estimatedCostEur":11,"score":2.9262695956702958},{"id":"al-lusayli_6558","citySlug":"al-lusayli","name":"Murallas de Al Lusaylī","category":"historia","lat":24.92467182990731,"lng":55.46830478610966,"avgVisitMinutes":54,"estimatedCostEur":3,"score":2.8139080945335064},{"id":"al-lusayli_4048","citySlug":"al-lusayli","name":"Galería de Arte","category":"cultura","lat":24.923464471450878,"lng":55.47049419679372,"avgVisitMinutes":38,"estimatedCostEur":2,"score":0.6908675547534127},{"id":"al-lusayli_7951","citySlug":"al-lusayli","name":"Castillo de Al Lusaylī","category":"historia","lat":24.926831752506576,"lng":55.473391611572566,"avgVisitMinutes":31,"estimatedCostEur":11,"score":1.347087080585274},{"id":"al-lusayli_2503","citySlug":"al-lusayli","name":"Teatro Municipal","category":"cultura","lat":24.940726465986334,"lng":55.483684115742165,"avgVisitMinutes":41,"estimatedCostEur":14,"score":0.8509684390057892},{"id":"al-lusayli_8499","citySlug":"al-lusayli","name":"Paseo Principal","category":"ocio","lat":24.935984708917584,"lng":55.47693775284304,"avgVisitMinutes":83,"estimatedCostEur":13,"score":1.8099500171292466},{"id":"suwayhan_5798","citySlug":"suwayhan","name":"Playa Sur","category":"playa","lat":24.466764766331618,"lng":55.341803613195786,"avgVisitMinutes":34,"estimatedCostEur":11,"score":2.5771012272440146},{"id":"suwayhan_4602","citySlug":"suwayhan","name":"Teatro Municipal","category":"cultura","lat":24.453606650572524,"lng":55.332375758414685,"avgVisitMinutes":42,"estimatedCostEur":10,"score":0.8078681992509856},{"id":"suwayhan_7001","citySlug":"suwayhan","name":"Zona Comercial","category":"ocio","lat":24.467228089343948,"lng":55.34345519304927,"avgVisitMinutes":54,"estimatedCostEur":5,"score":0.5129647446889997},{"id":"suwayhan_6339","citySlug":"suwayhan","name":"Castillo de Suwayḩān","category":"historia","lat":24.46036877681076,"lng":55.331428285273,"avgVisitMinutes":30,"estimatedCostEur":24,"score":3.8064251889534417},{"id":"suwayhan_1887","citySlug":"suwayhan","name":"Mirador de Suwayḩān","category":"mirador","lat":24.4712104898451,"lng":55.34411015834105,"avgVisitMinutes":58,"estimatedCostEur":4,"score":1.461831129862854},{"id":"suwayhan_4216","citySlug":"suwayhan","name":"Ruta de Tapas","category":"gastronomia","lat":24.465962767480345,"lng":55.32766622281287,"avgVisitMinutes":62,"estimatedCostEur":17,"score":2.394505772303336},{"id":"suwayhan_9370","citySlug":"suwayhan","name":"Museo Local de Suwayḩān","category":"historia","lat":24.45805303851088,"lng":55.343562775529705,"avgVisitMinutes":25,"estimatedCostEur":12,"score":1.102641084194718},{"id":"the-palm-jumeirah_4340","citySlug":"the-palm-jumeirah","name":"Castillo de The Palm Jumeirah","category":"historia","lat":25.10898930417797,"lng":55.138385356110746,"avgVisitMinutes":33,"estimatedCostEur":21,"score":1.1777787852450503},{"id":"the-palm-jumeirah_1847","citySlug":"the-palm-jumeirah","name":"Parque Central","category":"ocio","lat":25.120698099503233,"lng":55.13733965408864,"avgVisitMinutes":61,"estimatedCostEur":20,"score":3.619584233943474},{"id":"the-palm-jumeirah_3907","citySlug":"the-palm-jumeirah","name":"Paseo Principal","category":"ocio","lat":25.12161413742345,"lng":55.12718812897248,"avgVisitMinutes":55,"estimatedCostEur":9,"score":4.852914924916911},{"id":"the-palm-jumeirah_8963","citySlug":"the-palm-jumeirah","name":"Parque Central","category":"ocio","lat":25.119596590453867,"lng":55.125842108620816,"avgVisitMinutes":55,"estimatedCostEur":9,"score":3.0409109299968313},{"id":"the-palm-jumeirah_5892","citySlug":"the-palm-jumeirah","name":"Zona Comercial","category":"ocio","lat":25.124432183508954,"lng":55.130073593097976,"avgVisitMinutes":30,"estimatedCostEur":3,"score":3.526912752736519},{"id":"bur-dubai_8879","citySlug":"bur-dubai","name":"Galería de Arte","category":"cultura","lat":25.261052243876957,"lng":55.294050325896244,"avgVisitMinutes":20,"estimatedCostEur":6,"score":3.722864006444626},{"id":"bur-dubai_4321","citySlug":"bur-dubai","name":"Playa Norte","category":"playa","lat":25.26261380903485,"lng":55.29913713441435,"avgVisitMinutes":81,"estimatedCostEur":14,"score":3.886459962565076},{"id":"bur-dubai_4629","citySlug":"bur-dubai","name":"Murallas de Bur Dubai","category":"historia","lat":25.256437053752038,"lng":55.304859359463585,"avgVisitMinutes":62,"estimatedCostEur":2,"score":2.3615859259841163},{"id":"bur-dubai_1347","citySlug":"bur-dubai","name":"Ruta de Tapas","category":"gastronomia","lat":25.25331569049317,"lng":55.30738513238736,"avgVisitMinutes":70,"estimatedCostEur":23,"score":3.6961569523623377},{"id":"bur-dubai_9598","citySlug":"bur-dubai","name":"Vista Alta de Bur Dubai","category":"mirador","lat":25.257517423668933,"lng":55.30688237323083,"avgVisitMinutes":35,"estimatedCostEur":15,"score":2.302578527424121},{"id":"bur-dubai_8676","citySlug":"bur-dubai","name":"Iglesia de Bur Dubai","category":"historia","lat":25.25723391061106,"lng":55.29982950554077,"avgVisitMinutes":43,"estimatedCostEur":2,"score":3.1381764923894386},{"id":"bur-dubai_4530","citySlug":"bur-dubai","name":"Punto Panorámico","category":"mirador","lat":25.26315666504704,"lng":55.29803599223099,"avgVisitMinutes":32,"estimatedCostEur":21,"score":3.674552784462957},{"id":"bur-dubai_3031","citySlug":"bur-dubai","name":"Restaurante Típico de Bur Dubai","category":"gastronomia","lat":25.260649539669135,"lng":55.29010691383144,"avgVisitMinutes":38,"estimatedCostEur":9,"score":2.3293015751400326},{"id":"bur-dubai_8320","citySlug":"bur-dubai","name":"Restaurante Típico de Bur Dubai","category":"gastronomia","lat":25.266682392360938,"lng":55.304884018589505,"avgVisitMinutes":65,"estimatedCostEur":18,"score":0.5548214946268952},{"id":"bur-dubai_9826","citySlug":"bur-dubai","name":"Murallas de Bur Dubai","category":"historia","lat":25.255705210643942,"lng":55.29794355224544,"avgVisitMinutes":22,"estimatedCostEur":9,"score":4.8447728838426345},{"id":"bur-dubai_7883","citySlug":"bur-dubai","name":"Museo Cultural de Bur Dubai","category":"cultura","lat":25.26291065306597,"lng":55.29195857997371,"avgVisitMinutes":20,"estimatedCostEur":0,"score":2.0828175645450706},{"id":"bur-dubai_2427","citySlug":"bur-dubai","name":"Murallas de Bur Dubai","category":"historia","lat":25.257325648718624,"lng":55.29986428403939,"avgVisitMinutes":88,"estimatedCostEur":7,"score":4.209091880095256},{"id":"khalifah-a-city_9988","citySlug":"khalifah-a-city","name":"Teatro Municipal","category":"cultura","lat":24.431549984443024,"lng":54.599942661735604,"avgVisitMinutes":28,"estimatedCostEur":7,"score":1.4857524870732588},{"id":"khalifah-a-city_9962","citySlug":"khalifah-a-city","name":"Museo Local de Khalifah A City","category":"historia","lat":24.42046986300308,"lng":54.60139849280168,"avgVisitMinutes":48,"estimatedCostEur":6,"score":3.193305153998078},{"id":"khalifah-a-city_4297","citySlug":"khalifah-a-city","name":"Murallas de Khalifah A City","category":"historia","lat":24.43483043786568,"lng":54.60911613302598,"avgVisitMinutes":23,"estimatedCostEur":24,"score":3.7062068146632745},{"id":"khalifah-a-city_7519","citySlug":"khalifah-a-city","name":"Playa Norte","category":"playa","lat":24.435510044473688,"lng":54.60566160649076,"avgVisitMinutes":86,"estimatedCostEur":16,"score":1.5002147439722948},{"id":"khalifah-a-city_5399","citySlug":"khalifah-a-city","name":"Museo Local de Khalifah A City","category":"historia","lat":24.42915768717589,"lng":54.60262568071248,"avgVisitMinutes":78,"estimatedCostEur":19,"score":4.269448900725997},{"id":"khalifah-a-city_9164","citySlug":"khalifah-a-city","name":"Galería de Arte","category":"cultura","lat":24.42357238854116,"lng":54.61387003697319,"avgVisitMinutes":21,"estimatedCostEur":21,"score":4.198568248591323},{"id":"khalifah-a-city_6490","citySlug":"khalifah-a-city","name":"Paseo Principal","category":"ocio","lat":24.431482448872273,"lng":54.60780982945277,"avgVisitMinutes":76,"estimatedCostEur":7,"score":2.0773266695966184},{"id":"khalifah-a-city_8774","citySlug":"khalifah-a-city","name":"Vista Alta de Khalifah A City","category":"mirador","lat":24.420358493717384,"lng":54.59631601204454,"avgVisitMinutes":51,"estimatedCostEur":9,"score":4.726899489754052},{"id":"jebel-ali_3628","citySlug":"jebel-ali","name":"Centro de Arte de Jebel Ali","category":"cultura","lat":25.00625060587553,"lng":55.09981143766689,"avgVisitMinutes":50,"estimatedCostEur":6,"score":0.7701380151780743},{"id":"jebel-ali_2768","citySlug":"jebel-ali","name":"Mercado Gastronómico","category":"gastronomia","lat":25.008899454971434,"lng":55.116309892088346,"avgVisitMinutes":25,"estimatedCostEur":10,"score":2.862181513727741},{"id":"jebel-ali_2479","citySlug":"jebel-ali","name":"Centro Histórico","category":"historia","lat":25.00748882889215,"lng":55.09927342490448,"avgVisitMinutes":49,"estimatedCostEur":0,"score":4.244407943217206},{"id":"jebel-ali_9651","citySlug":"jebel-ali","name":"Punto Panorámico","category":"mirador","lat":25.004672308878504,"lng":55.10198932700989,"avgVisitMinutes":84,"estimatedCostEur":5,"score":3.517352110686206},{"id":"jebel-ali_2824","citySlug":"jebel-ali","name":"Ruta de Tapas","category":"gastronomia","lat":25.007346584571714,"lng":55.109777172569096,"avgVisitMinutes":34,"estimatedCostEur":1,"score":0.56285343948061},{"id":"jebel-ali_5082","citySlug":"jebel-ali","name":"Castillo de Jebel Ali","category":"historia","lat":24.998061769103916,"lng":55.10381512189561,"avgVisitMinutes":80,"estimatedCostEur":9,"score":2.7496073128595073},{"id":"jebel-ali_3328","citySlug":"jebel-ali","name":"Mirador de Jebel Ali","category":"mirador","lat":25.007903680237366,"lng":55.11628702852781,"avgVisitMinutes":54,"estimatedCostEur":18,"score":3.167398606560185},{"id":"jebel-ali_4057","citySlug":"jebel-ali","name":"Murallas de Jebel Ali","category":"historia","lat":24.998679916660134,"lng":55.10185325745947,"avgVisitMinutes":80,"estimatedCostEur":20,"score":2.298534525733401},{"id":"jebel-ali_8497","citySlug":"jebel-ali","name":"Mercado Gastronómico","category":"gastronomia","lat":25.00448818793742,"lng":55.112179435453214,"avgVisitMinutes":54,"estimatedCostEur":22,"score":2.4078311753577046},{"id":"bani-yas-city_3123","citySlug":"bani-yas-city","name":"Centro de Arte de Bani Yas City","category":"cultura","lat":24.317751462450985,"lng":54.6196770814587,"avgVisitMinutes":30,"estimatedCostEur":8,"score":4.696238660370167},{"id":"bani-yas-city_3839","citySlug":"bani-yas-city","name":"Mercado Gastronómico","category":"gastronomia","lat":24.315768141333137,"lng":54.635331862971995,"avgVisitMinutes":64,"estimatedCostEur":4,"score":1.0658916622754866},{"id":"bani-yas-city_2293","citySlug":"bani-yas-city","name":"Mirador de Bani Yas City","category":"mirador","lat":24.311016128651573,"lng":54.63858199808294,"avgVisitMinutes":81,"estimatedCostEur":19,"score":0.7529831646719587},{"id":"bani-yas-city_4192","citySlug":"bani-yas-city","name":"Playa Central","category":"playa","lat":24.307906048372345,"lng":54.63585299666947,"avgVisitMinutes":68,"estimatedCostEur":6,"score":2.6103662907229084},{"id":"bani-yas-city_8647","citySlug":"bani-yas-city","name":"Parque Central","category":"ocio","lat":24.31413215027069,"lng":54.62448231120743,"avgVisitMinutes":65,"estimatedCostEur":21,"score":3.5000603026599855},{"id":"bani-yas-city_3891","citySlug":"bani-yas-city","name":"Playa Norte","category":"playa","lat":24.308042344768474,"lng":54.6243373889017,"avgVisitMinutes":45,"estimatedCostEur":17,"score":0.9710166341032893},{"id":"bani-yas-city_5882","citySlug":"bani-yas-city","name":"Ruta de Tapas","category":"gastronomia","lat":24.31752727018618,"lng":54.62246669110109,"avgVisitMinutes":34,"estimatedCostEur":19,"score":0.7195485074646621},{"id":"musaffah_2609","citySlug":"musaffah","name":"Vista Alta de Musaffah","category":"mirador","lat":24.362018040568547,"lng":54.484259612648536,"avgVisitMinutes":39,"estimatedCostEur":9,"score":2.3892824687993546},{"id":"musaffah_2647","citySlug":"musaffah","name":"Iglesia de Musaffah","category":"historia","lat":24.355734262797814,"lng":54.48160490185404,"avgVisitMinutes":85,"estimatedCostEur":17,"score":2.113866290069624},{"id":"musaffah_7642","citySlug":"musaffah","name":"Playa Norte","category":"playa","lat":24.361710007907345,"lng":54.48840933495248,"avgVisitMinutes":58,"estimatedCostEur":16,"score":0.8429381461916461},{"id":"musaffah_7618","citySlug":"musaffah","name":"Paseo Principal","category":"ocio","lat":24.366863455177835,"lng":54.4851377367289,"avgVisitMinutes":51,"estimatedCostEur":14,"score":0.973118675991187},{"id":"musaffah_3407","citySlug":"musaffah","name":"Zona Comercial","category":"ocio","lat":24.36263474713589,"lng":54.485834503234166,"avgVisitMinutes":48,"estimatedCostEur":19,"score":1.0682985317090812},{"id":"musaffah_1817","citySlug":"musaffah","name":"Murallas de Musaffah","category":"historia","lat":24.36507915802765,"lng":54.47389910689345,"avgVisitMinutes":59,"estimatedCostEur":23,"score":2.5242463359245764},{"id":"musaffah_8290","citySlug":"musaffah","name":"Mercado Gastronómico","category":"gastronomia","lat":24.364164825989764,"lng":54.489146118162935,"avgVisitMinutes":88,"estimatedCostEur":24,"score":2.275800173447035},{"id":"musaffah_3861","citySlug":"musaffah","name":"Vista Alta de Musaffah","category":"mirador","lat":24.360065348982864,"lng":54.47354879297765,"avgVisitMinutes":45,"estimatedCostEur":17,"score":3.899432774578167},{"id":"musaffah_6126","citySlug":"musaffah","name":"Parque Central","category":"ocio","lat":24.361511769107064,"lng":54.48180826628457,"avgVisitMinutes":65,"estimatedCostEur":10,"score":4.778844058048085},{"id":"musaffah_8906","citySlug":"musaffah","name":"Museo Local de Musaffah","category":"historia","lat":24.35733409071819,"lng":54.491227833419934,"avgVisitMinutes":69,"estimatedCostEur":25,"score":4.300110432911186},{"id":"musaffah_5653","citySlug":"musaffah","name":"Punto Panorámico","category":"mirador","lat":24.354546562706567,"lng":54.474752147074554,"avgVisitMinutes":44,"estimatedCostEur":18,"score":3.3906182387889228},{"id":"musaffah_7243","citySlug":"musaffah","name":"Teatro Municipal","category":"cultura","lat":24.36700903104356,"lng":54.48072307210233,"avgVisitMinutes":78,"estimatedCostEur":22,"score":1.4055804334381632},{"id":"al-shamkhah-city_6740","citySlug":"al-shamkhah-city","name":"Mirador de Al Shamkhah City","category":"mirador","lat":24.399222684057293,"lng":54.709703613827074,"avgVisitMinutes":76,"estimatedCostEur":11,"score":3.614296967941717},{"id":"al-shamkhah-city_3545","citySlug":"al-shamkhah-city","name":"Playa Norte","category":"playa","lat":24.389069834749623,"lng":54.70414622080497,"avgVisitMinutes":88,"estimatedCostEur":0,"score":4.404469714402234},{"id":"al-shamkhah-city_8869","citySlug":"al-shamkhah-city","name":"Mirador de Al Shamkhah City","category":"mirador","lat":24.392011267374546,"lng":54.716998740109055,"avgVisitMinutes":50,"estimatedCostEur":10,"score":2.880042101661664},{"id":"al-shamkhah-city_1443","citySlug":"al-shamkhah-city","name":"Punto Panorámico","category":"mirador","lat":24.38484282194462,"lng":54.70439631151344,"avgVisitMinutes":36,"estimatedCostEur":15,"score":1.435539219798391},{"id":"al-shamkhah-city_2697","citySlug":"al-shamkhah-city","name":"Mercado Gastronómico","category":"gastronomia","lat":24.402335649732716,"lng":54.70964968683301,"avgVisitMinutes":69,"estimatedCostEur":7,"score":1.4681592686243101},{"id":"al-shamkhah-city_1441","citySlug":"al-shamkhah-city","name":"Centro de Arte de Al Shamkhah City","category":"cultura","lat":24.382904088465843,"lng":54.70694500031326,"avgVisitMinutes":62,"estimatedCostEur":16,"score":4.849602978413081},{"id":"al-shamkhah-city_9796","citySlug":"al-shamkhah-city","name":"Playa Central","category":"playa","lat":24.39665499262118,"lng":54.699485219276056,"avgVisitMinutes":38,"estimatedCostEur":9,"score":0.866645412077455},{"id":"al-shamkhah-city_1320","citySlug":"al-shamkhah-city","name":"Playa Norte","category":"playa","lat":24.396641735568753,"lng":54.71054548780946,"avgVisitMinutes":75,"estimatedCostEur":2,"score":3.917119850983149},{"id":"al-shamkhah-city_1224","citySlug":"al-shamkhah-city","name":"Ruta de Tapas","category":"gastronomia","lat":24.394586330260847,"lng":54.70174049390746,"avgVisitMinutes":70,"estimatedCostEur":0,"score":3.7740139066259357},{"id":"al-shamkhah-city_6094","citySlug":"al-shamkhah-city","name":"Teatro Municipal","category":"cultura","lat":24.39547304592533,"lng":54.70184508384087,"avgVisitMinutes":88,"estimatedCostEur":3,"score":3.2900296199018952},{"id":"reef-al-fujairah-city_3484","citySlug":"reef-al-fujairah-city","name":"Paseo Principal","category":"ocio","lat":25.150705803362445,"lng":56.24418771338037,"avgVisitMinutes":33,"estimatedCostEur":14,"score":2.859116273421818},{"id":"reef-al-fujairah-city_6586","citySlug":"reef-al-fujairah-city","name":"Zona Comercial","category":"ocio","lat":25.136906653780898,"lng":56.245494701491744,"avgVisitMinutes":20,"estimatedCostEur":18,"score":4.5438113782574145},{"id":"reef-al-fujairah-city_1176","citySlug":"reef-al-fujairah-city","name":"Centro de Arte de Reef Al Fujairah City","category":"cultura","lat":25.13969239209645,"lng":56.247420871004806,"avgVisitMinutes":65,"estimatedCostEur":11,"score":4.814939771736001},{"id":"reef-al-fujairah-city_6245","citySlug":"reef-al-fujairah-city","name":"Paseo Principal","category":"ocio","lat":25.137530650365907,"lng":56.23932520743168,"avgVisitMinutes":56,"estimatedCostEur":2,"score":3.5491616529211547},{"id":"reef-al-fujairah-city_3316","citySlug":"reef-al-fujairah-city","name":"Teatro Municipal","category":"cultura","lat":25.150347269157113,"lng":56.24636438775978,"avgVisitMinutes":61,"estimatedCostEur":20,"score":1.7204612029575563},{"id":"reef-al-fujairah-city_2957","citySlug":"reef-al-fujairah-city","name":"Mercado Gastronómico","category":"gastronomia","lat":25.146851297519095,"lng":56.249751516950006,"avgVisitMinutes":79,"estimatedCostEur":22,"score":1.4832716607397065},{"id":"reef-al-fujairah-city_3300","citySlug":"reef-al-fujairah-city","name":"Iglesia de Reef Al Fujairah City","category":"historia","lat":25.1392884055786,"lng":56.24819565798947,"avgVisitMinutes":53,"estimatedCostEur":23,"score":2.757295380485049},{"id":"reef-al-fujairah-city_8467","citySlug":"reef-al-fujairah-city","name":"Playa Central","category":"playa","lat":25.154668679004047,"lng":56.25549253731702,"avgVisitMinutes":74,"estimatedCostEur":1,"score":1.509604037663368},{"id":"reef-al-fujairah-city_2285","citySlug":"reef-al-fujairah-city","name":"Restaurante Típico de Reef Al Fujairah City","category":"gastronomia","lat":25.13722792260749,"lng":56.25583033242877,"avgVisitMinutes":35,"estimatedCostEur":23,"score":2.1108648078917587},{"id":"reef-al-fujairah-city_9932","citySlug":"reef-al-fujairah-city","name":"Museo Cultural de Reef Al Fujairah City","category":"cultura","lat":25.145752544709172,"lng":56.23836498982893,"avgVisitMinutes":53,"estimatedCostEur":23,"score":3.8948393013288882},{"id":"reef-al-fujairah-city_7914","citySlug":"reef-al-fujairah-city","name":"Paseo Principal","category":"ocio","lat":25.152229587561383,"lng":56.25407822037669,"avgVisitMinutes":83,"estimatedCostEur":15,"score":0.7554302728857243},{"id":"al-wiqan_9333","citySlug":"al-wiqan","name":"Playa Central","category":"playa","lat":23.748137834337935,"lng":55.33204033442246,"avgVisitMinutes":41,"estimatedCostEur":8,"score":4.559009737820838},{"id":"al-wiqan_1822","citySlug":"al-wiqan","name":"Museo Cultural de Al Wiqan","category":"cultura","lat":23.75374223752536,"lng":55.335730588429655,"avgVisitMinutes":30,"estimatedCostEur":0,"score":2.936723410730084},{"id":"al-wiqan_8917","citySlug":"al-wiqan","name":"Galería de Arte","category":"cultura","lat":23.76292498548874,"lng":55.32446631996052,"avgVisitMinutes":86,"estimatedCostEur":12,"score":4.69310949770346},{"id":"al-wiqan_7714","citySlug":"al-wiqan","name":"Playa Central","category":"playa","lat":23.752673540635996,"lng":55.317682303072345,"avgVisitMinutes":56,"estimatedCostEur":20,"score":4.510699228078852},{"id":"al-wiqan_7298","citySlug":"al-wiqan","name":"Playa Norte","category":"playa","lat":23.744978056877766,"lng":55.328090238793195,"avgVisitMinutes":52,"estimatedCostEur":24,"score":1.3709802682916594},{"id":"al-wiqan_8390","citySlug":"al-wiqan","name":"Restaurante Típico de Al Wiqan","category":"gastronomia","lat":23.76270488395491,"lng":55.31821042482139,"avgVisitMinutes":66,"estimatedCostEur":17,"score":3.7185575983310555},{"id":"al-wiqan_3463","citySlug":"al-wiqan","name":"Punto Panorámico","category":"mirador","lat":23.754543796708905,"lng":55.3226737643541,"avgVisitMinutes":80,"estimatedCostEur":24,"score":4.772358674342265},{"id":"al-wiqan_3283","citySlug":"al-wiqan","name":"Playa Sur","category":"playa","lat":23.748420998176236,"lng":55.31856135309436,"avgVisitMinutes":74,"estimatedCostEur":1,"score":3.579735473121442},{"id":"al-arad_5537","citySlug":"al-arad","name":"Punto Panorámico","category":"mirador","lat":23.840663559176246,"lng":55.530551174374786,"avgVisitMinutes":49,"estimatedCostEur":25,"score":1.7677578364302267},{"id":"al-arad_6016","citySlug":"al-arad","name":"Museo Local de Al'Arad","category":"historia","lat":23.8531626642289,"lng":55.52072113864792,"avgVisitMinutes":80,"estimatedCostEur":21,"score":3.098757820556398},{"id":"al-arad_9581","citySlug":"al-arad","name":"Ruta de Tapas","category":"gastronomia","lat":23.84209311558123,"lng":55.52521874846147,"avgVisitMinutes":48,"estimatedCostEur":12,"score":3.802404181879558},{"id":"al-arad_9373","citySlug":"al-arad","name":"Parque Central","category":"ocio","lat":23.841487608937552,"lng":55.5224917610316,"avgVisitMinutes":34,"estimatedCostEur":24,"score":2.537126542196055},{"id":"al-arad_8594","citySlug":"al-arad","name":"Playa Norte","category":"playa","lat":23.847931056532445,"lng":55.51905839704257,"avgVisitMinutes":74,"estimatedCostEur":15,"score":4.95049449863855},{"id":"al-arad_6332","citySlug":"al-arad","name":"Vista Alta de Al'Arad","category":"mirador","lat":23.844742877303567,"lng":55.5331320378306,"avgVisitMinutes":25,"estimatedCostEur":13,"score":0.8353211067774892},{"id":"al-arad_6520","citySlug":"al-arad","name":"Centro de Arte de Al'Arad","category":"cultura","lat":23.852757386652144,"lng":55.53560105649694,"avgVisitMinutes":82,"estimatedCostEur":23,"score":0.8563984702972518},{"id":"al-arad_5880","citySlug":"al-arad","name":"Mercado Gastronómico","category":"gastronomia","lat":23.853079575604248,"lng":55.53107078561024,"avgVisitMinutes":54,"estimatedCostEur":24,"score":4.946820386111952},{"id":"al-araad_6022","citySlug":"al-araad","name":"Playa Central","category":"playa","lat":23.8724116626135,"lng":55.51915362950624,"avgVisitMinutes":86,"estimatedCostEur":7,"score":4.823012201777409},{"id":"al-araad_7712","citySlug":"al-araad","name":"Mercado Gastronómico","category":"gastronomia","lat":23.860831334000746,"lng":55.52578189050878,"avgVisitMinutes":29,"estimatedCostEur":24,"score":2.3428957278782034},{"id":"al-araad_1066","citySlug":"al-araad","name":"Vista Alta de Al Araad","category":"mirador","lat":23.857885610861953,"lng":55.51932846470747,"avgVisitMinutes":68,"estimatedCostEur":25,"score":0.6925120749635747},{"id":"al-araad_4841","citySlug":"al-araad","name":"Parque Central","category":"ocio","lat":23.861359745323426,"lng":55.51555259336609,"avgVisitMinutes":82,"estimatedCostEur":0,"score":1.215725350291879},{"id":"al-araad_3546","citySlug":"al-araad","name":"Ruta de Tapas","category":"gastronomia","lat":23.861201899530315,"lng":55.53279097344738,"avgVisitMinutes":47,"estimatedCostEur":9,"score":4.935572220828595},{"id":"al-araad_3511","citySlug":"al-araad","name":"Ruta de Tapas","category":"gastronomia","lat":23.866420780176036,"lng":55.52468435265716,"avgVisitMinutes":58,"estimatedCostEur":23,"score":2.437721840829912},{"id":"sha-biyyat-milhah_9453","citySlug":"sha-biyyat-milhah","name":"Galería de Arte","category":"cultura","lat":25.1363150825949,"lng":55.876269732549986,"avgVisitMinutes":74,"estimatedCostEur":1,"score":0.9476952926762869},{"id":"sha-biyyat-milhah_8650","citySlug":"sha-biyyat-milhah","name":"Punto Panorámico","category":"mirador","lat":25.134577228544405,"lng":55.88344342144119,"avgVisitMinutes":72,"estimatedCostEur":23,"score":4.946560260137825},{"id":"sha-biyyat-milhah_4196","citySlug":"sha-biyyat-milhah","name":"Museo Local de Sha'biyyat Milе̄hah","category":"historia","lat":25.136050891557897,"lng":55.89352322630425,"avgVisitMinutes":58,"estimatedCostEur":7,"score":0.5300930700633093},{"id":"sha-biyyat-milhah_8626","citySlug":"sha-biyyat-milhah","name":"Playa Sur","category":"playa","lat":25.139585174573618,"lng":55.880187476100275,"avgVisitMinutes":49,"estimatedCostEur":23,"score":3.8710014133837647},{"id":"sha-biyyat-milhah_7593","citySlug":"sha-biyyat-milhah","name":"Paseo Principal","category":"ocio","lat":25.141344563697782,"lng":55.88737243307141,"avgVisitMinutes":84,"estimatedCostEur":13,"score":4.039688108767134},{"id":"sha-biyyat-milhah_5563","citySlug":"sha-biyyat-milhah","name":"Centro Histórico","category":"historia","lat":25.138653854412635,"lng":55.88849271290168,"avgVisitMinutes":31,"estimatedCostEur":0,"score":1.6396044039446456},{"id":"sha-biyyat-milhah_3481","citySlug":"sha-biyyat-milhah","name":"Parque Central","category":"ocio","lat":25.133065269701774,"lng":55.88857998659735,"avgVisitMinutes":27,"estimatedCostEur":6,"score":0.7732621012634973},{"id":"dubai-motor-city_1491","citySlug":"dubai-motor-city","name":"Playa Central","category":"playa","lat":25.051859259916668,"lng":55.23295608738695,"avgVisitMinutes":73,"estimatedCostEur":3,"score":4.69374667155298},{"id":"dubai-motor-city_7730","citySlug":"dubai-motor-city","name":"Vista Alta de Dubai Motor City","category":"mirador","lat":25.039719807844527,"lng":55.23231243982552,"avgVisitMinutes":84,"estimatedCostEur":3,"score":3.850704299035232},{"id":"dubai-motor-city_1817","citySlug":"dubai-motor-city","name":"Mercado Gastronómico","category":"gastronomia","lat":25.05582403589252,"lng":55.238355672949965,"avgVisitMinutes":64,"estimatedCostEur":4,"score":4.831558850576318},{"id":"dubai-motor-city_3294","citySlug":"dubai-motor-city","name":"Iglesia de Dubai Motor City","category":"historia","lat":25.035987569157008,"lng":55.24497653294663,"avgVisitMinutes":55,"estimatedCostEur":9,"score":0.9231358577175882},{"id":"dubai-motor-city_6954","citySlug":"dubai-motor-city","name":"Paseo Principal","category":"ocio","lat":25.038107719584584,"lng":55.23791176728872,"avgVisitMinutes":67,"estimatedCostEur":10,"score":2.222983613704394},{"id":"dubai-motor-city_1997","citySlug":"dubai-motor-city","name":"Paseo Principal","category":"ocio","lat":25.045729998307994,"lng":55.233992132343516,"avgVisitMinutes":86,"estimatedCostEur":8,"score":1.5751509199744307},{"id":"dubai-motor-city_7902","citySlug":"dubai-motor-city","name":"Restaurante Típico de Dubai Motor City","category":"gastronomia","lat":25.055131238081145,"lng":55.24275806572079,"avgVisitMinutes":77,"estimatedCostEur":18,"score":3.4513367340532564},{"id":"dubai-motor-city_1738","citySlug":"dubai-motor-city","name":"Mirador de Dubai Motor City","category":"mirador","lat":25.04494437970615,"lng":55.23870746284295,"avgVisitMinutes":41,"estimatedCostEur":25,"score":1.17907263928048},{"id":"dubai-motor-city_7514","citySlug":"dubai-motor-city","name":"Parque Central","category":"ocio","lat":25.037281523269993,"lng":55.24464373572861,"avgVisitMinutes":71,"estimatedCostEur":6,"score":3.0754786370486906},{"id":"dubai-motor-city_2516","citySlug":"dubai-motor-city","name":"Vista Alta de Dubai Motor City","category":"mirador","lat":25.0378375087405,"lng":55.23850130948623,"avgVisitMinutes":73,"estimatedCostEur":10,"score":2.5563684795189308},{"id":"dubai-motor-city_8368","citySlug":"dubai-motor-city","name":"Parque Central","category":"ocio","lat":25.048911154896928,"lng":55.24375221809432,"avgVisitMinutes":56,"estimatedCostEur":13,"score":1.6855258145883856},{"id":"dubai-motor-city_1389","citySlug":"dubai-motor-city","name":"Mirador de Dubai Motor City","category":"mirador","lat":25.049926256973677,"lng":55.239747647093274,"avgVisitMinutes":89,"estimatedCostEur":16,"score":4.5875469441519625},{"id":"damac-hills_4798","citySlug":"damac-hills","name":"Galería de Arte","category":"cultura","lat":25.031265769247604,"lng":55.25981297734644,"avgVisitMinutes":84,"estimatedCostEur":3,"score":4.739160686214109},{"id":"damac-hills_2020","citySlug":"damac-hills","name":"Parque Central","category":"ocio","lat":25.035727191224655,"lng":55.24918532105408,"avgVisitMinutes":31,"estimatedCostEur":21,"score":2.3533978743325},{"id":"damac-hills_3416","citySlug":"damac-hills","name":"Punto Panorámico","category":"mirador","lat":25.024523487643382,"lng":55.25668227904259,"avgVisitMinutes":38,"estimatedCostEur":11,"score":2.4311126001202386},{"id":"damac-hills_8786","citySlug":"damac-hills","name":"Iglesia de DAMAC Hills","category":"historia","lat":25.03546210860828,"lng":55.243090116584355,"avgVisitMinutes":84,"estimatedCostEur":13,"score":2.1732698023197443},{"id":"damac-hills_2760","citySlug":"damac-hills","name":"Playa Sur","category":"playa","lat":25.027714555949945,"lng":55.24503179737193,"avgVisitMinutes":31,"estimatedCostEur":0,"score":1.01974403622221},{"id":"damac-hills_8311","citySlug":"damac-hills","name":"Playa Norte","category":"playa","lat":25.03007834655573,"lng":55.255604170575275,"avgVisitMinutes":48,"estimatedCostEur":10,"score":2.683434498682021},{"id":"damac-hills_3242","citySlug":"damac-hills","name":"Zona Comercial","category":"ocio","lat":25.03263384573818,"lng":55.25761705185641,"avgVisitMinutes":55,"estimatedCostEur":18,"score":4.7456996375200635},{"id":"damac-hills_7726","citySlug":"damac-hills","name":"Playa Sur","category":"playa","lat":25.038501275579584,"lng":55.26105951657141,"avgVisitMinutes":20,"estimatedCostEur":2,"score":1.828833242185978},{"id":"damac-hills_6272","citySlug":"damac-hills","name":"Mirador de DAMAC Hills","category":"mirador","lat":25.029183319991436,"lng":55.256723035737075,"avgVisitMinutes":80,"estimatedCostEur":6,"score":1.5527111608246644},{"id":"damac-hills_3059","citySlug":"damac-hills","name":"Murallas de DAMAC Hills","category":"historia","lat":25.03494532194731,"lng":55.251552627655954,"avgVisitMinutes":64,"estimatedCostEur":19,"score":3.676784436824634},{"id":"damac-hills_4789","citySlug":"damac-hills","name":"Parque Central","category":"ocio","lat":25.02510079691293,"lng":55.24541865601708,"avgVisitMinutes":64,"estimatedCostEur":2,"score":4.33161259272106},{"id":"damac-hills_7444","citySlug":"damac-hills","name":"Mercado Gastronómico","category":"gastronomia","lat":25.037531866217773,"lng":55.24581502942327,"avgVisitMinutes":71,"estimatedCostEur":13,"score":1.1918993182694604},{"id":"halwan_7591","citySlug":"halwan","name":"Parque Central","category":"ocio","lat":25.35406213071149,"lng":55.42349510496533,"avgVisitMinutes":75,"estimatedCostEur":14,"score":1.9906236071162153},{"id":"halwan_7875","citySlug":"halwan","name":"Teatro Municipal","category":"cultura","lat":25.350290688996843,"lng":55.421848098418074,"avgVisitMinutes":26,"estimatedCostEur":23,"score":3.0873488623007406},{"id":"halwan_1364","citySlug":"halwan","name":"Playa Central","category":"playa","lat":25.346651257274544,"lng":55.414212165494106,"avgVisitMinutes":31,"estimatedCostEur":1,"score":1.8166138511574057},{"id":"halwan_8790","citySlug":"halwan","name":"Murallas de Halwan","category":"historia","lat":25.34303527938071,"lng":55.4133601559666,"avgVisitMinutes":85,"estimatedCostEur":1,"score":1.2884682967213745},{"id":"halwan_2763","citySlug":"halwan","name":"Punto Panorámico","category":"mirador","lat":25.351519881391734,"lng":55.41597282685178,"avgVisitMinutes":21,"estimatedCostEur":15,"score":3.920579541644565},{"id":"halwan_1543","citySlug":"halwan","name":"Mirador de Halwan","category":"mirador","lat":25.337325431317716,"lng":55.41679535511773,"avgVisitMinutes":68,"estimatedCostEur":1,"score":2.1666121685596105},{"id":"halwan_2594","citySlug":"halwan","name":"Museo Cultural de Halwan","category":"cultura","lat":25.343825634971125,"lng":55.42195905117611,"avgVisitMinutes":57,"estimatedCostEur":0,"score":1.784681261627306},{"id":"halwan_3598","citySlug":"halwan","name":"Restaurante Típico de Halwan","category":"gastronomia","lat":25.341315990738636,"lng":55.41391062175784,"avgVisitMinutes":32,"estimatedCostEur":2,"score":2.0826528937912117},{"id":"halwan_4814","citySlug":"halwan","name":"Mirador de Halwan","category":"mirador","lat":25.340745794040515,"lng":55.43017502775734,"avgVisitMinutes":40,"estimatedCostEur":3,"score":2.6368349872579033},{"id":"halwan_8134","citySlug":"halwan","name":"Restaurante Típico de Halwan","category":"gastronomia","lat":25.349178338196122,"lng":55.41660524098662,"avgVisitMinutes":26,"estimatedCostEur":22,"score":0.7178689918346902},{"id":"halwan_4049","citySlug":"halwan","name":"Zona Comercial","category":"ocio","lat":25.349297945148916,"lng":55.4217175081907,"avgVisitMinutes":76,"estimatedCostEur":16,"score":3.707643135039063},{"id":"al-sajaah_4914","citySlug":"al-sajaah","name":"Ruta de Tapas","category":"gastronomia","lat":25.316003939825716,"lng":55.637798104310505,"avgVisitMinutes":24,"estimatedCostEur":14,"score":1.8085939960514366},{"id":"al-sajaah_2751","citySlug":"al-sajaah","name":"Parque Central","category":"ocio","lat":25.311912190804755,"lng":55.62794141348219,"avgVisitMinutes":33,"estimatedCostEur":22,"score":4.273660373432115},{"id":"al-sajaah_9029","citySlug":"al-sajaah","name":"Playa Central","category":"playa","lat":25.307583217474157,"lng":55.626091292221574,"avgVisitMinutes":68,"estimatedCostEur":7,"score":1.521520820278007},{"id":"al-sajaah_3794","citySlug":"al-sajaah","name":"Paseo Principal","category":"ocio","lat":25.308184846206444,"lng":55.63371089645084,"avgVisitMinutes":48,"estimatedCostEur":16,"score":1.2390116769660597},{"id":"al-sajaah_4357","citySlug":"al-sajaah","name":"Punto Panorámico","category":"mirador","lat":25.324550344041917,"lng":55.64151616974517,"avgVisitMinutes":27,"estimatedCostEur":19,"score":1.196890733061047},{"id":"al-sajaah_5666","citySlug":"al-sajaah","name":"Centro Histórico","category":"historia","lat":25.317085262671434,"lng":55.64148246538277,"avgVisitMinutes":33,"estimatedCostEur":9,"score":4.27170207523988},{"id":"al-sajaah_1661","citySlug":"al-sajaah","name":"Mirador de Al Sajaah","category":"mirador","lat":25.31543689530787,"lng":55.63708566259004,"avgVisitMinutes":61,"estimatedCostEur":13,"score":2.5933601160729918},{"id":"al-sajaah_2235","citySlug":"al-sajaah","name":"Castillo de Al Sajaah","category":"historia","lat":25.31961237836058,"lng":55.63017341805356,"avgVisitMinutes":76,"estimatedCostEur":3,"score":3.5921764040981756},{"id":"al-sajaah_5956","citySlug":"al-sajaah","name":"Playa Norte","category":"playa","lat":25.32199345472471,"lng":55.62526609651236,"avgVisitMinutes":24,"estimatedCostEur":23,"score":3.451552216606401},{"id":"al-sajaah_1603","citySlug":"al-sajaah","name":"Museo Local de Al Sajaah","category":"historia","lat":25.325040800518245,"lng":55.62354166340781,"avgVisitMinutes":29,"estimatedCostEur":2,"score":3.0161255621894423},{"id":"al-sajaah_9610","citySlug":"al-sajaah","name":"Ruta de Tapas","category":"gastronomia","lat":25.32383518281203,"lng":55.6324643743027,"avgVisitMinutes":36,"estimatedCostEur":16,"score":2.262177747706364},{"id":"al-sajaah_8577","citySlug":"al-sajaah","name":"Mirador de Al Sajaah","category":"mirador","lat":25.313264362533126,"lng":55.63509259341697,"avgVisitMinutes":30,"estimatedCostEur":22,"score":2.469936879879354},{"id":"lahbab_6245","citySlug":"lahbab","name":"Museo Cultural de Lahbab","category":"cultura","lat":25.04705547064923,"lng":55.60073244782983,"avgVisitMinutes":75,"estimatedCostEur":7,"score":4.916135175274032},{"id":"lahbab_7821","citySlug":"lahbab","name":"Paseo Principal","category":"ocio","lat":25.037101275105492,"lng":55.590790267505156,"avgVisitMinutes":79,"estimatedCostEur":12,"score":2.9034812581892804},{"id":"lahbab_6061","citySlug":"lahbab","name":"Vista Alta de Lahbab","category":"mirador","lat":25.044099507508946,"lng":55.599196940028506,"avgVisitMinutes":41,"estimatedCostEur":25,"score":1.332068748479561},{"id":"lahbab_5360","citySlug":"lahbab","name":"Mirador de Lahbab","category":"mirador","lat":25.041262452031777,"lng":55.58845656348954,"avgVisitMinutes":39,"estimatedCostEur":17,"score":4.301624992171709},{"id":"lahbab_3202","citySlug":"lahbab","name":"Vista Alta de Lahbab","category":"mirador","lat":25.045198475889936,"lng":55.586722006053044,"avgVisitMinutes":43,"estimatedCostEur":17,"score":4.636103172128078},{"id":"lahbab_6816","citySlug":"lahbab","name":"Museo Local de Lahbab","category":"historia","lat":25.047062790122364,"lng":55.59256517202878,"avgVisitMinutes":49,"estimatedCostEur":24,"score":3.1297555529301264},{"id":"lahbab_9437","citySlug":"lahbab","name":"Ruta de Tapas","category":"gastronomia","lat":25.035050757234654,"lng":55.589271466927755,"avgVisitMinutes":75,"estimatedCostEur":13,"score":1.5700103215879557},{"id":"lahbab_2892","citySlug":"lahbab","name":"Playa Norte","category":"playa","lat":25.039701377612218,"lng":55.59425990774111,"avgVisitMinutes":77,"estimatedCostEur":10,"score":2.7721372869747527},{"id":"lahbab_6274","citySlug":"lahbab","name":"Punto Panorámico","category":"mirador","lat":25.046360095793087,"lng":55.586614379059625,"avgVisitMinutes":89,"estimatedCostEur":2,"score":4.886584608665196},{"id":"lahbab_6127","citySlug":"lahbab","name":"Mirador de Lahbab","category":"mirador","lat":25.042233005629885,"lng":55.59196702954546,"avgVisitMinutes":73,"estimatedCostEur":0,"score":4.259023358482041},{"id":"lahbab_1815","citySlug":"lahbab","name":"Paseo Principal","category":"ocio","lat":25.033337963060514,"lng":55.595277451081316,"avgVisitMinutes":30,"estimatedCostEur":10,"score":3.9111934148540244},{"id":"al-madam_2082","citySlug":"al-madam","name":"Playa Norte","category":"playa","lat":24.97112468604378,"lng":55.7718491339398,"avgVisitMinutes":79,"estimatedCostEur":2,"score":4.617269811559167},{"id":"al-madam_9193","citySlug":"al-madam","name":"Parque Central","category":"ocio","lat":24.973762116722906,"lng":55.786805558184184,"avgVisitMinutes":30,"estimatedCostEur":17,"score":3.0347126457046794},{"id":"al-madam_8252","citySlug":"al-madam","name":"Paseo Principal","category":"ocio","lat":24.976478402789827,"lng":55.77178028561406,"avgVisitMinutes":70,"estimatedCostEur":0,"score":2.0763985227463206},{"id":"al-madam_3675","citySlug":"al-madam","name":"Mercado Gastronómico","category":"gastronomia","lat":24.97347698606264,"lng":55.77064134308231,"avgVisitMinutes":90,"estimatedCostEur":4,"score":4.16193045463503},{"id":"al-madam_7972","citySlug":"al-madam","name":"Punto Panorámico","category":"mirador","lat":24.97146642927143,"lng":55.76958091089305,"avgVisitMinutes":53,"estimatedCostEur":2,"score":1.632115431453585},{"id":"al-raafah_2478","citySlug":"al-raafah","name":"Parque Central","category":"ocio","lat":25.552400695150514,"lng":55.67958270635839,"avgVisitMinutes":21,"estimatedCostEur":15,"score":4.362788834790965},{"id":"al-raafah_3345","citySlug":"al-raafah","name":"Paseo Principal","category":"ocio","lat":25.543224165329086,"lng":55.688552390641505,"avgVisitMinutes":84,"estimatedCostEur":12,"score":4.1434926982493145},{"id":"al-raafah_4417","citySlug":"al-raafah","name":"Playa Central","category":"playa","lat":25.55460785347283,"lng":55.686278005126184,"avgVisitMinutes":50,"estimatedCostEur":10,"score":0.5328927440765452},{"id":"al-raafah_7119","citySlug":"al-raafah","name":"Iglesia de Al Raafah","category":"historia","lat":25.55109272501631,"lng":55.685116557912615,"avgVisitMinutes":40,"estimatedCostEur":20,"score":4.6598671295032075},{"id":"al-raafah_1895","citySlug":"al-raafah","name":"Mercado Gastronómico","category":"gastronomia","lat":25.55101642756098,"lng":55.69442530827188,"avgVisitMinutes":82,"estimatedCostEur":2,"score":1.3049055345464065},{"id":"mohammed-bin-zayed-city_5050","citySlug":"mohammed-bin-zayed-city","name":"Zona Comercial","category":"ocio","lat":24.348305480609127,"lng":54.550526073537675,"avgVisitMinutes":27,"estimatedCostEur":9,"score":2.5372349076719454},{"id":"mohammed-bin-zayed-city_7619","citySlug":"mohammed-bin-zayed-city","name":"Vista Alta de Mohammed Bin Zayed City","category":"mirador","lat":24.355034470938403,"lng":54.55834495227181,"avgVisitMinutes":84,"estimatedCostEur":18,"score":2.661842601290565},{"id":"mohammed-bin-zayed-city_4217","citySlug":"mohammed-bin-zayed-city","name":"Paseo Principal","category":"ocio","lat":24.350808812004797,"lng":54.545152502893934,"avgVisitMinutes":56,"estimatedCostEur":14,"score":0.7619336151473053},{"id":"mohammed-bin-zayed-city_5153","citySlug":"mohammed-bin-zayed-city","name":"Playa Norte","category":"playa","lat":24.34573810951389,"lng":54.56304585984274,"avgVisitMinutes":55,"estimatedCostEur":19,"score":1.6584809084137766},{"id":"mohammed-bin-zayed-city_9244","citySlug":"mohammed-bin-zayed-city","name":"Restaurante Típico de Mohammed Bin Zayed City","category":"gastronomia","lat":24.344790078276272,"lng":54.54838043439557,"avgVisitMinutes":43,"estimatedCostEur":2,"score":3.5297774328628355},{"id":"masdar-city_1009","citySlug":"masdar-city","name":"Paseo Principal","category":"ocio","lat":24.428095226500695,"lng":54.60759829184292,"avgVisitMinutes":29,"estimatedCostEur":21,"score":2.686317619862394},{"id":"masdar-city_6111","citySlug":"masdar-city","name":"Mirador de Masdar City","category":"mirador","lat":24.434113158198794,"lng":54.61325986681405,"avgVisitMinutes":79,"estimatedCostEur":23,"score":3.074413466839921},{"id":"masdar-city_2431","citySlug":"masdar-city","name":"Parque Central","category":"ocio","lat":24.43569246261891,"lng":54.619846533725905,"avgVisitMinutes":75,"estimatedCostEur":14,"score":1.0518082180437434},{"id":"masdar-city_3931","citySlug":"masdar-city","name":"Parque Central","category":"ocio","lat":24.426406368217677,"lng":54.62460671913191,"avgVisitMinutes":40,"estimatedCostEur":3,"score":4.49283756821913},{"id":"masdar-city_9933","citySlug":"masdar-city","name":"Paseo Principal","category":"ocio","lat":24.436828752345026,"lng":54.62135581271537,"avgVisitMinutes":20,"estimatedCostEur":0,"score":2.3555730419785745},{"id":"masdar-city_7106","citySlug":"masdar-city","name":"Restaurante Típico de Masdar City","category":"gastronomia","lat":24.42401236749316,"lng":54.607341076613814,"avgVisitMinutes":64,"estimatedCostEur":7,"score":0.7555629655886047},{"id":"masdar-city_8449","citySlug":"masdar-city","name":"Vista Alta de Masdar City","category":"mirador","lat":24.434980059488318,"lng":54.61458513925784,"avgVisitMinutes":86,"estimatedCostEur":17,"score":4.8670377664995454},{"id":"masdar-city_3596","citySlug":"masdar-city","name":"Castillo de Masdar City","category":"historia","lat":24.43533856061433,"lng":54.62077882566208,"avgVisitMinutes":23,"estimatedCostEur":16,"score":4.545599632779186}]}