{"country":"BJ","pois":[{"id":"zounke_5477","citySlug":"zounke","name":"Playa Norte","category":"playa","lat":6.606673239646681,"lng":2.5284215482342773,"avgVisitMinutes":57,"estimatedCostEur":19,"score":4.788672925237095},{"id":"zounke_7751","citySlug":"zounke","name":"Playa Norte","category":"playa","lat":6.621781085378886,"lng":2.531026401198315,"avgVisitMinutes":40,"estimatedCostEur":15,"score":2.2888370967823257},{"id":"zounke_9750","citySlug":"zounke","name":"Iglesia de Zounké","category":"historia","lat":6.623991600335589,"lng":2.535936145065476,"avgVisitMinutes":88,"estimatedCostEur":4,"score":4.975158392212811},{"id":"zounke_6663","citySlug":"zounke","name":"Parque Central","category":"ocio","lat":6.620075312415028,"lng":2.51854633663756,"avgVisitMinutes":20,"estimatedCostEur":7,"score":2.4467674868333855},{"id":"zounke_4121","citySlug":"zounke","name":"Centro de Arte de Zounké","category":"cultura","lat":6.615751319041823,"lng":2.5199906588726675,"avgVisitMinutes":78,"estimatedCostEur":22,"score":4.308885184521905},{"id":"zounke_4408","citySlug":"zounke","name":"Murallas de Zounké","category":"historia","lat":6.623266363223837,"lng":2.5278451311951566,"avgVisitMinutes":55,"estimatedCostEur":17,"score":2.641590415386375},{"id":"zounke_5092","citySlug":"zounke","name":"Centro Histórico","category":"historia","lat":6.61721029041873,"lng":2.5321405800318275,"avgVisitMinutes":37,"estimatedCostEur":10,"score":1.2234881550001218},{"id":"zounke_7950","citySlug":"zounke","name":"Mercado Gastronómico","category":"gastronomia","lat":6.6212690022984395,"lng":2.5345567333344396,"avgVisitMinutes":24,"estimatedCostEur":5,"score":3.4773895865850246},{"id":"zinvie_7704","citySlug":"zinvie","name":"Playa Norte","category":"playa","lat":6.6167540555441455,"lng":2.355528130671544,"avgVisitMinutes":90,"estimatedCostEur":17,"score":1.0250223628170707},{"id":"zinvie_5268","citySlug":"zinvie","name":"Murallas de Zinvié","category":"historia","lat":6.6233368782337,"lng":2.3622658313808276,"avgVisitMinutes":89,"estimatedCostEur":7,"score":2.3048281576878686},{"id":"zinvie_2473","citySlug":"zinvie","name":"Iglesia de Zinvié","category":"historia","lat":6.6263785547559975,"lng":2.3625879672862604,"avgVisitMinutes":54,"estimatedCostEur":9,"score":3.921306957200237},{"id":"zinvie_5841","citySlug":"zinvie","name":"Playa Norte","category":"playa","lat":6.618736365518018,"lng":2.3606622830896686,"avgVisitMinutes":77,"estimatedCostEur":19,"score":3.687680181509356},{"id":"zinvie_8506","citySlug":"zinvie","name":"Galería de Arte","category":"cultura","lat":6.6095669463649065,"lng":2.35124007658974,"avgVisitMinutes":29,"estimatedCostEur":11,"score":4.843500459339679},{"id":"zinvie_2069","citySlug":"zinvie","name":"Museo Cultural de Zinvié","category":"cultura","lat":6.609269174695592,"lng":2.3572230136240053,"avgVisitMinutes":53,"estimatedCostEur":24,"score":1.5370758756381466},{"id":"zinvie_5071","citySlug":"zinvie","name":"Vista Alta de Zinvié","category":"mirador","lat":6.618007697880756,"lng":2.3597188216652167,"avgVisitMinutes":30,"estimatedCostEur":5,"score":2.7007619663336215},{"id":"ze_4006","citySlug":"ze","name":"Punto Panorámico","category":"mirador","lat":6.782203173127425,"lng":2.2969200751366032,"avgVisitMinutes":66,"estimatedCostEur":7,"score":1.0001206750502731},{"id":"ze_4964","citySlug":"ze","name":"Playa Sur","category":"playa","lat":6.783345486252682,"lng":2.297887469246712,"avgVisitMinutes":26,"estimatedCostEur":5,"score":2.4315949247660553},{"id":"ze_2521","citySlug":"ze","name":"Museo Local de Zé","category":"historia","lat":6.774073805284744,"lng":2.2985985577644925,"avgVisitMinutes":51,"estimatedCostEur":6,"score":2.8910661375376216},{"id":"ze_5603","citySlug":"ze","name":"Iglesia de Zé","category":"historia","lat":6.789101696261583,"lng":2.3097205443996716,"avgVisitMinutes":47,"estimatedCostEur":6,"score":0.6005668428529196},{"id":"ze_7583","citySlug":"ze","name":"Zona Comercial","category":"ocio","lat":6.7863344541213495,"lng":2.3053161468768457,"avgVisitMinutes":74,"estimatedCostEur":18,"score":2.3819875682152754},{"id":"ze_6177","citySlug":"ze","name":"Teatro Municipal","category":"cultura","lat":6.773615721806706,"lng":2.3052064436510724,"avgVisitMinutes":29,"estimatedCostEur":4,"score":4.524699723819358},{"id":"ze_8363","citySlug":"ze","name":"Centro Histórico","category":"historia","lat":6.781840659129198,"lng":2.3042645524787844,"avgVisitMinutes":38,"estimatedCostEur":16,"score":3.3277094669763265},{"id":"toviklin_2444","citySlug":"toviklin","name":"Vista Alta de Toviklin","category":"mirador","lat":6.886644819331391,"lng":1.835192733599241,"avgVisitMinutes":42,"estimatedCostEur":15,"score":2.613687954647421},{"id":"toviklin_8547","citySlug":"toviklin","name":"Paseo Principal","category":"ocio","lat":6.885798441682297,"lng":1.8454011917720736,"avgVisitMinutes":66,"estimatedCostEur":24,"score":1.0844959211109408},{"id":"toviklin_1478","citySlug":"toviklin","name":"Teatro Municipal","category":"cultura","lat":6.881834841902701,"lng":1.8364125324020932,"avgVisitMinutes":48,"estimatedCostEur":15,"score":2.150046296316944},{"id":"toviklin_7696","citySlug":"toviklin","name":"Playa Sur","category":"playa","lat":6.890038552349072,"lng":1.8318634695206684,"avgVisitMinutes":31,"estimatedCostEur":23,"score":2.072116725298704},{"id":"toviklin_1776","citySlug":"toviklin","name":"Playa Sur","category":"playa","lat":6.899066667185767,"lng":1.8454051804360898,"avgVisitMinutes":45,"estimatedCostEur":11,"score":2.1469129322859035},{"id":"toviklin_6290","citySlug":"toviklin","name":"Ruta de Tapas","category":"gastronomia","lat":6.894676404495507,"lng":1.8299615604728918,"avgVisitMinutes":76,"estimatedCostEur":18,"score":2.5244209623456633},{"id":"toviklin_2712","citySlug":"toviklin","name":"Teatro Municipal","category":"cultura","lat":6.881319517400855,"lng":1.8319878282500512,"avgVisitMinutes":85,"estimatedCostEur":9,"score":0.7847649605832242},{"id":"toviklin_8207","citySlug":"toviklin","name":"Playa Sur","category":"playa","lat":6.88829239646253,"lng":1.838834463631111,"avgVisitMinutes":71,"estimatedCostEur":1,"score":3.889105566645873},{"id":"toviklin_4371","citySlug":"toviklin","name":"Centro de Arte de Toviklin","category":"cultura","lat":6.8962523338454735,"lng":1.8408400852382183,"avgVisitMinutes":50,"estimatedCostEur":12,"score":0.703836314604865},{"id":"toviklin_4132","citySlug":"toviklin","name":"Playa Sur","category":"playa","lat":6.886678595718445,"lng":1.8394362918044944,"avgVisitMinutes":28,"estimatedCostEur":20,"score":2.327937108829082},{"id":"toviklin_7849","citySlug":"toviklin","name":"Vista Alta de Toviklin","category":"mirador","lat":6.880223348475931,"lng":1.842304930696514,"avgVisitMinutes":31,"estimatedCostEur":23,"score":4.697562986706037},{"id":"toukountouna_1683","citySlug":"toukountouna","name":"Playa Norte","category":"playa","lat":10.505352633003461,"lng":1.3720609318227068,"avgVisitMinutes":38,"estimatedCostEur":23,"score":4.115830753773947},{"id":"toukountouna_9651","citySlug":"toukountouna","name":"Playa Central","category":"playa","lat":10.497226317979047,"lng":1.381915509139142,"avgVisitMinutes":20,"estimatedCostEur":5,"score":2.1874864984024924},{"id":"toukountouna_2253","citySlug":"toukountouna","name":"Punto Panorámico","category":"mirador","lat":10.511604966971719,"lng":1.3667502448671707,"avgVisitMinutes":31,"estimatedCostEur":2,"score":2.2505868532034485},{"id":"toukountouna_8086","citySlug":"toukountouna","name":"Zona Comercial","category":"ocio","lat":10.500905717411818,"lng":1.3658251798665757,"avgVisitMinutes":75,"estimatedCostEur":19,"score":1.731918444855218},{"id":"toukountouna_3934","citySlug":"toukountouna","name":"Vista Alta de Toukountouna","category":"mirador","lat":10.502138266808924,"lng":1.3673743281612798,"avgVisitMinutes":37,"estimatedCostEur":15,"score":3.277861297685139},{"id":"toukountouna_5792","citySlug":"toukountouna","name":"Murallas de Toukountouna","category":"historia","lat":10.512025928298096,"lng":1.3765786260882298,"avgVisitMinutes":26,"estimatedCostEur":8,"score":2.6868692057532844},{"id":"tori-bossito_3414","citySlug":"tori-bossito","name":"Playa Norte","category":"playa","lat":6.5114895683303535,"lng":2.1423053229724935,"avgVisitMinutes":61,"estimatedCostEur":2,"score":4.987663305414598},{"id":"tori-bossito_1371","citySlug":"tori-bossito","name":"Mirador de Tori-Bossito","category":"mirador","lat":6.504228208902581,"lng":2.1468668128203525,"avgVisitMinutes":25,"estimatedCostEur":22,"score":3.8578260341800177},{"id":"tori-bossito_7502","citySlug":"tori-bossito","name":"Restaurante Típico de Tori-Bossito","category":"gastronomia","lat":6.505850260134371,"lng":2.1462050109865785,"avgVisitMinutes":21,"estimatedCostEur":23,"score":1.2485339608192332},{"id":"tori-bossito_5735","citySlug":"tori-bossito","name":"Mirador de Tori-Bossito","category":"mirador","lat":6.503722303910372,"lng":2.1526217544767965,"avgVisitMinutes":43,"estimatedCostEur":2,"score":2.1931822709218496},{"id":"tori-bossito_5088","citySlug":"tori-bossito","name":"Paseo Principal","category":"ocio","lat":6.498877960562523,"lng":2.135820854051737,"avgVisitMinutes":68,"estimatedCostEur":16,"score":2.290867227079429},{"id":"tori-bossito_3986","citySlug":"tori-bossito","name":"Ruta de Tapas","category":"gastronomia","lat":6.51196216283885,"lng":2.1534540176666104,"avgVisitMinutes":60,"estimatedCostEur":19,"score":4.060093223724927},{"id":"tobre_9374","citySlug":"tobre","name":"Restaurante Típico de Tobré","category":"gastronomia","lat":10.198851833243685,"lng":2.137953234804572,"avgVisitMinutes":48,"estimatedCostEur":23,"score":4.803069134237836},{"id":"tobre_7116","citySlug":"tobre","name":"Centro de Arte de Tobré","category":"cultura","lat":10.19559207052522,"lng":2.135181769566019,"avgVisitMinutes":56,"estimatedCostEur":9,"score":1.1543290058490796},{"id":"tobre_8267","citySlug":"tobre","name":"Ruta de Tapas","category":"gastronomia","lat":10.198366294730501,"lng":2.1312234898880154,"avgVisitMinutes":75,"estimatedCostEur":15,"score":4.622675264735673},{"id":"tobre_5597","citySlug":"tobre","name":"Ruta de Tapas","category":"gastronomia","lat":10.192369234011842,"lng":2.1307225635938423,"avgVisitMinutes":41,"estimatedCostEur":18,"score":0.7427431462668181},{"id":"tobre_6680","citySlug":"tobre","name":"Iglesia de Tobré","category":"historia","lat":10.202293371720296,"lng":2.122574615155321,"avgVisitMinutes":84,"estimatedCostEur":17,"score":1.5327152915571403},{"id":"tobre_7847","citySlug":"tobre","name":"Teatro Municipal","category":"cultura","lat":10.187321253567024,"lng":2.138093388217183,"avgVisitMinutes":34,"estimatedCostEur":18,"score":4.771441061234362},{"id":"tobre_4413","citySlug":"tobre","name":"Parque Central","category":"ocio","lat":10.187141993620324,"lng":2.129234771427303,"avgVisitMinutes":32,"estimatedCostEur":11,"score":2.7990388545147735},{"id":"tobre_7477","citySlug":"tobre","name":"Vista Alta de Tobré","category":"mirador","lat":10.199304896538335,"lng":2.1345430507984298,"avgVisitMinutes":46,"estimatedCostEur":17,"score":3.643373654871284},{"id":"tobre_8841","citySlug":"tobre","name":"Ruta de Tapas","category":"gastronomia","lat":10.190744643503425,"lng":2.128589803558937,"avgVisitMinutes":76,"estimatedCostEur":4,"score":2.0324727436540275},{"id":"tobre_8771","citySlug":"tobre","name":"Restaurante Típico de Tobré","category":"gastronomia","lat":10.188156956624745,"lng":2.1242775257820474,"avgVisitMinutes":52,"estimatedCostEur":12,"score":4.332594105472399},{"id":"tchaourou_6818","citySlug":"tchaourou","name":"Playa Central","category":"playa","lat":8.895923033740033,"lng":2.602105553039343,"avgVisitMinutes":81,"estimatedCostEur":4,"score":3.0304988986042196},{"id":"tchaourou_9492","citySlug":"tchaourou","name":"Playa Norte","category":"playa","lat":8.877136462819177,"lng":2.6063522170629563,"avgVisitMinutes":43,"estimatedCostEur":24,"score":1.2546121209274808},{"id":"tchaourou_5321","citySlug":"tchaourou","name":"Mirador de Tchaourou","category":"mirador","lat":8.891057963127784,"lng":2.5911770270422987,"avgVisitMinutes":69,"estimatedCostEur":3,"score":4.348507780960855},{"id":"tchaourou_9856","citySlug":"tchaourou","name":"Ruta de Tapas","category":"gastronomia","lat":8.881853492057592,"lng":2.59169758562373,"avgVisitMinutes":24,"estimatedCostEur":21,"score":3.8944852419425167},{"id":"tchaourou_8565","citySlug":"tchaourou","name":"Vista Alta de Tchaourou","category":"mirador","lat":8.876642644151982,"lng":2.596481450314587,"avgVisitMinutes":63,"estimatedCostEur":7,"score":1.1625887999830034},{"id":"tchaourou_6825","citySlug":"tchaourou","name":"Murallas de Tchaourou","category":"historia","lat":8.881709447052971,"lng":2.590942062654201,"avgVisitMinutes":78,"estimatedCostEur":1,"score":3.5443349802728674},{"id":"tchaourou_1090","citySlug":"tchaourou","name":"Centro de Arte de Tchaourou","category":"cultura","lat":8.883031423574339,"lng":2.604038790530647,"avgVisitMinutes":70,"estimatedCostEur":8,"score":1.581819386135556},{"id":"tchaourou_8105","citySlug":"tchaourou","name":"Paseo Principal","category":"ocio","lat":8.89079804115517,"lng":2.5981268274674165,"avgVisitMinutes":24,"estimatedCostEur":9,"score":0.6418467067178686},{"id":"tanguieta_3905","citySlug":"tanguieta","name":"Museo Local de Tanguiéta","category":"historia","lat":10.620816420026266,"lng":1.2649589205155967,"avgVisitMinutes":35,"estimatedCostEur":9,"score":1.3142646574529584},{"id":"tanguieta_8408","citySlug":"tanguieta","name":"Parque Central","category":"ocio","lat":10.61622154720607,"lng":1.2598852497280464,"avgVisitMinutes":72,"estimatedCostEur":2,"score":2.437252439665756},{"id":"tanguieta_9101","citySlug":"tanguieta","name":"Vista Alta de Tanguiéta","category":"mirador","lat":10.624310664835365,"lng":1.2594105233964714,"avgVisitMinutes":67,"estimatedCostEur":1,"score":4.242422358756836},{"id":"tanguieta_2053","citySlug":"tanguieta","name":"Mirador de Tanguiéta","category":"mirador","lat":10.619626604862225,"lng":1.2617442566724393,"avgVisitMinutes":77,"estimatedCostEur":19,"score":3.5512151581538225},{"id":"tanguieta_1747","citySlug":"tanguieta","name":"Murallas de Tanguiéta","category":"historia","lat":10.621922721553165,"lng":1.2666561685535977,"avgVisitMinutes":47,"estimatedCostEur":19,"score":4.846051865263049},{"id":"tanguieta_4173","citySlug":"tanguieta","name":"Ruta de Tapas","category":"gastronomia","lat":10.622047046215494,"lng":1.2680210665272382,"avgVisitMinutes":61,"estimatedCostEur":17,"score":0.6846910267182869},{"id":"tanguieta_7902","citySlug":"tanguieta","name":"Zona Comercial","category":"ocio","lat":10.62278076554385,"lng":1.2690565064641848,"avgVisitMinutes":69,"estimatedCostEur":18,"score":2.1787114132644785},{"id":"tanguieta_1654","citySlug":"tanguieta","name":"Parque Central","category":"ocio","lat":10.61132576355125,"lng":1.265738149175034,"avgVisitMinutes":74,"estimatedCostEur":24,"score":4.740713432443907},{"id":"tanguieta_5314","citySlug":"tanguieta","name":"Centro de Arte de Tanguiéta","category":"cultura","lat":10.615895362435317,"lng":1.2742326983945564,"avgVisitMinutes":88,"estimatedCostEur":14,"score":1.7190863180992966},{"id":"tanguieta_8578","citySlug":"tanguieta","name":"Mercado Gastronómico","category":"gastronomia","lat":10.625690533725818,"lng":1.2634372982922804,"avgVisitMinutes":35,"estimatedCostEur":7,"score":1.3455408582162853},{"id":"tanguieta_6798","citySlug":"tanguieta","name":"Restaurante Típico de Tanguiéta","category":"gastronomia","lat":10.617280272988848,"lng":1.2718384055299068,"avgVisitMinutes":76,"estimatedCostEur":25,"score":3.639637805656304},{"id":"sinende_5744","citySlug":"sinende","name":"Centro Histórico","category":"historia","lat":10.34618335906055,"lng":2.3887055988079404,"avgVisitMinutes":62,"estimatedCostEur":21,"score":3.0132658998535793},{"id":"sinende_8027","citySlug":"sinende","name":"Museo Cultural de Sinendé","category":"cultura","lat":10.35745416774663,"lng":2.3725504185044826,"avgVisitMinutes":89,"estimatedCostEur":1,"score":2.765583655111522},{"id":"sinende_7663","citySlug":"sinende","name":"Mirador de Sinendé","category":"mirador","lat":10.344360421870883,"lng":2.3888618464182945,"avgVisitMinutes":75,"estimatedCostEur":25,"score":4.041227982603729},{"id":"sinende_6936","citySlug":"sinende","name":"Vista Alta de Sinendé","category":"mirador","lat":10.352980315379485,"lng":2.383464288879602,"avgVisitMinutes":85,"estimatedCostEur":22,"score":2.399502202697915},{"id":"sinende_2919","citySlug":"sinende","name":"Teatro Municipal","category":"cultura","lat":10.3474082411865,"lng":2.388244226269048,"avgVisitMinutes":77,"estimatedCostEur":12,"score":4.975272179900341},{"id":"sinende_3936","citySlug":"sinende","name":"Paseo Principal","category":"ocio","lat":10.348067834135076,"lng":2.372182109370162,"avgVisitMinutes":89,"estimatedCostEur":8,"score":3.3650784757715573},{"id":"sinende_3166","citySlug":"sinende","name":"Museo Local de Sinendé","category":"historia","lat":10.346529146007331,"lng":2.373490985331723,"avgVisitMinutes":38,"estimatedCostEur":22,"score":1.3669636109807386},{"id":"semi_1630","citySlug":"semi","name":"Centro Histórico","category":"historia","lat":6.376486757401216,"lng":2.6254620851343122,"avgVisitMinutes":72,"estimatedCostEur":14,"score":3.788013773190876},{"id":"semi_6590","citySlug":"semi","name":"Museo Cultural de Semi","category":"cultura","lat":6.363106794564285,"lng":2.6175213608234453,"avgVisitMinutes":41,"estimatedCostEur":24,"score":1.5700213318499034},{"id":"semi_8734","citySlug":"semi","name":"Galería de Arte","category":"cultura","lat":6.369329690844514,"lng":2.614167811646548,"avgVisitMinutes":62,"estimatedCostEur":21,"score":4.475478220980006},{"id":"semi_8467","citySlug":"semi","name":"Museo Local de Semi","category":"historia","lat":6.3713256522841775,"lng":2.6095923830684593,"avgVisitMinutes":49,"estimatedCostEur":2,"score":2.8528236448716715},{"id":"semi_7125","citySlug":"semi","name":"Museo Local de Semi","category":"historia","lat":6.373711098124084,"lng":2.6262821471892672,"avgVisitMinutes":55,"estimatedCostEur":9,"score":1.8440090049892182},{"id":"semi_5561","citySlug":"semi","name":"Restaurante Típico de Semi","category":"gastronomia","lat":6.3646210068954305,"lng":2.6076885203644085,"avgVisitMinutes":33,"estimatedCostEur":22,"score":4.241644529356469},{"id":"semi_5445","citySlug":"semi","name":"Zona Comercial","category":"ocio","lat":6.362275078947212,"lng":2.622369972589661,"avgVisitMinutes":50,"estimatedCostEur":12,"score":1.3590974462754704},{"id":"semi_8158","citySlug":"semi","name":"Castillo de Semi","category":"historia","lat":6.364204020193587,"lng":2.6067632150736855,"avgVisitMinutes":83,"estimatedCostEur":2,"score":4.683189067426358},{"id":"semi_9619","citySlug":"semi","name":"Murallas de Semi","category":"historia","lat":6.371791446829905,"lng":2.62223463378596,"avgVisitMinutes":59,"estimatedCostEur":14,"score":1.107431605426957},{"id":"semi_4902","citySlug":"semi","name":"Playa Central","category":"playa","lat":6.365636239070802,"lng":2.6196363370068605,"avgVisitMinutes":47,"estimatedCostEur":7,"score":3.0331078120944865},{"id":"semi_2058","citySlug":"semi","name":"Playa Sur","category":"playa","lat":6.364474661682364,"lng":2.6246640831032653,"avgVisitMinutes":64,"estimatedCostEur":7,"score":4.735988127556728},{"id":"segbana_2181","citySlug":"segbana","name":"Centro de Arte de Ségbana","category":"cultura","lat":10.921672517194898,"lng":3.6959115530011495,"avgVisitMinutes":77,"estimatedCostEur":6,"score":1.0133891550651},{"id":"segbana_4771","citySlug":"segbana","name":"Centro Histórico","category":"historia","lat":10.919352398874786,"lng":3.7013945749748767,"avgVisitMinutes":64,"estimatedCostEur":1,"score":2.927828262644849},{"id":"segbana_9728","citySlug":"segbana","name":"Zona Comercial","category":"ocio","lat":10.920378436367109,"lng":3.6957277594036877,"avgVisitMinutes":45,"estimatedCostEur":1,"score":4.991079759538981},{"id":"segbana_8726","citySlug":"segbana","name":"Playa Central","category":"playa","lat":10.919006104500953,"lng":3.692021114506642,"avgVisitMinutes":44,"estimatedCostEur":6,"score":3.7429999643643117},{"id":"segbana_9696","citySlug":"segbana","name":"Zona Comercial","category":"ocio","lat":10.929824253160863,"lng":3.699602651404349,"avgVisitMinutes":53,"estimatedCostEur":3,"score":4.297461960049217},{"id":"segbana_5884","citySlug":"segbana","name":"Mirador de Ségbana","category":"mirador","lat":10.930062174532251,"lng":3.692330371495207,"avgVisitMinutes":31,"estimatedCostEur":1,"score":1.133274016224019},{"id":"segbana_9225","citySlug":"segbana","name":"Castillo de Ségbana","category":"historia","lat":10.9200084569927,"lng":3.6936857489498727,"avgVisitMinutes":90,"estimatedCostEur":15,"score":2.621667831227026},{"id":"segbana_8745","citySlug":"segbana","name":"Ruta de Tapas","category":"gastronomia","lat":10.929149627149304,"lng":3.701596927827953,"avgVisitMinutes":67,"estimatedCostEur":21,"score":4.679733919097916},{"id":"segbana_7041","citySlug":"segbana","name":"Zona Comercial","category":"ocio","lat":10.931776014929067,"lng":3.68753189576594,"avgVisitMinutes":77,"estimatedCostEur":5,"score":4.959492078183317},{"id":"segbana_5589","citySlug":"segbana","name":"Paseo Principal","category":"ocio","lat":10.930569806291135,"lng":3.6958453424329085,"avgVisitMinutes":80,"estimatedCostEur":17,"score":0.8136051025167017},{"id":"se_6746","citySlug":"se","name":"Iglesia de Sé","category":"historia","lat":6.519746637323125,"lng":1.8225048209011725,"avgVisitMinutes":30,"estimatedCostEur":15,"score":2.1177842731705523},{"id":"se_6128","citySlug":"se","name":"Centro de Arte de Sé","category":"cultura","lat":6.50398038046766,"lng":1.8297184621828564,"avgVisitMinutes":31,"estimatedCostEur":4,"score":2.705145041035118},{"id":"se_7254","citySlug":"se","name":"Museo Cultural de Sé","category":"cultura","lat":6.509894412222182,"lng":1.821144654617394,"avgVisitMinutes":51,"estimatedCostEur":19,"score":3.443537103672702},{"id":"se_2116","citySlug":"se","name":"Museo Local de Sé","category":"historia","lat":6.514670972801152,"lng":1.8225000220231036,"avgVisitMinutes":72,"estimatedCostEur":2,"score":2.3288224920378666},{"id":"se_6512","citySlug":"se","name":"Playa Norte","category":"playa","lat":6.505990041030558,"lng":1.8192537249969112,"avgVisitMinutes":65,"estimatedCostEur":13,"score":3.608739882490678},{"id":"se_6952","citySlug":"se","name":"Mirador de Sé","category":"mirador","lat":6.5185129736991225,"lng":1.8364200620454105,"avgVisitMinutes":70,"estimatedCostEur":23,"score":2.0090306520378443},{"id":"se_3304","citySlug":"se","name":"Playa Sur","category":"playa","lat":6.510985899010495,"lng":1.830577561423322,"avgVisitMinutes":67,"estimatedCostEur":11,"score":0.8689394002958156},{"id":"se_1756","citySlug":"se","name":"Parque Central","category":"ocio","lat":6.505620833675963,"lng":1.8335365916376667,"avgVisitMinutes":55,"estimatedCostEur":18,"score":1.7618625327814563},{"id":"se_9737","citySlug":"se","name":"Restaurante Típico de Sé","category":"gastronomia","lat":6.516705225260017,"lng":1.8316842795206443,"avgVisitMinutes":46,"estimatedCostEur":9,"score":2.491045057129921},{"id":"save_3376","citySlug":"save","name":"Galería de Arte","category":"cultura","lat":8.03715785059364,"lng":2.496365274321653,"avgVisitMinutes":84,"estimatedCostEur":7,"score":2.231586668958802},{"id":"save_6232","citySlug":"save","name":"Mirador de Savé","category":"mirador","lat":8.038834375531193,"lng":2.4794936927026727,"avgVisitMinutes":57,"estimatedCostEur":0,"score":4.631379808271492},{"id":"save_1586","citySlug":"save","name":"Playa Sur","category":"playa","lat":8.038505078098412,"lng":2.495636871009385,"avgVisitMinutes":39,"estimatedCostEur":13,"score":4.999819179964749},{"id":"save_9921","citySlug":"save","name":"Museo Cultural de Savé","category":"cultura","lat":8.033933469445557,"lng":2.4840565281456732,"avgVisitMinutes":59,"estimatedCostEur":23,"score":1.2879898341989366},{"id":"save_7656","citySlug":"save","name":"Playa Central","category":"playa","lat":8.035886988067134,"lng":2.4924043430750764,"avgVisitMinutes":32,"estimatedCostEur":9,"score":1.7068183968191668},{"id":"save_1494","citySlug":"save","name":"Playa Norte","category":"playa","lat":8.03475124100181,"lng":2.4955011249739805,"avgVisitMinutes":34,"estimatedCostEur":8,"score":0.7504267381275828},{"id":"save_1584","citySlug":"save","name":"Centro de Arte de Savé","category":"cultura","lat":8.035060637046028,"lng":2.4919475307100725,"avgVisitMinutes":43,"estimatedCostEur":22,"score":1.7341377244772498},{"id":"save_4943","citySlug":"save","name":"Playa Central","category":"playa","lat":8.038928132740367,"lng":2.495276520872263,"avgVisitMinutes":27,"estimatedCostEur":19,"score":2.4912059341108437},{"id":"savalou_7860","citySlug":"savalou","name":"Playa Norte","category":"playa","lat":7.930152860966967,"lng":1.9744514373719737,"avgVisitMinutes":67,"estimatedCostEur":15,"score":4.0447512500864775},{"id":"savalou_3121","citySlug":"savalou","name":"Restaurante Típico de Savalou","category":"gastronomia","lat":7.932955394228328,"lng":1.9656577097745265,"avgVisitMinutes":83,"estimatedCostEur":3,"score":1.2605710206115683},{"id":"savalou_8278","citySlug":"savalou","name":"Restaurante Típico de Savalou","category":"gastronomia","lat":7.918682427096688,"lng":1.9669388764618265,"avgVisitMinutes":69,"estimatedCostEur":17,"score":2.8234118061115403},{"id":"savalou_8411","citySlug":"savalou","name":"Murallas de Savalou","category":"historia","lat":7.9297529688677955,"lng":1.983864481995359,"avgVisitMinutes":26,"estimatedCostEur":22,"score":4.045992615496792},{"id":"savalou_8035","citySlug":"savalou","name":"Vista Alta de Savalou","category":"mirador","lat":7.9243650314983345,"lng":1.9800786407284534,"avgVisitMinutes":60,"estimatedCostEur":0,"score":2.063215579937254},{"id":"savalou_4200","citySlug":"savalou","name":"Zona Comercial","category":"ocio","lat":7.929554371851449,"lng":1.9838935055165676,"avgVisitMinutes":53,"estimatedCostEur":16,"score":1.7700515849514056},{"id":"savalou_8587","citySlug":"savalou","name":"Museo Local de Savalou","category":"historia","lat":7.935713171299032,"lng":1.9757819982556895,"avgVisitMinutes":27,"estimatedCostEur":4,"score":3.995942791412947},{"id":"savalou_9667","citySlug":"savalou","name":"Parque Central","category":"ocio","lat":7.926041259532864,"lng":1.9717330272033506,"avgVisitMinutes":32,"estimatedCostEur":22,"score":4.209817863596371},{"id":"savalou_6929","citySlug":"savalou","name":"Paseo Principal","category":"ocio","lat":7.931403276687887,"lng":1.9684452890339321,"avgVisitMinutes":30,"estimatedCostEur":3,"score":4.00389561410401},{"id":"savalou_3249","citySlug":"savalou","name":"Vista Alta de Savalou","category":"mirador","lat":7.929637861439483,"lng":1.9712549682382785,"avgVisitMinutes":33,"estimatedCostEur":2,"score":3.1665715674000543},{"id":"sam_3812","citySlug":"sam","name":"Castillo de Sam","category":"historia","lat":11.028414261440902,"lng":2.724020018205993,"avgVisitMinutes":52,"estimatedCostEur":9,"score":3.6313404192602836},{"id":"sam_8920","citySlug":"sam","name":"Centro de Arte de Sam","category":"cultura","lat":11.026043499497419,"lng":2.74209082797829,"avgVisitMinutes":40,"estimatedCostEur":14,"score":3.209866568049952},{"id":"sam_4497","citySlug":"sam","name":"Iglesia de Sam","category":"historia","lat":11.036088703539981,"lng":2.7367025186030807,"avgVisitMinutes":48,"estimatedCostEur":1,"score":3.7472615999635046},{"id":"sam_3076","citySlug":"sam","name":"Galería de Arte","category":"cultura","lat":11.024229045691492,"lng":2.7404426790712875,"avgVisitMinutes":36,"estimatedCostEur":1,"score":3.332318945380284},{"id":"sam_6905","citySlug":"sam","name":"Paseo Principal","category":"ocio","lat":11.030213310154302,"lng":2.740628044406705,"avgVisitMinutes":78,"estimatedCostEur":16,"score":4.970908202168316},{"id":"sakete_8207","citySlug":"sakete","name":"Mercado Gastronómico","category":"gastronomia","lat":6.72957816399696,"lng":2.6507113210860864,"avgVisitMinutes":90,"estimatedCostEur":2,"score":4.574793117781126},{"id":"sakete_7979","citySlug":"sakete","name":"Iglesia de Sakété","category":"historia","lat":6.729555532603827,"lng":2.650964698354186,"avgVisitMinutes":67,"estimatedCostEur":14,"score":2.753966749573115},{"id":"sakete_1455","citySlug":"sakete","name":"Mercado Gastronómico","category":"gastronomia","lat":6.729161781995558,"lng":2.6661550594622856,"avgVisitMinutes":67,"estimatedCostEur":12,"score":4.546367623782626},{"id":"sakete_3401","citySlug":"sakete","name":"Punto Panorámico","category":"mirador","lat":6.742084801995464,"lng":2.653508235840348,"avgVisitMinutes":47,"estimatedCostEur":3,"score":2.021593026471697},{"id":"sakete_7100","citySlug":"sakete","name":"Centro de Arte de Sakété","category":"cultura","lat":6.737205857862383,"lng":2.6526260046435723,"avgVisitMinutes":77,"estimatedCostEur":2,"score":3.5326562888277224},{"id":"sakete_9789","citySlug":"sakete","name":"Playa Central","category":"playa","lat":6.739256971844527,"lng":2.662591935077465,"avgVisitMinutes":88,"estimatedCostEur":10,"score":1.6237609472414771},{"id":"sakete_5786","citySlug":"sakete","name":"Zona Comercial","category":"ocio","lat":6.73936810006667,"lng":2.6554051417154803,"avgVisitMinutes":65,"estimatedCostEur":11,"score":3.3832829044102177},{"id":"sakete_3461","citySlug":"sakete","name":"Restaurante Típico de Sakété","category":"gastronomia","lat":6.740602481650356,"lng":2.6640905109407234,"avgVisitMinutes":42,"estimatedCostEur":5,"score":2.6463159412745734},{"id":"sakete_4144","citySlug":"sakete","name":"Zona Comercial","category":"ocio","lat":6.7274954148493675,"lng":2.653665404762564,"avgVisitMinutes":67,"estimatedCostEur":16,"score":3.7050668714865447},{"id":"porto-novo_3468","citySlug":"porto-novo","name":"Paseo Principal","category":"ocio","lat":6.493281843407665,"lng":2.6041337575632517,"avgVisitMinutes":31,"estimatedCostEur":16,"score":4.761138026135673},{"id":"porto-novo_8223","citySlug":"porto-novo","name":"Mercado Gastronómico","category":"gastronomia","lat":6.49787344289853,"lng":2.6018936286539094,"avgVisitMinutes":55,"estimatedCostEur":11,"score":3.771351815511362},{"id":"porto-novo_2745","citySlug":"porto-novo","name":"Zona Comercial","category":"ocio","lat":6.486618382588351,"lng":2.6121443669266733,"avgVisitMinutes":31,"estimatedCostEur":11,"score":1.75543296435433},{"id":"porto-novo_3478","citySlug":"porto-novo","name":"Galería de Arte","category":"cultura","lat":6.491269725950379,"lng":2.6017540447727066,"avgVisitMinutes":89,"estimatedCostEur":19,"score":1.031871275576678},{"id":"porto-novo_3940","citySlug":"porto-novo","name":"Playa Norte","category":"playa","lat":6.4968386851073445,"lng":2.5947193627964453,"avgVisitMinutes":36,"estimatedCostEur":23,"score":2.247703398836358},{"id":"pobe_4591","citySlug":"pobe","name":"Playa Norte","category":"playa","lat":6.9874293952090145,"lng":2.67305509871788,"avgVisitMinutes":84,"estimatedCostEur":8,"score":3.490526863053371},{"id":"pobe_1775","citySlug":"pobe","name":"Mercado Gastronómico","category":"gastronomia","lat":6.972618212747703,"lng":2.670217322839534,"avgVisitMinutes":54,"estimatedCostEur":6,"score":4.084082803994662},{"id":"pobe_1165","citySlug":"pobe","name":"Playa Sur","category":"playa","lat":6.977389221152171,"lng":2.668980528653538,"avgVisitMinutes":79,"estimatedCostEur":21,"score":4.725219501530867},{"id":"pobe_3587","citySlug":"pobe","name":"Galería de Arte","category":"cultura","lat":6.9893359855194515,"lng":2.6557491262661057,"avgVisitMinutes":32,"estimatedCostEur":21,"score":0.5767445531153355},{"id":"pobe_3699","citySlug":"pobe","name":"Murallas de Pobé","category":"historia","lat":6.985864071579186,"lng":2.665022288676752,"avgVisitMinutes":29,"estimatedCostEur":0,"score":2.6064919820152035},{"id":"pobe_5070","citySlug":"pobe","name":"Centro de Arte de Pobé","category":"cultura","lat":6.979945480908956,"lng":2.6594153030418,"avgVisitMinutes":89,"estimatedCostEur":16,"score":3.4390073080424663},{"id":"pobe_6537","citySlug":"pobe","name":"Galería de Arte","category":"cultura","lat":6.975033146923819,"lng":2.665825984091549,"avgVisitMinutes":60,"estimatedCostEur":6,"score":4.135610946951569},{"id":"pobe_3589","citySlug":"pobe","name":"Museo Local de Pobé","category":"historia","lat":6.973364625929545,"lng":2.6560413307444066,"avgVisitMinutes":68,"estimatedCostEur":24,"score":1.5384085293482443},{"id":"pobe_7615","citySlug":"pobe","name":"Vista Alta de Pobé","category":"mirador","lat":6.9724766168284695,"lng":2.6579112462156993,"avgVisitMinutes":21,"estimatedCostEur":8,"score":1.8626115268969627},{"id":"perere_8167","citySlug":"perere","name":"Mercado Gastronómico","category":"gastronomia","lat":9.804422132212125,"lng":2.9848050056528366,"avgVisitMinutes":56,"estimatedCostEur":22,"score":1.5215951012035225},{"id":"perere_1215","citySlug":"perere","name":"Museo Cultural de Pèrèrè","category":"cultura","lat":9.792351182917077,"lng":2.9878181629571072,"avgVisitMinutes":90,"estimatedCostEur":1,"score":4.937768960627562},{"id":"perere_6127","citySlug":"perere","name":"Teatro Municipal","category":"cultura","lat":9.803101359569004,"lng":2.9932248460731254,"avgVisitMinutes":45,"estimatedCostEur":10,"score":2.4756628680338224},{"id":"perere_2366","citySlug":"perere","name":"Castillo de Pèrèrè","category":"historia","lat":9.788668711736156,"lng":2.98525297614143,"avgVisitMinutes":24,"estimatedCostEur":14,"score":1.367859938696845},{"id":"perere_3539","citySlug":"perere","name":"Zona Comercial","category":"ocio","lat":9.804391741220082,"lng":2.9884385970223266,"avgVisitMinutes":34,"estimatedCostEur":8,"score":2.2557705464008535},{"id":"perere_7982","citySlug":"perere","name":"Teatro Municipal","category":"cultura","lat":9.793880082967755,"lng":2.9906436023235514,"avgVisitMinutes":25,"estimatedCostEur":11,"score":4.222808973035356},{"id":"perere_2578","citySlug":"perere","name":"Restaurante Típico de Pèrèrè","category":"gastronomia","lat":9.797415314155131,"lng":2.9780475931740873,"avgVisitMinutes":26,"estimatedCostEur":18,"score":3.719289527781549},{"id":"perere_9100","citySlug":"perere","name":"Vista Alta de Pèrèrè","category":"mirador","lat":9.788255939842577,"lng":2.9764880033187904,"avgVisitMinutes":47,"estimatedCostEur":17,"score":2.986829755545344},{"id":"pehonko_8931","citySlug":"pehonko","name":"Galería de Arte","category":"cultura","lat":10.227279297805913,"lng":2.0019909394174302,"avgVisitMinutes":47,"estimatedCostEur":14,"score":1.0542561747377455},{"id":"pehonko_1065","citySlug":"pehonko","name":"Restaurante Típico de Péhonko","category":"gastronomia","lat":10.233772856110441,"lng":1.9951297380914912,"avgVisitMinutes":35,"estimatedCostEur":4,"score":4.683701135136628},{"id":"pehonko_8301","citySlug":"pehonko","name":"Iglesia de Péhonko","category":"historia","lat":10.220766659177853,"lng":2.0016155277317216,"avgVisitMinutes":30,"estimatedCostEur":14,"score":2.2976863816166553},{"id":"pehonko_7379","citySlug":"pehonko","name":"Zona Comercial","category":"ocio","lat":10.236223287035912,"lng":2.00601402697297,"avgVisitMinutes":69,"estimatedCostEur":5,"score":4.534978048381715},{"id":"pehonko_5270","citySlug":"pehonko","name":"Murallas de Péhonko","category":"historia","lat":10.230082528840603,"lng":1.9933197384575765,"avgVisitMinutes":27,"estimatedCostEur":13,"score":4.947052534167184},{"id":"pehonko_7025","citySlug":"pehonko","name":"Teatro Municipal","category":"cultura","lat":10.221711288252619,"lng":1.9996065243236973,"avgVisitMinutes":72,"estimatedCostEur":8,"score":3.242478825941995},{"id":"pehonko_8586","citySlug":"pehonko","name":"Mirador de Péhonko","category":"mirador","lat":10.230137263527425,"lng":2.000407843750263,"avgVisitMinutes":26,"estimatedCostEur":11,"score":1.81089353835364},{"id":"pehonko_7989","citySlug":"pehonko","name":"Playa Central","category":"playa","lat":10.231063191900825,"lng":2.000262373978087,"avgVisitMinutes":77,"estimatedCostEur":7,"score":1.7962518298155308},{"id":"pehonko_8722","citySlug":"pehonko","name":"Mirador de Péhonko","category":"mirador","lat":10.218759855668454,"lng":2.0049231439203723,"avgVisitMinutes":68,"estimatedCostEur":21,"score":1.279381945011252},{"id":"pehonko_9762","citySlug":"pehonko","name":"Restaurante Típico de Péhonko","category":"gastronomia","lat":10.224283640966815,"lng":2.008940001867992,"avgVisitMinutes":54,"estimatedCostEur":18,"score":1.180326945888932},{"id":"pehonko_3021","citySlug":"pehonko","name":"Zona Comercial","category":"ocio","lat":10.222551053213882,"lng":2.009863238841829,"avgVisitMinutes":33,"estimatedCostEur":3,"score":4.493115414404455},{"id":"parakou_2544","citySlug":"parakou","name":"Restaurante Típico de Parakou","category":"gastronomia","lat":9.33423113778939,"lng":2.62382894621721,"avgVisitMinutes":32,"estimatedCostEur":1,"score":1.8685170301108205},{"id":"parakou_2721","citySlug":"parakou","name":"Galería de Arte","category":"cultura","lat":9.329845518088709,"lng":2.6319072376931367,"avgVisitMinutes":46,"estimatedCostEur":2,"score":3.378532071795625},{"id":"parakou_7710","citySlug":"parakou","name":"Zona Comercial","category":"ocio","lat":9.337367884442212,"lng":2.6206101078855335,"avgVisitMinutes":75,"estimatedCostEur":17,"score":3.5241190856333082},{"id":"parakou_8913","citySlug":"parakou","name":"Restaurante Típico de Parakou","category":"gastronomia","lat":9.343658199085738,"lng":2.628076927834771,"avgVisitMinutes":37,"estimatedCostEur":15,"score":0.9963194589312918},{"id":"parakou_8267","citySlug":"parakou","name":"Parque Central","category":"ocio","lat":9.333030600047996,"lng":2.621945777075291,"avgVisitMinutes":56,"estimatedCostEur":4,"score":3.5591327356167923},{"id":"ouinhi_4368","citySlug":"ouinhi","name":"Murallas de Ouinhi","category":"historia","lat":7.0856153474753425,"lng":2.4814028482982966,"avgVisitMinutes":82,"estimatedCostEur":6,"score":3.836951667114188},{"id":"ouinhi_6118","citySlug":"ouinhi","name":"Murallas de Ouinhi","category":"historia","lat":7.074283058438863,"lng":2.4884138196566252,"avgVisitMinutes":63,"estimatedCostEur":19,"score":0.7305817932180174},{"id":"ouinhi_6271","citySlug":"ouinhi","name":"Murallas de Ouinhi","category":"historia","lat":7.075382567030259,"lng":2.481925622337537,"avgVisitMinutes":86,"estimatedCostEur":4,"score":4.602484391154357},{"id":"ouinhi_4309","citySlug":"ouinhi","name":"Parque Central","category":"ocio","lat":7.0902154944749025,"lng":2.484114603382809,"avgVisitMinutes":73,"estimatedCostEur":12,"score":3.067736127840494},{"id":"ouinhi_2103","citySlug":"ouinhi","name":"Parque Central","category":"ocio","lat":7.093649739560102,"lng":2.4768834397093764,"avgVisitMinutes":32,"estimatedCostEur":21,"score":2.3745305450900593},{"id":"ouinhi_5018","citySlug":"ouinhi","name":"Zona Comercial","category":"ocio","lat":7.087013211433287,"lng":2.4742110612565766,"avgVisitMinutes":30,"estimatedCostEur":4,"score":4.031551795852155},{"id":"ouinhi_7745","citySlug":"ouinhi","name":"Mercado Gastronómico","category":"gastronomia","lat":7.086938669932452,"lng":2.4864292349996275,"avgVisitMinutes":43,"estimatedCostEur":13,"score":2.121701565779656},{"id":"ouidah_1646","citySlug":"ouidah","name":"Mirador de Ouidah","category":"mirador","lat":6.367108126116027,"lng":2.0940751254533936,"avgVisitMinutes":34,"estimatedCostEur":5,"score":2.438422603796446},{"id":"ouidah_7291","citySlug":"ouidah","name":"Punto Panorámico","category":"mirador","lat":6.360078107600613,"lng":2.091110505026111,"avgVisitMinutes":77,"estimatedCostEur":0,"score":3.7277133990471474},{"id":"ouidah_3154","citySlug":"ouidah","name":"Restaurante Típico de Ouidah","category":"gastronomia","lat":6.355082170191048,"lng":2.0793706400155774,"avgVisitMinutes":34,"estimatedCostEur":12,"score":4.8042123719960985},{"id":"ouidah_7520","citySlug":"ouidah","name":"Teatro Municipal","category":"cultura","lat":6.361625461584881,"lng":2.0924548164632824,"avgVisitMinutes":82,"estimatedCostEur":15,"score":2.827640595221694},{"id":"ouidah_3767","citySlug":"ouidah","name":"Playa Central","category":"playa","lat":6.363475459236384,"lng":2.0943324462337634,"avgVisitMinutes":46,"estimatedCostEur":23,"score":1.4520062255110104},{"id":"ouidah_5088","citySlug":"ouidah","name":"Playa Central","category":"playa","lat":6.354116599157716,"lng":2.075561319573911,"avgVisitMinutes":58,"estimatedCostEur":18,"score":2.6016191955515318},{"id":"ouesse_7117","citySlug":"ouesse","name":"Parque Central","category":"ocio","lat":8.488751826135177,"lng":2.4302643349532693,"avgVisitMinutes":35,"estimatedCostEur":21,"score":1.1758578043100478},{"id":"ouesse_4874","citySlug":"ouesse","name":"Mirador de Ouessé","category":"mirador","lat":8.479263478314783,"lng":2.418792838513176,"avgVisitMinutes":43,"estimatedCostEur":1,"score":4.089175793733686},{"id":"ouesse_5116","citySlug":"ouesse","name":"Playa Norte","category":"playa","lat":8.483860808940479,"lng":2.4326835012891177,"avgVisitMinutes":57,"estimatedCostEur":22,"score":0.5606655801393393},{"id":"ouesse_4535","citySlug":"ouesse","name":"Ruta de Tapas","category":"gastronomia","lat":8.493592770291432,"lng":2.4216381602622365,"avgVisitMinutes":80,"estimatedCostEur":9,"score":1.2502734731505099},{"id":"ouesse_4203","citySlug":"ouesse","name":"Ruta de Tapas","category":"gastronomia","lat":8.493909076961513,"lng":2.4229277413255774,"avgVisitMinutes":60,"estimatedCostEur":1,"score":2.970803806591674},{"id":"nikki_7941","citySlug":"nikki","name":"Ruta de Tapas","category":"gastronomia","lat":9.933120068855676,"lng":3.215521765659346,"avgVisitMinutes":22,"estimatedCostEur":5,"score":2.581404048983451},{"id":"nikki_9895","citySlug":"nikki","name":"Playa Central","category":"playa","lat":9.944926215393428,"lng":3.2191977716238664,"avgVisitMinutes":47,"estimatedCostEur":5,"score":3.9781184032802805},{"id":"nikki_6631","citySlug":"nikki","name":"Castillo de Nikki","category":"historia","lat":9.941198626151424,"lng":3.2156219113608087,"avgVisitMinutes":77,"estimatedCostEur":10,"score":3.9785871860057895},{"id":"nikki_4489","citySlug":"nikki","name":"Restaurante Típico de Nikki","category":"gastronomia","lat":9.933328983030885,"lng":3.2060303546283215,"avgVisitMinutes":48,"estimatedCostEur":8,"score":3.8057053691393476},{"id":"nikki_3536","citySlug":"nikki","name":"Zona Comercial","category":"ocio","lat":9.949625727472359,"lng":3.2183077956119663,"avgVisitMinutes":50,"estimatedCostEur":17,"score":3.8522008351958963},{"id":"nikki_5509","citySlug":"nikki","name":"Museo Local de Nikki","category":"historia","lat":9.935156422210339,"lng":3.217971456612475,"avgVisitMinutes":53,"estimatedCostEur":25,"score":0.7167377552733689},{"id":"nikki_3232","citySlug":"nikki","name":"Playa Norte","category":"playa","lat":9.936298687411076,"lng":3.2123677456722306,"avgVisitMinutes":85,"estimatedCostEur":25,"score":4.409652333261887},{"id":"nikki_8826","citySlug":"nikki","name":"Castillo de Nikki","category":"historia","lat":9.931406422258348,"lng":3.20898476688614,"avgVisitMinutes":37,"estimatedCostEur":9,"score":2.0748042659499752},{"id":"nikki_6882","citySlug":"nikki","name":"Vista Alta de Nikki","category":"mirador","lat":9.941872941400794,"lng":3.2065966651454283,"avgVisitMinutes":37,"estimatedCostEur":4,"score":4.1165938871263},{"id":"nikki_1214","citySlug":"nikki","name":"Zona Comercial","category":"ocio","lat":9.934073428031821,"lng":3.214788911106151,"avgVisitMinutes":52,"estimatedCostEur":10,"score":2.4962037317276966},{"id":"ndali_9372","citySlug":"ndali","name":"Playa Sur","category":"playa","lat":9.868384731512373,"lng":2.7303825581498673,"avgVisitMinutes":47,"estimatedCostEur":20,"score":2.9840857837371684},{"id":"ndali_7743","citySlug":"ndali","name":"Mercado Gastronómico","category":"gastronomia","lat":9.853743613266339,"lng":2.7137071009250415,"avgVisitMinutes":47,"estimatedCostEur":0,"score":1.7843911105990153},{"id":"ndali_2482","citySlug":"ndali","name":"Centro de Arte de Ndali","category":"cultura","lat":9.8707517035975,"lng":2.7180541816899306,"avgVisitMinutes":20,"estimatedCostEur":4,"score":3.4180421204189404},{"id":"ndali_2129","citySlug":"ndali","name":"Playa Central","category":"playa","lat":9.862450994586503,"lng":2.719601425625416,"avgVisitMinutes":28,"estimatedCostEur":9,"score":0.5303340906792462},{"id":"ndali_5204","citySlug":"ndali","name":"Ruta de Tapas","category":"gastronomia","lat":9.871351749714512,"lng":2.71388271788211,"avgVisitMinutes":75,"estimatedCostEur":7,"score":3.1118135903915243},{"id":"ndali_1209","citySlug":"ndali","name":"Restaurante Típico de Ndali","category":"gastronomia","lat":9.87319952983779,"lng":2.716057438654308,"avgVisitMinutes":86,"estimatedCostEur":11,"score":4.832507251997472},{"id":"ndali_8764","citySlug":"ndali","name":"Mercado Gastronómico","category":"gastronomia","lat":9.870593476969074,"lng":2.7280991612645953,"avgVisitMinutes":60,"estimatedCostEur":10,"score":2.6429068094717247},{"id":"natitingou_5565","citySlug":"natitingou","name":"Museo Local de Natitingou","category":"historia","lat":10.30116108807171,"lng":1.3883172636613827,"avgVisitMinutes":67,"estimatedCostEur":20,"score":4.01798617918699},{"id":"natitingou_7051","citySlug":"natitingou","name":"Iglesia de Natitingou","category":"historia","lat":10.306562521334769,"lng":1.3860986992516524,"avgVisitMinutes":86,"estimatedCostEur":15,"score":4.69707305520044},{"id":"natitingou_9915","citySlug":"natitingou","name":"Parque Central","category":"ocio","lat":10.300899196333622,"lng":1.375471862161944,"avgVisitMinutes":79,"estimatedCostEur":5,"score":4.518906945506728},{"id":"natitingou_2511","citySlug":"natitingou","name":"Mercado Gastronómico","category":"gastronomia","lat":10.299538572780389,"lng":1.3888392686166442,"avgVisitMinutes":47,"estimatedCostEur":22,"score":1.5767778497511973},{"id":"natitingou_2097","citySlug":"natitingou","name":"Restaurante Típico de Natitingou","category":"gastronomia","lat":10.309941988992268,"lng":1.3878224298208257,"avgVisitMinutes":41,"estimatedCostEur":20,"score":2.341411350434669},{"id":"natitingou_5543","citySlug":"natitingou","name":"Paseo Principal","category":"ocio","lat":10.300486989906462,"lng":1.3866085656032572,"avgVisitMinutes":30,"estimatedCostEur":4,"score":3.776364760919139},{"id":"natitingou_4810","citySlug":"natitingou","name":"Mirador de Natitingou","category":"mirador","lat":10.31398616010921,"lng":1.3867405889926168,"avgVisitMinutes":89,"estimatedCostEur":16,"score":1.0102830095083586},{"id":"natitingou_6880","citySlug":"natitingou","name":"Castillo de Natitingou","category":"historia","lat":10.302574506897624,"lng":1.3730740111255555,"avgVisitMinutes":69,"estimatedCostEur":15,"score":2.1327716831668173},{"id":"natitingou_2961","citySlug":"natitingou","name":"Teatro Municipal","category":"cultura","lat":10.309692315114878,"lng":1.3851391442374286,"avgVisitMinutes":64,"estimatedCostEur":15,"score":1.0491212877671736},{"id":"misserete_6981","citySlug":"misserete","name":"Restaurante Típico de Missérété","category":"gastronomia","lat":6.554937907091139,"lng":2.587691283452227,"avgVisitMinutes":71,"estimatedCostEur":1,"score":2.2790399227884315},{"id":"misserete_3309","citySlug":"misserete","name":"Playa Central","category":"playa","lat":6.560482825314257,"lng":2.593764433147585,"avgVisitMinutes":42,"estimatedCostEur":22,"score":1.8928532714422637},{"id":"misserete_3918","citySlug":"misserete","name":"Playa Central","category":"playa","lat":6.558285991146283,"lng":2.5865934248466713,"avgVisitMinutes":38,"estimatedCostEur":23,"score":4.139646515751897},{"id":"misserete_2529","citySlug":"misserete","name":"Castillo de Missérété","category":"historia","lat":6.55625290043771,"lng":2.588979154945459,"avgVisitMinutes":84,"estimatedCostEur":11,"score":2.160025693699003},{"id":"misserete_4299","citySlug":"misserete","name":"Teatro Municipal","category":"cultura","lat":6.551897775926209,"lng":2.585605162972887,"avgVisitMinutes":34,"estimatedCostEur":12,"score":4.148324939631971},{"id":"misserete_7292","citySlug":"misserete","name":"Museo Local de Missérété","category":"historia","lat":6.551274155698272,"lng":2.5866642227277175,"avgVisitMinutes":27,"estimatedCostEur":10,"score":2.082256378106773},{"id":"misserete_3521","citySlug":"misserete","name":"Paseo Principal","category":"ocio","lat":6.559076545000977,"lng":2.593788320018394,"avgVisitMinutes":21,"estimatedCostEur":21,"score":4.078129171843635},{"id":"misserete_3099","citySlug":"misserete","name":"Zona Comercial","category":"ocio","lat":6.556837277811832,"lng":2.5996726793528553,"avgVisitMinutes":40,"estimatedCostEur":16,"score":4.199392109464864},{"id":"misserete_8458","citySlug":"misserete","name":"Restaurante Típico de Missérété","category":"gastronomia","lat":6.551211394629477,"lng":2.5814259825117425,"avgVisitMinutes":25,"estimatedCostEur":10,"score":0.6609380946999225},{"id":"materi_1549","citySlug":"materi","name":"Restaurante Típico de Matéri","category":"gastronomia","lat":10.697878054153252,"lng":1.0599970351236228,"avgVisitMinutes":86,"estimatedCostEur":7,"score":2.5488189555836316},{"id":"materi_6847","citySlug":"materi","name":"Playa Central","category":"playa","lat":10.700436863985704,"lng":1.06048835608197,"avgVisitMinutes":35,"estimatedCostEur":20,"score":2.886785412541894},{"id":"materi_6254","citySlug":"materi","name":"Galería de Arte","category":"cultura","lat":10.687066195020012,"lng":1.068529602885073,"avgVisitMinutes":76,"estimatedCostEur":15,"score":2.5153335085130726},{"id":"materi_1234","citySlug":"materi","name":"Vista Alta de Matéri","category":"mirador","lat":10.695331137237481,"lng":1.067767874254697,"avgVisitMinutes":74,"estimatedCostEur":15,"score":1.1646074688703507},{"id":"materi_7524","citySlug":"materi","name":"Parque Central","category":"ocio","lat":10.695242923993012,"lng":1.060029120004314,"avgVisitMinutes":36,"estimatedCostEur":18,"score":3.0353004458379953},{"id":"materi_7648","citySlug":"materi","name":"Mirador de Matéri","category":"mirador","lat":10.705198320282145,"lng":1.061933175763343,"avgVisitMinutes":68,"estimatedCostEur":22,"score":4.229470451060205},{"id":"materi_8593","citySlug":"materi","name":"Paseo Principal","category":"ocio","lat":10.689814386152358,"lng":1.0679958107063356,"avgVisitMinutes":23,"estimatedCostEur":18,"score":2.239203453844738},{"id":"lokossa_9150","citySlug":"lokossa","name":"Ruta de Tapas","category":"gastronomia","lat":6.641518199584454,"lng":1.7144358384348628,"avgVisitMinutes":50,"estimatedCostEur":13,"score":3.5455870653513992},{"id":"lokossa_4398","citySlug":"lokossa","name":"Museo Local de Lokossa","category":"historia","lat":6.632760026882712,"lng":1.7198072398048283,"avgVisitMinutes":27,"estimatedCostEur":20,"score":1.0585419192115557},{"id":"lokossa_8619","citySlug":"lokossa","name":"Teatro Municipal","category":"cultura","lat":6.635091121927323,"lng":1.7073188759635218,"avgVisitMinutes":43,"estimatedCostEur":5,"score":4.169236703099533},{"id":"lokossa_7188","citySlug":"lokossa","name":"Mercado Gastronómico","category":"gastronomia","lat":6.631098538079178,"lng":1.7217524927916066,"avgVisitMinutes":22,"estimatedCostEur":13,"score":1.8821796278621425},{"id":"lokossa_1899","citySlug":"lokossa","name":"Centro Histórico","category":"historia","lat":6.6328926865875015,"lng":1.7119526625243993,"avgVisitMinutes":86,"estimatedCostEur":3,"score":3.2136596918797213},{"id":"lokossa_3107","citySlug":"lokossa","name":"Restaurante Típico de Lokossa","category":"gastronomia","lat":6.635939936745737,"lng":1.7214413631914844,"avgVisitMinutes":44,"estimatedCostEur":6,"score":3.5394703153451994},{"id":"lokossa_9559","citySlug":"lokossa","name":"Playa Central","category":"playa","lat":6.645096472666968,"lng":1.7108700085141022,"avgVisitMinutes":68,"estimatedCostEur":13,"score":3.3519346795757605},{"id":"lokossa_7725","citySlug":"lokossa","name":"Restaurante Típico de Lokossa","category":"gastronomia","lat":6.645164785852639,"lng":1.7095725470484524,"avgVisitMinutes":58,"estimatedCostEur":6,"score":2.58895865285852},{"id":"lokossa_4827","citySlug":"lokossa","name":"Vista Alta de Lokossa","category":"mirador","lat":6.6485186854821645,"lng":1.709708531187346,"avgVisitMinutes":63,"estimatedCostEur":9,"score":2.560349962817896},{"id":"lokossa_5101","citySlug":"lokossa","name":"Mercado Gastronómico","category":"gastronomia","lat":6.6447159552319155,"lng":1.7123549979957742,"avgVisitMinutes":83,"estimatedCostEur":14,"score":3.8948042052777843},{"id":"lalo_7261","citySlug":"lalo","name":"Vista Alta de Lalo","category":"mirador","lat":6.91993053759473,"lng":1.8912037732200626,"avgVisitMinutes":39,"estimatedCostEur":6,"score":4.43119479444882},{"id":"lalo_7141","citySlug":"lalo","name":"Castillo de Lalo","category":"historia","lat":6.929308780143982,"lng":1.882930921899593,"avgVisitMinutes":51,"estimatedCostEur":4,"score":2.4600470372619205},{"id":"lalo_3954","citySlug":"lalo","name":"Centro Histórico","category":"historia","lat":6.924750512836899,"lng":1.893957460086811,"avgVisitMinutes":81,"estimatedCostEur":17,"score":1.6415982195003096},{"id":"lalo_1787","citySlug":"lalo","name":"Centro Histórico","category":"historia","lat":6.9302954863156305,"lng":1.894215029145625,"avgVisitMinutes":21,"estimatedCostEur":18,"score":3.175840274014096},{"id":"lalo_8470","citySlug":"lalo","name":"Paseo Principal","category":"ocio","lat":6.929969623847044,"lng":1.8820909311687988,"avgVisitMinutes":83,"estimatedCostEur":11,"score":3.2099880968621157},{"id":"lalo_4628","citySlug":"lalo","name":"Vista Alta de Lalo","category":"mirador","lat":6.9300198960042465,"lng":1.8816885688108316,"avgVisitMinutes":42,"estimatedCostEur":17,"score":4.838508973938931},{"id":"lalo_7338","citySlug":"lalo","name":"Ruta de Tapas","category":"gastronomia","lat":6.920878305736109,"lng":1.8895231382856956,"avgVisitMinutes":25,"estimatedCostEur":14,"score":4.192550184856174},{"id":"lalo_5984","citySlug":"lalo","name":"Museo Cultural de Lalo","category":"cultura","lat":6.933044990190596,"lng":1.8807724743870968,"avgVisitMinutes":29,"estimatedCostEur":11,"score":3.602672330178828},{"id":"kouande_7625","citySlug":"kouande","name":"Punto Panorámico","category":"mirador","lat":6.391416388163267,"lng":2.0593995183302916,"avgVisitMinutes":69,"estimatedCostEur":20,"score":3.9174509070086554},{"id":"kouande_8226","citySlug":"kouande","name":"Paseo Principal","category":"ocio","lat":6.403486727957343,"lng":2.0760867286266573,"avgVisitMinutes":27,"estimatedCostEur":22,"score":3.2443348170150035},{"id":"kouande_6741","citySlug":"kouande","name":"Vista Alta de Kouandé","category":"mirador","lat":6.396944947280311,"lng":2.0571073125062487,"avgVisitMinutes":26,"estimatedCostEur":14,"score":2.5535337455362033},{"id":"kouande_4711","citySlug":"kouande","name":"Zona Comercial","category":"ocio","lat":6.400358850076977,"lng":2.069571393174949,"avgVisitMinutes":72,"estimatedCostEur":24,"score":1.1001649205036226},{"id":"kouande_7097","citySlug":"kouande","name":"Zona Comercial","category":"ocio","lat":6.391982561927767,"lng":2.0694974084682105,"avgVisitMinutes":53,"estimatedCostEur":17,"score":4.367052765016006},{"id":"kouande_8339","citySlug":"kouande","name":"Centro de Arte de Kouandé","category":"cultura","lat":6.400768231497276,"lng":2.062754461164391,"avgVisitMinutes":35,"estimatedCostEur":8,"score":2.84125938599648},{"id":"kouande_4247","citySlug":"kouande","name":"Mirador de Kouandé","category":"mirador","lat":6.401651561719964,"lng":2.075115736679293,"avgVisitMinutes":64,"estimatedCostEur":0,"score":1.5522088635774467},{"id":"kouande_4555","citySlug":"kouande","name":"Museo Cultural de Kouandé","category":"cultura","lat":6.399728248875114,"lng":2.0613586655674925,"avgVisitMinutes":62,"estimatedCostEur":23,"score":4.7878924006160775},{"id":"kouande_4861","citySlug":"kouande","name":"Centro Histórico","category":"historia","lat":6.391718558059815,"lng":2.068557405031294,"avgVisitMinutes":27,"estimatedCostEur":8,"score":4.880300603750165},{"id":"ketou_2277","citySlug":"ketou","name":"Galería de Arte","category":"cultura","lat":7.368436650933198,"lng":2.598223597536543,"avgVisitMinutes":25,"estimatedCostEur":15,"score":4.396788147966383},{"id":"ketou_5092","citySlug":"ketou","name":"Restaurante Típico de Kétou","category":"gastronomia","lat":7.367507760289257,"lng":2.602229228593284,"avgVisitMinutes":49,"estimatedCostEur":23,"score":4.357347950466662},{"id":"ketou_1542","citySlug":"ketou","name":"Mirador de Kétou","category":"mirador","lat":7.362477795743725,"lng":2.5966421885782234,"avgVisitMinutes":36,"estimatedCostEur":22,"score":3.7973696861466304},{"id":"ketou_2989","citySlug":"ketou","name":"Playa Sur","category":"playa","lat":7.372139196256309,"lng":2.5967759748096637,"avgVisitMinutes":44,"estimatedCostEur":6,"score":4.099475755066059},{"id":"ketou_1305","citySlug":"ketou","name":"Iglesia de Kétou","category":"historia","lat":7.370483856017982,"lng":2.59955399725089,"avgVisitMinutes":89,"estimatedCostEur":23,"score":2.0048150556363837},{"id":"kerou_4771","citySlug":"kerou","name":"Paseo Principal","category":"ocio","lat":10.816563233106601,"lng":2.099582849232974,"avgVisitMinutes":49,"estimatedCostEur":19,"score":1.1877238334490476},{"id":"kerou_9802","citySlug":"kerou","name":"Playa Sur","category":"playa","lat":10.822201435921054,"lng":2.113014346410543,"avgVisitMinutes":64,"estimatedCostEur":23,"score":4.248427710653995},{"id":"kerou_7263","citySlug":"kerou","name":"Mirador de Kérou","category":"mirador","lat":10.819092461160208,"lng":2.1115134603250514,"avgVisitMinutes":78,"estimatedCostEur":0,"score":4.165700093758863},{"id":"kerou_5529","citySlug":"kerou","name":"Vista Alta de Kérou","category":"mirador","lat":10.819933295961587,"lng":2.1061296766748905,"avgVisitMinutes":55,"estimatedCostEur":20,"score":3.2719960662905643},{"id":"kerou_3624","citySlug":"kerou","name":"Galería de Arte","category":"cultura","lat":10.826324446431565,"lng":2.1069028455466685,"avgVisitMinutes":28,"estimatedCostEur":11,"score":1.1660161300271241},{"id":"kerou_8805","citySlug":"kerou","name":"Parque Central","category":"ocio","lat":10.816172032488236,"lng":2.109230444733704,"avgVisitMinutes":35,"estimatedCostEur":6,"score":2.6381335007945412},{"id":"kandi_1870","citySlug":"kandi","name":"Paseo Principal","category":"ocio","lat":11.125377010341937,"lng":2.9425125090662747,"avgVisitMinutes":49,"estimatedCostEur":11,"score":2.2005967397658344},{"id":"kandi_6447","citySlug":"kandi","name":"Galería de Arte","category":"cultura","lat":11.12463007294345,"lng":2.929633296735078,"avgVisitMinutes":27,"estimatedCostEur":20,"score":4.967003149090443},{"id":"kandi_6062","citySlug":"kandi","name":"Punto Panorámico","category":"mirador","lat":11.14117713862789,"lng":2.9361458088584342,"avgVisitMinutes":46,"estimatedCostEur":9,"score":3.7274102557289845},{"id":"kandi_5458","citySlug":"kandi","name":"Mercado Gastronómico","category":"gastronomia","lat":11.132045568980534,"lng":2.937673542085942,"avgVisitMinutes":84,"estimatedCostEur":21,"score":1.0780019803896894},{"id":"kandi_5799","citySlug":"kandi","name":"Ruta de Tapas","category":"gastronomia","lat":11.142620375348413,"lng":2.931809085197244,"avgVisitMinutes":51,"estimatedCostEur":21,"score":4.022164455213838},{"id":"kalale_8647","citySlug":"kalale","name":"Mercado Gastronómico","category":"gastronomia","lat":10.30030529628867,"lng":3.390869982495038,"avgVisitMinutes":54,"estimatedCostEur":9,"score":3.024883408578805},{"id":"kalale_4591","citySlug":"kalale","name":"Paseo Principal","category":"ocio","lat":10.292391781158988,"lng":3.3793818099361954,"avgVisitMinutes":44,"estimatedCostEur":8,"score":3.768209031524007},{"id":"kalale_4422","citySlug":"kalale","name":"Restaurante Típico de Kalalé","category":"gastronomia","lat":10.293094144261214,"lng":3.3763406804775866,"avgVisitMinutes":61,"estimatedCostEur":13,"score":1.2092689369342473},{"id":"kalale_2119","citySlug":"kalale","name":"Mercado Gastronómico","category":"gastronomia","lat":10.298612376137067,"lng":3.391328796230534,"avgVisitMinutes":48,"estimatedCostEur":11,"score":0.8292785616750498},{"id":"kalale_9424","citySlug":"kalale","name":"Paseo Principal","category":"ocio","lat":10.285314344397488,"lng":3.3759399764745055,"avgVisitMinutes":74,"estimatedCostEur":23,"score":4.843968677837017},{"id":"kalale_3861","citySlug":"kalale","name":"Playa Central","category":"playa","lat":10.298880891704886,"lng":3.383292591616928,"avgVisitMinutes":40,"estimatedCostEur":6,"score":1.0650177692626162},{"id":"kalale_2329","citySlug":"kalale","name":"Museo Cultural de Kalalé","category":"cultura","lat":10.297140360161661,"lng":3.377768809330279,"avgVisitMinutes":21,"estimatedCostEur":4,"score":3.6860893382788023},{"id":"hinvi_9973","citySlug":"hinvi","name":"Museo Cultural de Hinvi","category":"cultura","lat":6.775625683777268,"lng":2.165949553595222,"avgVisitMinutes":45,"estimatedCostEur":5,"score":3.005214515221012},{"id":"hinvi_8248","citySlug":"hinvi","name":"Galería de Arte","category":"cultura","lat":6.762470869381229,"lng":2.1646730714475377,"avgVisitMinutes":79,"estimatedCostEur":10,"score":2.4072349546242737},{"id":"hinvi_5759","citySlug":"hinvi","name":"Paseo Principal","category":"ocio","lat":6.773844928946918,"lng":2.1602937036304106,"avgVisitMinutes":88,"estimatedCostEur":13,"score":2.9663278811034557},{"id":"hinvi_7123","citySlug":"hinvi","name":"Mercado Gastronómico","category":"gastronomia","lat":6.770346296899314,"lng":2.1726044104480318,"avgVisitMinutes":44,"estimatedCostEur":6,"score":3.6430095622834164},{"id":"hinvi_9410","citySlug":"hinvi","name":"Ruta de Tapas","category":"gastronomia","lat":6.773537122097579,"lng":2.1629862906419777,"avgVisitMinutes":62,"estimatedCostEur":24,"score":2.7591079530486824},{"id":"hinvi_9251","citySlug":"hinvi","name":"Mercado Gastronómico","category":"gastronomia","lat":6.762568174554695,"lng":2.1598063105028924,"avgVisitMinutes":21,"estimatedCostEur":1,"score":2.845355070288645},{"id":"hinvi_6070","citySlug":"hinvi","name":"Vista Alta de Hinvi","category":"mirador","lat":6.7748318820736415,"lng":2.166492325530518,"avgVisitMinutes":67,"estimatedCostEur":5,"score":2.945668522935408},{"id":"hinvi_9431","citySlug":"hinvi","name":"Museo Cultural de Hinvi","category":"cultura","lat":6.75740970725841,"lng":2.15710855083538,"avgVisitMinutes":86,"estimatedCostEur":18,"score":3.074963040749},{"id":"hinvi_7973","citySlug":"hinvi","name":"Paseo Principal","category":"ocio","lat":6.759179998057702,"lng":2.1578184577101824,"avgVisitMinutes":86,"estimatedCostEur":24,"score":0.6352616976131199},{"id":"hevie_1841","citySlug":"hevie","name":"Mercado Gastronómico","category":"gastronomia","lat":6.417304371548631,"lng":2.25940634530759,"avgVisitMinutes":47,"estimatedCostEur":0,"score":4.044047192305049},{"id":"hevie_1055","citySlug":"hevie","name":"Murallas de Hévié","category":"historia","lat":6.412127813658029,"lng":2.2449411851015366,"avgVisitMinutes":37,"estimatedCostEur":18,"score":2.8880339728412965},{"id":"hevie_2594","citySlug":"hevie","name":"Galería de Arte","category":"cultura","lat":6.421245406614907,"lng":2.2502454514337202,"avgVisitMinutes":47,"estimatedCostEur":19,"score":2.890583567342615},{"id":"hevie_2926","citySlug":"hevie","name":"Teatro Municipal","category":"cultura","lat":6.407755791899223,"lng":2.2576996266338067,"avgVisitMinutes":89,"estimatedCostEur":22,"score":0.7317317571562019},{"id":"hevie_9662","citySlug":"hevie","name":"Murallas de Hévié","category":"historia","lat":6.4129141441800614,"lng":2.2402089427650096,"avgVisitMinutes":85,"estimatedCostEur":0,"score":4.326503799213894},{"id":"hevie_4526","citySlug":"hevie","name":"Punto Panorámico","category":"mirador","lat":6.4167654972730155,"lng":2.251153076050366,"avgVisitMinutes":22,"estimatedCostEur":18,"score":2.750963700112011},{"id":"hevie_4772","citySlug":"hevie","name":"Vista Alta de Hévié","category":"mirador","lat":6.41029818065048,"lng":2.2482622488379373,"avgVisitMinutes":31,"estimatedCostEur":7,"score":4.18316007564955},{"id":"hevie_2650","citySlug":"hevie","name":"Punto Panorámico","category":"mirador","lat":6.4117445147835195,"lng":2.254131581511421,"avgVisitMinutes":32,"estimatedCostEur":16,"score":2.8231781302162986},{"id":"hevie_3088","citySlug":"hevie","name":"Iglesia de Hévié","category":"historia","lat":6.418852057435778,"lng":2.2485920176419865,"avgVisitMinutes":81,"estimatedCostEur":21,"score":0.5227329411883339},{"id":"hevie_9989","citySlug":"hevie","name":"Punto Panorámico","category":"mirador","lat":6.425564573794397,"lng":2.2589622807954983,"avgVisitMinutes":69,"estimatedCostEur":10,"score":4.925358491881042},{"id":"hevie_1859","citySlug":"hevie","name":"Museo Local de Hévié","category":"historia","lat":6.420135627807048,"lng":2.243790161776708,"avgVisitMinutes":65,"estimatedCostEur":13,"score":1.854133963141626},{"id":"guilmaro_1559","citySlug":"guilmaro","name":"Centro de Arte de Guilmaro","category":"cultura","lat":10.570724313861222,"lng":1.7327188584991755,"avgVisitMinutes":25,"estimatedCostEur":15,"score":1.5928954768364862},{"id":"guilmaro_3356","citySlug":"guilmaro","name":"Playa Norte","category":"playa","lat":10.571091394353406,"lng":1.7292959770923786,"avgVisitMinutes":74,"estimatedCostEur":25,"score":1.5368030241743638},{"id":"guilmaro_6114","citySlug":"guilmaro","name":"Museo Cultural de Guilmaro","category":"cultura","lat":10.567554912366553,"lng":1.726773234443361,"avgVisitMinutes":85,"estimatedCostEur":20,"score":3.623068713095838},{"id":"guilmaro_3507","citySlug":"guilmaro","name":"Museo Local de Guilmaro","category":"historia","lat":10.571292127566046,"lng":1.72590876220423,"avgVisitMinutes":20,"estimatedCostEur":15,"score":0.7683998907874368},{"id":"guilmaro_2039","citySlug":"guilmaro","name":"Ruta de Tapas","category":"gastronomia","lat":10.568929869762886,"lng":1.7194815151575886,"avgVisitMinutes":65,"estimatedCostEur":23,"score":3.5571625173885026},{"id":"guilmaro_8451","citySlug":"guilmaro","name":"Museo Cultural de Guilmaro","category":"cultura","lat":10.563826783754484,"lng":1.7302150300460706,"avgVisitMinutes":71,"estimatedCostEur":16,"score":3.128133508775974},{"id":"guilmaro_3496","citySlug":"guilmaro","name":"Ruta de Tapas","category":"gastronomia","lat":10.566531624429727,"lng":1.7281082608556253,"avgVisitMinutes":57,"estimatedCostEur":9,"score":1.241232746512957},{"id":"guilmaro_6911","citySlug":"guilmaro","name":"Teatro Municipal","category":"cultura","lat":10.562900825126468,"lng":1.7267380162491626,"avgVisitMinutes":87,"estimatedCostEur":16,"score":2.564005816321129},{"id":"guilmaro_9014","citySlug":"guilmaro","name":"Playa Central","category":"playa","lat":10.556833116431712,"lng":1.726124638968836,"avgVisitMinutes":32,"estimatedCostEur":14,"score":1.7172334078186196},{"id":"guilmaro_9275","citySlug":"guilmaro","name":"Iglesia de Guilmaro","category":"historia","lat":10.557249006287721,"lng":1.7145178169927857,"avgVisitMinutes":63,"estimatedCostEur":17,"score":3.228936023916434},{"id":"guilmaro_5604","citySlug":"guilmaro","name":"Zona Comercial","category":"ocio","lat":10.570342353290874,"lng":1.7224911460027854,"avgVisitMinutes":32,"estimatedCostEur":18,"score":2.2378133882013866},{"id":"grand-popo_8299","citySlug":"grand-popo","name":"Vista Alta de Grand-Popo","category":"mirador","lat":6.277328950305897,"lng":1.8148395335874132,"avgVisitMinutes":24,"estimatedCostEur":15,"score":4.58963822447221},{"id":"grand-popo_5187","citySlug":"grand-popo","name":"Parque Central","category":"ocio","lat":6.287925231500483,"lng":1.8189244546038885,"avgVisitMinutes":45,"estimatedCostEur":13,"score":2.369284429132466},{"id":"grand-popo_7455","citySlug":"grand-popo","name":"Zona Comercial","category":"ocio","lat":6.28155665840074,"lng":1.8218563034241864,"avgVisitMinutes":33,"estimatedCostEur":17,"score":3.7670021537584875},{"id":"grand-popo_7062","citySlug":"grand-popo","name":"Playa Norte","category":"playa","lat":6.286093952041169,"lng":1.8162238700396713,"avgVisitMinutes":23,"estimatedCostEur":19,"score":1.001921420107903},{"id":"grand-popo_3033","citySlug":"grand-popo","name":"Vista Alta de Grand-Popo","category":"mirador","lat":6.279471859752756,"lng":1.8211741596911832,"avgVisitMinutes":27,"estimatedCostEur":20,"score":0.9676854528389351},{"id":"grand-popo_2811","citySlug":"grand-popo","name":"Restaurante Típico de Grand-Popo","category":"gastronomia","lat":6.287498991046358,"lng":1.8188514840403531,"avgVisitMinutes":54,"estimatedCostEur":10,"score":3.280910724366845},{"id":"grand-popo_3311","citySlug":"grand-popo","name":"Mercado Gastronómico","category":"gastronomia","lat":6.275404160114491,"lng":1.815349528431847,"avgVisitMinutes":81,"estimatedCostEur":8,"score":2.753144858455708},{"id":"grand-popo_9252","citySlug":"grand-popo","name":"Museo Cultural de Grand-Popo","category":"cultura","lat":6.2709108705098,"lng":1.8240330361781998,"avgVisitMinutes":61,"estimatedCostEur":20,"score":4.396503801698583},{"id":"grand-popo_2616","citySlug":"grand-popo","name":"Punto Panorámico","category":"mirador","lat":6.289987694610237,"lng":1.814769901826128,"avgVisitMinutes":62,"estimatedCostEur":23,"score":1.7826522628051729},{"id":"gogounou_9637","citySlug":"gogounou","name":"Punto Panorámico","category":"mirador","lat":10.831020741749633,"lng":2.8365919282663707,"avgVisitMinutes":51,"estimatedCostEur":20,"score":0.5762354332950561},{"id":"gogounou_7867","citySlug":"gogounou","name":"Parque Central","category":"ocio","lat":10.840570485583264,"lng":2.8383735794800775,"avgVisitMinutes":65,"estimatedCostEur":11,"score":1.9559788148401047},{"id":"gogounou_2322","citySlug":"gogounou","name":"Mercado Gastronómico","category":"gastronomia","lat":10.836749499675015,"lng":2.8342308105076826,"avgVisitMinutes":63,"estimatedCostEur":5,"score":0.8294706407014121},{"id":"gogounou_6633","citySlug":"gogounou","name":"Ruta de Tapas","category":"gastronomia","lat":10.830745400002987,"lng":2.827197285038524,"avgVisitMinutes":86,"estimatedCostEur":20,"score":4.118099249291861},{"id":"gogounou_3589","citySlug":"gogounou","name":"Zona Comercial","category":"ocio","lat":10.833103715735037,"lng":2.822716410725471,"avgVisitMinutes":53,"estimatedCostEur":1,"score":2.2267464127752485},{"id":"godome_5502","citySlug":"godome","name":"Teatro Municipal","category":"cultura","lat":6.385770545535219,"lng":2.3416686628456462,"avgVisitMinutes":76,"estimatedCostEur":8,"score":1.942659801494674},{"id":"godome_3767","citySlug":"godome","name":"Paseo Principal","category":"ocio","lat":6.390450980515835,"lng":2.342560583294826,"avgVisitMinutes":31,"estimatedCostEur":8,"score":4.475849055426376},{"id":"godome_9779","citySlug":"godome","name":"Ruta de Tapas","category":"gastronomia","lat":6.385765372113428,"lng":2.3525474492870933,"avgVisitMinutes":52,"estimatedCostEur":22,"score":3.4476474538436914},{"id":"godome_8531","citySlug":"godome","name":"Ruta de Tapas","category":"gastronomia","lat":6.387624041835173,"lng":2.3374810076937926,"avgVisitMinutes":81,"estimatedCostEur":3,"score":4.467231848396075},{"id":"godome_5863","citySlug":"godome","name":"Ruta de Tapas","category":"gastronomia","lat":6.388341953936611,"lng":2.355515472670047,"avgVisitMinutes":58,"estimatedCostEur":11,"score":2.3018302196251645},{"id":"godome_4752","citySlug":"godome","name":"Mercado Gastronómico","category":"gastronomia","lat":6.380191587612378,"lng":2.3379447056312816,"avgVisitMinutes":32,"estimatedCostEur":20,"score":4.379275830740033},{"id":"godome_2810","citySlug":"godome","name":"Restaurante Típico de Godomè","category":"gastronomia","lat":6.397843608777879,"lng":2.3458317137442304,"avgVisitMinutes":29,"estimatedCostEur":22,"score":3.498565621823114},{"id":"glazoue_3499","citySlug":"glazoue","name":"Playa Central","category":"playa","lat":7.974033068387989,"lng":2.230492647133875,"avgVisitMinutes":34,"estimatedCostEur":0,"score":3.3981163616505183},{"id":"glazoue_8466","citySlug":"glazoue","name":"Murallas de Glazoué","category":"historia","lat":7.968621615000239,"lng":2.2120658046708295,"avgVisitMinutes":58,"estimatedCostEur":19,"score":1.5547550265356906},{"id":"glazoue_3993","citySlug":"glazoue","name":"Playa Norte","category":"playa","lat":7.9707243047663585,"lng":2.228694828557818,"avgVisitMinutes":54,"estimatedCostEur":3,"score":1.0940375087555196},{"id":"glazoue_5329","citySlug":"glazoue","name":"Paseo Principal","category":"ocio","lat":7.975047513896792,"lng":2.2203289660648506,"avgVisitMinutes":27,"estimatedCostEur":16,"score":0.5707686145936833},{"id":"glazoue_9793","citySlug":"glazoue","name":"Playa Central","category":"playa","lat":7.969356765935724,"lng":2.218453222229732,"avgVisitMinutes":38,"estimatedCostEur":24,"score":1.7765286108637786},{"id":"ganvie_8039","citySlug":"ganvie","name":"Galería de Arte","category":"cultura","lat":6.470179792628833,"lng":2.3972988659683834,"avgVisitMinutes":57,"estimatedCostEur":11,"score":4.324728266840454},{"id":"ganvie_1850","citySlug":"ganvie","name":"Paseo Principal","category":"ocio","lat":6.460716899553143,"lng":2.400553739221834,"avgVisitMinutes":34,"estimatedCostEur":23,"score":2.9648219397777833},{"id":"ganvie_6576","citySlug":"ganvie","name":"Galería de Arte","category":"cultura","lat":6.459612760020921,"lng":2.393643624006008,"avgVisitMinutes":75,"estimatedCostEur":12,"score":3.1891539060250134},{"id":"ganvie_9316","citySlug":"ganvie","name":"Galería de Arte","category":"cultura","lat":6.459493875858901,"lng":2.387094953687172,"avgVisitMinutes":23,"estimatedCostEur":0,"score":4.719760833037477},{"id":"ganvie_7283","citySlug":"ganvie","name":"Playa Central","category":"playa","lat":6.465748681084876,"lng":2.402170474450504,"avgVisitMinutes":38,"estimatedCostEur":1,"score":2.5345690838911294},{"id":"ganvie_9023","citySlug":"ganvie","name":"Punto Panorámico","category":"mirador","lat":6.471332287262872,"lng":2.3956059863021095,"avgVisitMinutes":57,"estimatedCostEur":2,"score":3.8028044556643428},{"id":"ganvie_5376","citySlug":"ganvie","name":"Museo Local de Ganvié","category":"historia","lat":6.459069344456645,"lng":2.39407196389274,"avgVisitMinutes":52,"estimatedCostEur":17,"score":3.355468829204368},{"id":"ganvie_7260","citySlug":"ganvie","name":"Mirador de Ganvié","category":"mirador","lat":6.456809848384254,"lng":2.3917108668642597,"avgVisitMinutes":75,"estimatedCostEur":9,"score":3.2867284483863686},{"id":"ganvie_8300","citySlug":"ganvie","name":"Parque Central","category":"ocio","lat":6.455891103350402,"lng":2.40186825496069,"avgVisitMinutes":85,"estimatedCostEur":3,"score":3.904860376063218},{"id":"ganvie_7474","citySlug":"ganvie","name":"Playa Central","category":"playa","lat":6.462551923185565,"lng":2.398977204077052,"avgVisitMinutes":55,"estimatedCostEur":4,"score":2.3922856286566576},{"id":"ekpe_7468","citySlug":"ekpe","name":"Playa Norte","category":"playa","lat":6.391945684786122,"lng":2.5424752703119546,"avgVisitMinutes":33,"estimatedCostEur":10,"score":3.2645616466239074},{"id":"ekpe_4521","citySlug":"ekpe","name":"Zona Comercial","category":"ocio","lat":6.392921252887813,"lng":2.537798906378315,"avgVisitMinutes":54,"estimatedCostEur":20,"score":4.267124208447683},{"id":"ekpe_9257","citySlug":"ekpe","name":"Mirador de Ekpé","category":"mirador","lat":6.391858124861298,"lng":2.542757007286076,"avgVisitMinutes":36,"estimatedCostEur":11,"score":3.9357620906880317},{"id":"ekpe_7990","citySlug":"ekpe","name":"Playa Sur","category":"playa","lat":6.394265135031223,"lng":2.5387681329518776,"avgVisitMinutes":26,"estimatedCostEur":21,"score":0.7340941596938492},{"id":"ekpe_9495","citySlug":"ekpe","name":"Punto Panorámico","category":"mirador","lat":6.397254482421335,"lng":2.52893496239767,"avgVisitMinutes":21,"estimatedCostEur":0,"score":1.0825648312700307},{"id":"ekpe_4700","citySlug":"ekpe","name":"Zona Comercial","category":"ocio","lat":6.3886188576210445,"lng":2.5429545437359393,"avgVisitMinutes":48,"estimatedCostEur":9,"score":1.4926140735234155},{"id":"ekpe_6246","citySlug":"ekpe","name":"Galería de Arte","category":"cultura","lat":6.386006865259233,"lng":2.5388559350934714,"avgVisitMinutes":47,"estimatedCostEur":1,"score":1.415538167285385},{"id":"ekpe_1863","citySlug":"ekpe","name":"Playa Central","category":"playa","lat":6.386532621933604,"lng":2.535979040521411,"avgVisitMinutes":75,"estimatedCostEur":19,"score":4.961663353808846},{"id":"ekpe_9746","citySlug":"ekpe","name":"Murallas de Ekpé","category":"historia","lat":6.387021649008384,"lng":2.544516552515937,"avgVisitMinutes":39,"estimatedCostEur":11,"score":0.7962760113610055},{"id":"dogbo_3335","citySlug":"dogbo","name":"Playa Sur","category":"playa","lat":6.801242897348162,"lng":1.7803364580485728,"avgVisitMinutes":79,"estimatedCostEur":11,"score":1.1327027617889074},{"id":"dogbo_1266","citySlug":"dogbo","name":"Playa Sur","category":"playa","lat":6.806256826387983,"lng":1.788457353365577,"avgVisitMinutes":49,"estimatedCostEur":12,"score":2.277809808269725},{"id":"dogbo_5384","citySlug":"dogbo","name":"Playa Norte","category":"playa","lat":6.801095711727987,"lng":1.7734372806237193,"avgVisitMinutes":78,"estimatedCostEur":11,"score":4.191542143131042},{"id":"dogbo_8075","citySlug":"dogbo","name":"Castillo de Dogbo","category":"historia","lat":6.804244131727583,"lng":1.7752026496535047,"avgVisitMinutes":71,"estimatedCostEur":7,"score":2.540823059407683},{"id":"dogbo_5747","citySlug":"dogbo","name":"Iglesia de Dogbo","category":"historia","lat":6.796433788844598,"lng":1.7789479939814574,"avgVisitMinutes":72,"estimatedCostEur":12,"score":1.3497091880326528},{"id":"dogbo_3875","citySlug":"dogbo","name":"Restaurante Típico de Dogbo","category":"gastronomia","lat":6.803578240216511,"lng":1.7725580942895676,"avgVisitMinutes":76,"estimatedCostEur":12,"score":2.9325634769696904},{"id":"dogbo_1397","citySlug":"dogbo","name":"Ruta de Tapas","category":"gastronomia","lat":6.79188667821013,"lng":1.7757595314767998,"avgVisitMinutes":29,"estimatedCostEur":17,"score":3.821534485310325},{"id":"dogbo_2393","citySlug":"dogbo","name":"Paseo Principal","category":"ocio","lat":6.806172845038012,"lng":1.7749778246805805,"avgVisitMinutes":74,"estimatedCostEur":0,"score":3.7988662219774487},{"id":"dogbo_2890","citySlug":"dogbo","name":"Parque Central","category":"ocio","lat":6.801205123648709,"lng":1.7863107405454781,"avgVisitMinutes":84,"estimatedCostEur":5,"score":4.600925764318983},{"id":"dogbo_2929","citySlug":"dogbo","name":"Ruta de Tapas","category":"gastronomia","lat":6.806155336434739,"lng":1.7762065580535131,"avgVisitMinutes":89,"estimatedCostEur":18,"score":4.681824799732335},{"id":"dogbo_5115","citySlug":"dogbo","name":"Playa Central","category":"playa","lat":6.805084556040069,"lng":1.7901325836523876,"avgVisitMinutes":90,"estimatedCostEur":6,"score":1.0372258652672361},{"id":"dogbo_1820","citySlug":"dogbo","name":"Castillo de Dogbo","category":"historia","lat":6.800694703641319,"lng":1.7841541788951363,"avgVisitMinutes":48,"estimatedCostEur":15,"score":1.9230312751099137},{"id":"djougou_3357","citySlug":"djougou","name":"Restaurante Típico de Djougou","category":"gastronomia","lat":9.700884515322805,"lng":1.6652313953105076,"avgVisitMinutes":57,"estimatedCostEur":17,"score":0.9481449288498949},{"id":"djougou_3904","citySlug":"djougou","name":"Restaurante Típico de Djougou","category":"gastronomia","lat":9.702361169438362,"lng":1.6622522895309553,"avgVisitMinutes":76,"estimatedCostEur":10,"score":2.176139334995382},{"id":"djougou_1991","citySlug":"djougou","name":"Vista Alta de Djougou","category":"mirador","lat":9.715405362408788,"lng":1.6644441431875567,"avgVisitMinutes":64,"estimatedCostEur":6,"score":2.0921459015579607},{"id":"djougou_3186","citySlug":"djougou","name":"Museo Local de Djougou","category":"historia","lat":9.713306699924924,"lng":1.6616792305879406,"avgVisitMinutes":37,"estimatedCostEur":17,"score":0.5330821381807538},{"id":"djougou_4669","citySlug":"djougou","name":"Castillo de Djougou","category":"historia","lat":9.700950068902946,"lng":1.6630016529789085,"avgVisitMinutes":50,"estimatedCostEur":14,"score":1.0097822904040328},{"id":"djougou_7587","citySlug":"djougou","name":"Playa Norte","category":"playa","lat":9.714766080486816,"lng":1.6592016533118112,"avgVisitMinutes":25,"estimatedCostEur":16,"score":0.6076384371215116},{"id":"djougou_6613","citySlug":"djougou","name":"Centro de Arte de Djougou","category":"cultura","lat":9.708721840679962,"lng":1.670185064920627,"avgVisitMinutes":60,"estimatedCostEur":23,"score":0.8162258047529911},{"id":"djougou_6401","citySlug":"djougou","name":"Vista Alta de Djougou","category":"mirador","lat":9.702911105186072,"lng":1.6735172938712968,"avgVisitMinutes":55,"estimatedCostEur":7,"score":0.9163036269233427},{"id":"djougou_8998","citySlug":"djougou","name":"Mirador de Djougou","category":"mirador","lat":9.70570797961746,"lng":1.6739736890954107,"avgVisitMinutes":78,"estimatedCostEur":9,"score":4.394592689217551},{"id":"djougou_7773","citySlug":"djougou","name":"Zona Comercial","category":"ocio","lat":9.69968139925093,"lng":1.6662182734071025,"avgVisitMinutes":24,"estimatedCostEur":7,"score":3.9036841937581883},{"id":"djougou_6387","citySlug":"djougou","name":"Mirador de Djougou","category":"mirador","lat":9.702393105919546,"lng":1.6684088462291915,"avgVisitMinutes":71,"estimatedCostEur":1,"score":4.230422908009507},{"id":"djidja_3939","citySlug":"djidja","name":"Punto Panorámico","category":"mirador","lat":7.34047666819049,"lng":1.9367001333256417,"avgVisitMinutes":35,"estimatedCostEur":19,"score":3.3481905976792605},{"id":"djidja_2797","citySlug":"djidja","name":"Mirador de Djidja","category":"mirador","lat":7.340626557771422,"lng":1.9370981006764678,"avgVisitMinutes":54,"estimatedCostEur":3,"score":0.9419181878076477},{"id":"djidja_1815","citySlug":"djidja","name":"Playa Norte","category":"playa","lat":7.344838144046735,"lng":1.941030993681795,"avgVisitMinutes":83,"estimatedCostEur":3,"score":2.467900240908217},{"id":"djidja_8261","citySlug":"djidja","name":"Vista Alta de Djidja","category":"mirador","lat":7.3487728074323355,"lng":1.925908796331933,"avgVisitMinutes":60,"estimatedCostEur":5,"score":1.604505516227345},{"id":"djidja_6387","citySlug":"djidja","name":"Zona Comercial","category":"ocio","lat":7.352185471653673,"lng":1.9289882573287473,"avgVisitMinutes":36,"estimatedCostEur":3,"score":4.037420076024512},{"id":"djakotome_6639","citySlug":"djakotome","name":"Parque Central","category":"ocio","lat":6.89718083360496,"lng":1.7228294293690778,"avgVisitMinutes":46,"estimatedCostEur":19,"score":4.145369616680881},{"id":"djakotome_9774","citySlug":"djakotome","name":"Galería de Arte","category":"cultura","lat":6.9027869959164745,"lng":1.7081286809733078,"avgVisitMinutes":69,"estimatedCostEur":5,"score":1.6338597755924127},{"id":"djakotome_2063","citySlug":"djakotome","name":"Punto Panorámico","category":"mirador","lat":6.894124322758871,"lng":1.716929894153512,"avgVisitMinutes":27,"estimatedCostEur":1,"score":1.4497829091510477},{"id":"djakotome_6668","citySlug":"djakotome","name":"Mercado Gastronómico","category":"gastronomia","lat":6.8908271300114885,"lng":1.7074226891046214,"avgVisitMinutes":28,"estimatedCostEur":20,"score":1.726177535841004},{"id":"djakotome_3103","citySlug":"djakotome","name":"Vista Alta de Djakotomé","category":"mirador","lat":6.905780544352746,"lng":1.718565397494185,"avgVisitMinutes":88,"estimatedCostEur":12,"score":0.8473020360907595},{"id":"djakotome_4263","citySlug":"djakotome","name":"Murallas de Djakotomé","category":"historia","lat":6.897624195662876,"lng":1.71531720169483,"avgVisitMinutes":65,"estimatedCostEur":0,"score":3.6986064326190418},{"id":"djakotome_7297","citySlug":"djakotome","name":"Teatro Municipal","category":"cultura","lat":6.905244331589887,"lng":1.71837054356512,"avgVisitMinutes":65,"estimatedCostEur":25,"score":3.756381588926053},{"id":"djakotome_8312","citySlug":"djakotome","name":"Museo Local de Djakotomé","category":"historia","lat":6.902161135138055,"lng":1.7150216281745594,"avgVisitMinutes":86,"estimatedCostEur":8,"score":2.0471941435704366},{"id":"dassa-zoume_1728","citySlug":"dassa-zoume","name":"Parque Central","category":"ocio","lat":7.755385707094278,"lng":2.183165232202518,"avgVisitMinutes":35,"estimatedCostEur":5,"score":4.446980387217617},{"id":"dassa-zoume_6188","citySlug":"dassa-zoume","name":"Teatro Municipal","category":"cultura","lat":7.757095434592241,"lng":2.1762201587864465,"avgVisitMinutes":31,"estimatedCostEur":10,"score":2.923522331642334},{"id":"dassa-zoume_7142","citySlug":"dassa-zoume","name":"Ruta de Tapas","category":"gastronomia","lat":7.758572931684206,"lng":2.1824790531732576,"avgVisitMinutes":29,"estimatedCostEur":15,"score":4.7365876598940595},{"id":"dassa-zoume_8944","citySlug":"dassa-zoume","name":"Centro Histórico","category":"historia","lat":7.753333233311067,"lng":2.188495777931035,"avgVisitMinutes":84,"estimatedCostEur":18,"score":2.249301332674719},{"id":"dassa-zoume_6515","citySlug":"dassa-zoume","name":"Paseo Principal","category":"ocio","lat":7.740860807240518,"lng":2.1839677161589153,"avgVisitMinutes":25,"estimatedCostEur":5,"score":1.050992803309063},{"id":"dassa-zoume_5412","citySlug":"dassa-zoume","name":"Iglesia de Dassa-Zoumè","category":"historia","lat":7.743536038041432,"lng":2.182083916471881,"avgVisitMinutes":81,"estimatedCostEur":0,"score":1.4099344865170134},{"id":"dassa-zoume_8570","citySlug":"dassa-zoume","name":"Paseo Principal","category":"ocio","lat":7.745493722949428,"lng":2.1833332290332526,"avgVisitMinutes":32,"estimatedCostEur":19,"score":2.6017857554977417},{"id":"dassa-zoume_2083","citySlug":"dassa-zoume","name":"Punto Panorámico","category":"mirador","lat":7.7476327474025855,"lng":2.1831595967754236,"avgVisitMinutes":68,"estimatedCostEur":22,"score":0.6066410400225872},{"id":"dassa-zoume_7345","citySlug":"dassa-zoume","name":"Playa Norte","category":"playa","lat":7.741693742918726,"lng":2.175538406789557,"avgVisitMinutes":56,"estimatedCostEur":0,"score":1.366170562906928},{"id":"dassa-zoume_2110","citySlug":"dassa-zoume","name":"Iglesia de Dassa-Zoumè","category":"historia","lat":7.759252642082099,"lng":2.1736614386426316,"avgVisitMinutes":35,"estimatedCostEur":13,"score":3.8112374034853813},{"id":"dassa-zoume_1043","citySlug":"dassa-zoume","name":"Galería de Arte","category":"cultura","lat":7.753703878880507,"lng":2.190923545698388,"avgVisitMinutes":56,"estimatedCostEur":23,"score":4.537353153881001},{"id":"cove_2773","citySlug":"cove","name":"Parque Central","category":"ocio","lat":7.226184172220222,"lng":2.34775808490235,"avgVisitMinutes":49,"estimatedCostEur":19,"score":4.805639696509726},{"id":"cove_5790","citySlug":"cove","name":"Parque Central","category":"ocio","lat":7.214397263343249,"lng":2.33454316995128,"avgVisitMinutes":67,"estimatedCostEur":7,"score":1.535464687811539},{"id":"cove_7529","citySlug":"cove","name":"Mirador de Cové","category":"mirador","lat":7.217984174082846,"lng":2.3360857101835704,"avgVisitMinutes":38,"estimatedCostEur":10,"score":4.348284902542103},{"id":"cove_5715","citySlug":"cove","name":"Museo Cultural de Cové","category":"cultura","lat":7.22027889210562,"lng":2.3411125576270746,"avgVisitMinutes":47,"estimatedCostEur":14,"score":2.8436190192750184},{"id":"cove_3305","citySlug":"cove","name":"Centro de Arte de Cové","category":"cultura","lat":7.213945606355213,"lng":2.3346229624010655,"avgVisitMinutes":81,"estimatedCostEur":4,"score":0.8528977235714466},{"id":"cove_2896","citySlug":"cove","name":"Vista Alta de Cové","category":"mirador","lat":7.225362790864565,"lng":2.3449252362411834,"avgVisitMinutes":22,"estimatedCostEur":10,"score":0.6723278348381716},{"id":"cove_2280","citySlug":"cove","name":"Museo Local de Cové","category":"historia","lat":7.224715470206604,"lng":2.3418107075594556,"avgVisitMinutes":58,"estimatedCostEur":6,"score":2.803849814812986},{"id":"cove_5914","citySlug":"cove","name":"Zona Comercial","category":"ocio","lat":7.218298834314069,"lng":2.344069488088527,"avgVisitMinutes":39,"estimatedCostEur":5,"score":4.5334189410489865},{"id":"kopargo_3580","citySlug":"kopargo","name":"Playa Sur","category":"playa","lat":9.849589170934395,"lng":1.5514630773641704,"avgVisitMinutes":28,"estimatedCostEur":16,"score":1.725820308595643},{"id":"kopargo_1728","citySlug":"kopargo","name":"Playa Norte","category":"playa","lat":9.8408260312253,"lng":1.540509518117742,"avgVisitMinutes":69,"estimatedCostEur":6,"score":1.1836576131410719},{"id":"kopargo_5295","citySlug":"kopargo","name":"Playa Norte","category":"playa","lat":9.850597263853183,"lng":1.5488030226924627,"avgVisitMinutes":35,"estimatedCostEur":18,"score":4.690381234968728},{"id":"kopargo_2636","citySlug":"kopargo","name":"Centro Histórico","category":"historia","lat":9.849117651554662,"lng":1.5395539272787624,"avgVisitMinutes":78,"estimatedCostEur":13,"score":2.6828436639342725},{"id":"kopargo_9111","citySlug":"kopargo","name":"Punto Panorámico","category":"mirador","lat":9.839899245342751,"lng":1.5349349832177455,"avgVisitMinutes":71,"estimatedCostEur":20,"score":3.2107737012171165},{"id":"kopargo_8641","citySlug":"kopargo","name":"Playa Norte","category":"playa","lat":9.834278714577541,"lng":1.550643377925314,"avgVisitMinutes":46,"estimatedCostEur":2,"score":3.4752807585557326},{"id":"kopargo_8583","citySlug":"kopargo","name":"Mirador de Kopargo","category":"mirador","lat":9.831265354303051,"lng":1.551253351898472,"avgVisitMinutes":50,"estimatedCostEur":16,"score":2.9306056548666235},{"id":"kopargo_7284","citySlug":"kopargo","name":"Mirador de Kopargo","category":"mirador","lat":9.844863424847802,"lng":1.532730908987259,"avgVisitMinutes":79,"estimatedCostEur":21,"score":0.6038843060648837},{"id":"kopargo_5762","citySlug":"kopargo","name":"Museo Cultural de Kopargo","category":"cultura","lat":9.845329971778847,"lng":1.534941756897471,"avgVisitMinutes":31,"estimatedCostEur":25,"score":1.8989152774976188},{"id":"come_7708","citySlug":"come","name":"Playa Central","category":"playa","lat":6.404783670372687,"lng":1.8727932142276116,"avgVisitMinutes":78,"estimatedCostEur":8,"score":3.9349297745898877},{"id":"come_3309","citySlug":"come","name":"Murallas de Comé","category":"historia","lat":6.4171177158756505,"lng":1.8878930021317188,"avgVisitMinutes":53,"estimatedCostEur":14,"score":4.1414169218539225},{"id":"come_1162","citySlug":"come","name":"Mirador de Comé","category":"mirador","lat":6.405265966006054,"lng":1.8819768497811025,"avgVisitMinutes":35,"estimatedCostEur":20,"score":4.120564095141694},{"id":"come_5896","citySlug":"come","name":"Zona Comercial","category":"ocio","lat":6.412789349967593,"lng":1.8897610430392753,"avgVisitMinutes":25,"estimatedCostEur":18,"score":4.337931334043693},{"id":"come_6233","citySlug":"come","name":"Parque Central","category":"ocio","lat":6.415798323112865,"lng":1.882162158760224,"avgVisitMinutes":36,"estimatedCostEur":22,"score":2.9027754423021537},{"id":"come_7283","citySlug":"come","name":"Zona Comercial","category":"ocio","lat":6.4158870572574305,"lng":1.8878099988182835,"avgVisitMinutes":77,"estimatedCostEur":3,"score":0.8025878652081082},{"id":"come_7812","citySlug":"come","name":"Punto Panorámico","category":"mirador","lat":6.409835471872866,"lng":1.8835629627728223,"avgVisitMinutes":67,"estimatedCostEur":9,"score":3.3131422577860894},{"id":"come_3399","citySlug":"come","name":"Ruta de Tapas","category":"gastronomia","lat":6.399057574163365,"lng":1.8730147106312405,"avgVisitMinutes":61,"estimatedCostEur":8,"score":4.09129382798364},{"id":"come_2874","citySlug":"come","name":"Paseo Principal","category":"ocio","lat":6.41050897119921,"lng":1.8760066688307153,"avgVisitMinutes":85,"estimatedCostEur":18,"score":3.637825148762802},{"id":"boukoumbe_7695","citySlug":"boukoumbe","name":"Punto Panorámico","category":"mirador","lat":10.178303108884847,"lng":1.0985633708344524,"avgVisitMinutes":84,"estimatedCostEur":11,"score":0.5411602907171932},{"id":"boukoumbe_3977","citySlug":"boukoumbe","name":"Museo Cultural de Boukoumbé","category":"cultura","lat":10.18678274732081,"lng":1.1069001013413284,"avgVisitMinutes":41,"estimatedCostEur":18,"score":4.031964241904143},{"id":"boukoumbe_9447","citySlug":"boukoumbe","name":"Teatro Municipal","category":"cultura","lat":10.168567835791059,"lng":1.0985804642599466,"avgVisitMinutes":71,"estimatedCostEur":8,"score":1.8727072322330989},{"id":"boukoumbe_6550","citySlug":"boukoumbe","name":"Parque Central","category":"ocio","lat":10.17774026374348,"lng":1.1087569124591499,"avgVisitMinutes":75,"estimatedCostEur":14,"score":2.581089617544869},{"id":"boukoumbe_3472","citySlug":"boukoumbe","name":"Mirador de Boukoumbé","category":"mirador","lat":10.183020888458143,"lng":1.1106715182871736,"avgVisitMinutes":85,"estimatedCostEur":7,"score":3.5517016466841254},{"id":"boukoumbe_2034","citySlug":"boukoumbe","name":"Parque Central","category":"ocio","lat":10.168920393483429,"lng":1.0993255543482252,"avgVisitMinutes":83,"estimatedCostEur":5,"score":1.3798269698800012},{"id":"boukoumbe_6795","citySlug":"boukoumbe","name":"Centro Histórico","category":"historia","lat":10.172002169831623,"lng":1.103186753562985,"avgVisitMinutes":23,"estimatedCostEur":8,"score":4.2187916172156585},{"id":"bohicon_8945","citySlug":"bohicon","name":"Ruta de Tapas","category":"gastronomia","lat":7.185941563497747,"lng":2.0570201262052192,"avgVisitMinutes":80,"estimatedCostEur":8,"score":3.373556555743693},{"id":"bohicon_4612","citySlug":"bohicon","name":"Punto Panorámico","category":"mirador","lat":7.179934301710124,"lng":2.0602059298632045,"avgVisitMinutes":53,"estimatedCostEur":2,"score":3.4044544384122286},{"id":"bohicon_4974","citySlug":"bohicon","name":"Restaurante Típico de Bohicon","category":"gastronomia","lat":7.1820309529610835,"lng":2.071778075771029,"avgVisitMinutes":47,"estimatedCostEur":9,"score":2.886000989455205},{"id":"bohicon_2889","citySlug":"bohicon","name":"Iglesia de Bohicon","category":"historia","lat":7.1865983474995145,"lng":2.060274658211997,"avgVisitMinutes":23,"estimatedCostEur":23,"score":1.7090520750184977},{"id":"bohicon_2181","citySlug":"bohicon","name":"Zona Comercial","category":"ocio","lat":7.1821780609283215,"lng":2.0716222672900253,"avgVisitMinutes":52,"estimatedCostEur":11,"score":3.116041060264984},{"id":"bohicon_5677","citySlug":"bohicon","name":"Playa Central","category":"playa","lat":7.178495290164676,"lng":2.0684042046861535,"avgVisitMinutes":50,"estimatedCostEur":8,"score":2.5890212962572936},{"id":"bohicon_6304","citySlug":"bohicon","name":"Mirador de Bohicon","category":"mirador","lat":7.17894922116764,"lng":2.0660266453511893,"avgVisitMinutes":86,"estimatedCostEur":13,"score":2.4451729338442645},{"id":"bohicon_9703","citySlug":"bohicon","name":"Castillo de Bohicon","category":"historia","lat":7.184055356553704,"lng":2.0640841223643953,"avgVisitMinutes":42,"estimatedCostEur":1,"score":1.5474224900996678},{"id":"bohicon_8639","citySlug":"bohicon","name":"Paseo Principal","category":"ocio","lat":7.176198657821951,"lng":2.0694353428975982,"avgVisitMinutes":48,"estimatedCostEur":21,"score":4.483403060027733},{"id":"bohicon_6804","citySlug":"bohicon","name":"Playa Sur","category":"playa","lat":7.18398606812259,"lng":2.066049555439802,"avgVisitMinutes":50,"estimatedCostEur":9,"score":3.8545101594549376},{"id":"bohicon_6996","citySlug":"bohicon","name":"Museo Local de Bohicon","category":"historia","lat":7.175192602183535,"lng":2.0708122001868507,"avgVisitMinutes":39,"estimatedCostEur":14,"score":4.6124197752977345},{"id":"bohicon_1641","citySlug":"bohicon","name":"Playa Central","category":"playa","lat":7.17076332093828,"lng":2.0645644220754127,"avgVisitMinutes":80,"estimatedCostEur":13,"score":0.5184052444897636},{"id":"beterou_3059","citySlug":"beterou","name":"Mirador de Bétérou","category":"mirador","lat":9.19803891122831,"lng":2.267347079566759,"avgVisitMinutes":76,"estimatedCostEur":18,"score":1.9145296583077143},{"id":"beterou_8612","citySlug":"beterou","name":"Playa Central","category":"playa","lat":9.206563637940333,"lng":2.261208245704225,"avgVisitMinutes":89,"estimatedCostEur":5,"score":4.475360901605835},{"id":"beterou_1488","citySlug":"beterou","name":"Playa Central","category":"playa","lat":9.199602914662837,"lng":2.261373969949956,"avgVisitMinutes":69,"estimatedCostEur":15,"score":0.9512390957041448},{"id":"beterou_1658","citySlug":"beterou","name":"Galería de Arte","category":"cultura","lat":9.192728172093735,"lng":2.255558134913201,"avgVisitMinutes":86,"estimatedCostEur":13,"score":3.757382589296469},{"id":"beterou_2598","citySlug":"beterou","name":"Galería de Arte","category":"cultura","lat":9.206005957530715,"lng":2.2638735732238677,"avgVisitMinutes":71,"estimatedCostEur":20,"score":0.7104057592174269},{"id":"beterou_6168","citySlug":"beterou","name":"Punto Panorámico","category":"mirador","lat":9.190894229414631,"lng":2.25457318556863,"avgVisitMinutes":41,"estimatedCostEur":24,"score":3.0927880080741037},{"id":"beterou_1403","citySlug":"beterou","name":"Punto Panorámico","category":"mirador","lat":9.202294466283318,"lng":2.2507867469142666,"avgVisitMinutes":68,"estimatedCostEur":12,"score":2.700744607698049},{"id":"beterou_3314","citySlug":"beterou","name":"Mercado Gastronómico","category":"gastronomia","lat":9.195013854778189,"lng":2.2663033526462644,"avgVisitMinutes":86,"estimatedCostEur":8,"score":1.2811317259610795},{"id":"beterou_7972","citySlug":"beterou","name":"Punto Panorámico","category":"mirador","lat":9.201335337400499,"lng":2.2494909065673285,"avgVisitMinutes":50,"estimatedCostEur":14,"score":2.5925588894460243},{"id":"beterou_4085","citySlug":"beterou","name":"Museo Local de Bétérou","category":"historia","lat":9.195586586720244,"lng":2.267075875655288,"avgVisitMinutes":23,"estimatedCostEur":23,"score":4.802660406483709},{"id":"bembereke_9536","citySlug":"bembereke","name":"Restaurante Típico de Bembèrèkè","category":"gastronomia","lat":10.220060370502178,"lng":2.6723213994363118,"avgVisitMinutes":31,"estimatedCostEur":8,"score":0.7345121629669407},{"id":"bembereke_6640","citySlug":"bembereke","name":"Centro Histórico","category":"historia","lat":10.220828102904283,"lng":2.660051390516861,"avgVisitMinutes":84,"estimatedCostEur":1,"score":0.8814030991980178},{"id":"bembereke_2487","citySlug":"bembereke","name":"Museo Local de Bembèrèkè","category":"historia","lat":10.224065956667495,"lng":2.6533744767351526,"avgVisitMinutes":69,"estimatedCostEur":23,"score":4.586660728607406},{"id":"bembereke_3207","citySlug":"bembereke","name":"Restaurante Típico de Bembèrèkè","category":"gastronomia","lat":10.222156388757284,"lng":2.6728033468889976,"avgVisitMinutes":35,"estimatedCostEur":16,"score":3.9431177556583004},{"id":"bembereke_2083","citySlug":"bembereke","name":"Castillo de Bembèrèkè","category":"historia","lat":10.22286189144086,"lng":2.668308162112992,"avgVisitMinutes":66,"estimatedCostEur":19,"score":4.697177829864295},{"id":"bembereke_3282","citySlug":"bembereke","name":"Castillo de Bembèrèkè","category":"historia","lat":10.230559801052003,"lng":2.661541997089826,"avgVisitMinutes":83,"estimatedCostEur":18,"score":4.503963384780381},{"id":"bembereke_6508","citySlug":"bembereke","name":"Mirador de Bembèrèkè","category":"mirador","lat":10.234796172264694,"lng":2.669174826587478,"avgVisitMinutes":59,"estimatedCostEur":6,"score":1.4850422391096585},{"id":"bembereke_9596","citySlug":"bembereke","name":"Playa Norte","category":"playa","lat":10.220690975384713,"lng":2.6673421287062786,"avgVisitMinutes":57,"estimatedCostEur":17,"score":0.8489797860819878},{"id":"bembereke_7860","citySlug":"bembereke","name":"Zona Comercial","category":"ocio","lat":10.219976288800636,"lng":2.662445876139978,"avgVisitMinutes":42,"estimatedCostEur":7,"score":2.2783235864886184},{"id":"bassila_4221","citySlug":"bassila","name":"Vista Alta de Bassila","category":"mirador","lat":9.016869745010505,"lng":1.6670268043621548,"avgVisitMinutes":62,"estimatedCostEur":18,"score":2.190987602082301},