{"country":"CA","pois":[{"id":"100-mile-house_9824","citySlug":"100-mile-house","name":"Iglesia de 100 Mile House","category":"historia","lat":51.646667982362416,"lng":-121.29128621544842,"avgVisitMinutes":87,"estimatedCostEur":2,"score":1.574548030179507},{"id":"100-mile-house_6474","citySlug":"100-mile-house","name":"Vista Alta de 100 Mile House","category":"mirador","lat":51.653581245664896,"lng":-121.280641207967,"avgVisitMinutes":50,"estimatedCostEur":3,"score":1.773127740447061},{"id":"100-mile-house_2556","citySlug":"100-mile-house","name":"Paseo Principal","category":"ocio","lat":51.64846280526374,"lng":-121.29016379082407,"avgVisitMinutes":50,"estimatedCostEur":5,"score":0.7646089022193715},{"id":"100-mile-house_2714","citySlug":"100-mile-house","name":"Museo Cultural de 100 Mile House","category":"cultura","lat":51.64041990397322,"lng":-121.28042081134562,"avgVisitMinutes":20,"estimatedCostEur":11,"score":0.8296823965203997},{"id":"100-mile-house_4778","citySlug":"100-mile-house","name":"Castillo de 100 Mile House","category":"historia","lat":51.64388466971597,"lng":-121.294916851275,"avgVisitMinutes":23,"estimatedCostEur":4,"score":2.5999554971689274},{"id":"100-mile-house_1529","citySlug":"100-mile-house","name":"Centro Histórico","category":"historia","lat":51.64209937951094,"lng":-121.28888618922787,"avgVisitMinutes":76,"estimatedCostEur":17,"score":3.629380076954608},{"id":"100-mile-house_2768","citySlug":"100-mile-house","name":"Zona Comercial","category":"ocio","lat":51.64480349926545,"lng":-121.27971930419831,"avgVisitMinutes":86,"estimatedCostEur":18,"score":3.448996316247492},{"id":"fort-st-james_2190","citySlug":"fort-st-james","name":"Centro de Arte de Fort St. James","category":"cultura","lat":54.45860419663537,"lng":-124.25751534970368,"avgVisitMinutes":43,"estimatedCostEur":13,"score":4.223646968918466},{"id":"fort-st-james_9037","citySlug":"fort-st-james","name":"Vista Alta de Fort St. James","category":"mirador","lat":54.45240594084782,"lng":-124.27194189006724,"avgVisitMinutes":39,"estimatedCostEur":23,"score":3.111333968953023},{"id":"fort-st-james_4270","citySlug":"fort-st-james","name":"Teatro Municipal","category":"cultura","lat":54.453599715073615,"lng":-124.26066558580663,"avgVisitMinutes":71,"estimatedCostEur":15,"score":3.928468596224862},{"id":"fort-st-james_6198","citySlug":"fort-st-james","name":"Murallas de Fort St. James","category":"historia","lat":54.458788341798936,"lng":-124.260690134348,"avgVisitMinutes":57,"estimatedCostEur":17,"score":3.533296686106156},{"id":"fort-st-james_7217","citySlug":"fort-st-james","name":"Centro de Arte de Fort St. James","category":"cultura","lat":54.4591955317499,"lng":-124.2633181362542,"avgVisitMinutes":29,"estimatedCostEur":9,"score":3.5754212152778937},{"id":"fort-st-james_5106","citySlug":"fort-st-james","name":"Murallas de Fort St. James","category":"historia","lat":54.456750468202195,"lng":-124.26824262187833,"avgVisitMinutes":73,"estimatedCostEur":3,"score":0.6738072401829986},{"id":"fort-st-james_7276","citySlug":"fort-st-james","name":"Playa Sur","category":"playa","lat":54.454445570465865,"lng":-124.262316795515,"avgVisitMinutes":88,"estimatedCostEur":10,"score":2.8661929082169006},{"id":"fort-st-james_1029","citySlug":"fort-st-james","name":"Teatro Municipal","category":"cultura","lat":54.44747973087561,"lng":-124.26601906578229,"avgVisitMinutes":63,"estimatedCostEur":23,"score":4.296910943546484},{"id":"fort-st-james_1746","citySlug":"fort-st-james","name":"Castillo de Fort St. James","category":"historia","lat":54.45621691264128,"lng":-124.25317817904288,"avgVisitMinutes":27,"estimatedCostEur":17,"score":3.103608795792042},{"id":"fort-st-james_9926","citySlug":"fort-st-james","name":"Playa Sur","category":"playa","lat":54.464502459539986,"lng":-124.27056737384139,"avgVisitMinutes":47,"estimatedCostEur":17,"score":2.1746115183975108},{"id":"fort-st-james_2562","citySlug":"fort-st-james","name":"Mirador de Fort St. James","category":"mirador","lat":54.45926273804875,"lng":-124.26554143786635,"avgVisitMinutes":87,"estimatedCostEur":2,"score":4.771695801346956},{"id":"abbotsford_3871","citySlug":"abbotsford","name":"Zona Comercial","category":"ocio","lat":49.0672342442555,"lng":-122.25465875681913,"avgVisitMinutes":69,"estimatedCostEur":20,"score":3.8733375891266713},{"id":"abbotsford_6225","citySlug":"abbotsford","name":"Playa Sur","category":"playa","lat":49.06468890019578,"lng":-122.25595078378659,"avgVisitMinutes":51,"estimatedCostEur":22,"score":3.654547058852137},{"id":"abbotsford_2078","citySlug":"abbotsford","name":"Vista Alta de Abbotsford","category":"mirador","lat":49.06144156169487,"lng":-122.25797211038105,"avgVisitMinutes":52,"estimatedCostEur":20,"score":3.157121618552819},{"id":"abbotsford_9003","citySlug":"abbotsford","name":"Mercado Gastronómico","category":"gastronomia","lat":49.05224464900414,"lng":-122.25476794385575,"avgVisitMinutes":84,"estimatedCostEur":18,"score":4.217589383527762},{"id":"abbotsford_9599","citySlug":"abbotsford","name":"Galería de Arte","category":"cultura","lat":49.064126094970916,"lng":-122.25802709664416,"avgVisitMinutes":68,"estimatedCostEur":21,"score":2.9452770381419744},{"id":"abbotsford_6930","citySlug":"abbotsford","name":"Castillo de Abbotsford","category":"historia","lat":49.056257352943454,"lng":-122.26029805294397,"avgVisitMinutes":21,"estimatedCostEur":9,"score":2.8629582321443876},{"id":"abbotsford_3369","citySlug":"abbotsford","name":"Teatro Municipal","category":"cultura","lat":49.06723873903204,"lng":-122.24508189504508,"avgVisitMinutes":72,"estimatedCostEur":1,"score":4.127399988412472},{"id":"abbotsford_6688","citySlug":"abbotsford","name":"Restaurante Típico de Abbotsford","category":"gastronomia","lat":49.06322730860744,"lng":-122.2543470051108,"avgVisitMinutes":90,"estimatedCostEur":3,"score":4.3986349760516354},{"id":"abbotsford_1623","citySlug":"abbotsford","name":"Ruta de Tapas","category":"gastronomia","lat":49.05617788510205,"lng":-122.25423149655144,"avgVisitMinutes":35,"estimatedCostEur":9,"score":4.090246242644566},{"id":"abram-village_2842","citySlug":"abram-village","name":"Playa Central","category":"playa","lat":46.44222730733763,"lng":-64.07541003358395,"avgVisitMinutes":83,"estimatedCostEur":22,"score":1.9134300140310483},{"id":"abram-village_8065","citySlug":"abram-village","name":"Restaurante Típico de Abram-Village","category":"gastronomia","lat":46.44449240335812,"lng":-64.0773670890998,"avgVisitMinutes":69,"estimatedCostEur":2,"score":1.2008042143380349},{"id":"abram-village_8438","citySlug":"abram-village","name":"Museo Cultural de Abram-Village","category":"cultura","lat":46.4472403557031,"lng":-64.07574870063382,"avgVisitMinutes":65,"estimatedCostEur":15,"score":2.809433725178602},{"id":"abram-village_3741","citySlug":"abram-village","name":"Parque Central","category":"ocio","lat":46.45640727693386,"lng":-64.07546501238332,"avgVisitMinutes":87,"estimatedCostEur":25,"score":1.7194895471357503},{"id":"abram-village_5352","citySlug":"abram-village","name":"Galería de Arte","category":"cultura","lat":46.45201506182208,"lng":-64.09034300390282,"avgVisitMinutes":82,"estimatedCostEur":13,"score":4.738872092576764},{"id":"acton_9252","citySlug":"acton","name":"Galería de Arte","category":"cultura","lat":43.63396985392844,"lng":-80.04599528476264,"avgVisitMinutes":88,"estimatedCostEur":23,"score":4.220424360935623},{"id":"acton_1713","citySlug":"acton","name":"Mirador de Acton","category":"mirador","lat":43.6331982571944,"lng":-80.03564367682932,"avgVisitMinutes":27,"estimatedCostEur":12,"score":4.584544010349976},{"id":"acton_9834","citySlug":"acton","name":"Museo Cultural de Acton","category":"cultura","lat":43.633935047502376,"lng":-80.05026289433212,"avgVisitMinutes":63,"estimatedCostEur":9,"score":2.6144358940690173},{"id":"acton_3905","citySlug":"acton","name":"Museo Cultural de Acton","category":"cultura","lat":43.63105266419014,"lng":-80.03672112938195,"avgVisitMinutes":26,"estimatedCostEur":21,"score":2.8250295505766894},{"id":"acton_5883","citySlug":"acton","name":"Zona Comercial","category":"ocio","lat":43.62956172264908,"lng":-80.03936763523328,"avgVisitMinutes":54,"estimatedCostEur":2,"score":3.1184546061638767},{"id":"acton_2168","citySlug":"acton","name":"Museo Cultural de Acton","category":"cultura","lat":43.62182616437514,"lng":-80.03668912312611,"avgVisitMinutes":75,"estimatedCostEur":3,"score":4.855421915008843},{"id":"acton_4647","citySlug":"acton","name":"Playa Central","category":"playa","lat":43.637985736201564,"lng":-80.03527743869783,"avgVisitMinutes":39,"estimatedCostEur":4,"score":0.8066283195447599},{"id":"acton_3333","citySlug":"acton","name":"Centro de Arte de Acton","category":"cultura","lat":43.63564582224146,"lng":-80.0459927698615,"avgVisitMinutes":55,"estimatedCostEur":14,"score":1.2316730475627282},{"id":"acton_6598","citySlug":"acton","name":"Vista Alta de Acton","category":"mirador","lat":43.62931538794319,"lng":-80.03623921216149,"avgVisitMinutes":37,"estimatedCostEur":15,"score":0.9452273242996558},{"id":"acton_9862","citySlug":"acton","name":"Restaurante Típico de Acton","category":"gastronomia","lat":43.621893588054796,"lng":-80.03951998994042,"avgVisitMinutes":54,"estimatedCostEur":23,"score":2.5175059416919474},{"id":"acton-vale_2629","citySlug":"acton-vale","name":"Castillo de Acton Vale","category":"historia","lat":45.65930319405724,"lng":-72.55831226781707,"avgVisitMinutes":21,"estimatedCostEur":7,"score":2.2557918741979748},{"id":"acton-vale_4488","citySlug":"acton-vale","name":"Parque Central","category":"ocio","lat":45.65114319432512,"lng":-72.56508488019803,"avgVisitMinutes":35,"estimatedCostEur":2,"score":3.3729531526818284},{"id":"acton-vale_5993","citySlug":"acton-vale","name":"Zona Comercial","category":"ocio","lat":45.656232641902,"lng":-72.55926855760858,"avgVisitMinutes":35,"estimatedCostEur":19,"score":2.7214869924211866},{"id":"acton-vale_4974","citySlug":"acton-vale","name":"Paseo Principal","category":"ocio","lat":45.640149704926614,"lng":-72.56737332421487,"avgVisitMinutes":36,"estimatedCostEur":11,"score":3.4387483275808215},{"id":"acton-vale_3339","citySlug":"acton-vale","name":"Mercado Gastronómico","category":"gastronomia","lat":45.65776029951454,"lng":-72.56691837428811,"avgVisitMinutes":73,"estimatedCostEur":23,"score":1.3538762827821584},{"id":"acton-vale_1310","citySlug":"acton-vale","name":"Museo Cultural de Acton Vale","category":"cultura","lat":45.65455705240903,"lng":-72.57433590798775,"avgVisitMinutes":47,"estimatedCostEur":0,"score":4.710539941879804},{"id":"acton-vale_8567","citySlug":"acton-vale","name":"Vista Alta de Acton Vale","category":"mirador","lat":45.640730752011144,"lng":-72.55816375188168,"avgVisitMinutes":71,"estimatedCostEur":9,"score":1.8609087047251953},{"id":"acton-vale_8206","citySlug":"acton-vale","name":"Centro de Arte de Acton Vale","category":"cultura","lat":45.64211169897712,"lng":-72.55994026913189,"avgVisitMinutes":46,"estimatedCostEur":17,"score":3.729876046169234},{"id":"acton-vale_1955","citySlug":"acton-vale","name":"Museo Cultural de Acton Vale","category":"cultura","lat":45.65472827793809,"lng":-72.56407608210581,"avgVisitMinutes":60,"estimatedCostEur":7,"score":1.0481107887560626},{"id":"acton-vale_2833","citySlug":"acton-vale","name":"Castillo de Acton Vale","category":"historia","lat":45.64232862811142,"lng":-72.57146694228088,"avgVisitMinutes":76,"estimatedCostEur":23,"score":4.871900724429688},{"id":"adeytown_7779","citySlug":"adeytown","name":"Restaurante Típico de Adeytown","category":"gastronomia","lat":48.0644605898798,"lng":-53.92894246721633,"avgVisitMinutes":71,"estimatedCostEur":2,"score":2.317836505999624},{"id":"adeytown_6046","citySlug":"adeytown","name":"Mercado Gastronómico","category":"gastronomia","lat":48.071414412857585,"lng":-53.94078701167798,"avgVisitMinutes":82,"estimatedCostEur":15,"score":4.962901513395532},{"id":"adeytown_9766","citySlug":"adeytown","name":"Parque Central","category":"ocio","lat":48.07577529007365,"lng":-53.94117154795334,"avgVisitMinutes":76,"estimatedCostEur":14,"score":1.9381589834729396},{"id":"adeytown_8907","citySlug":"adeytown","name":"Castillo de Adeytown","category":"historia","lat":48.07065638832709,"lng":-53.93391710183458,"avgVisitMinutes":24,"estimatedCostEur":25,"score":4.659736611171091},{"id":"adeytown_5345","citySlug":"adeytown","name":"Galería de Arte","category":"cultura","lat":48.07002926196155,"lng":-53.925797644132686,"avgVisitMinutes":33,"estimatedCostEur":11,"score":2.5818714096788686},{"id":"adstock_6836","citySlug":"adstock","name":"Zona Comercial","category":"ocio","lat":46.04595418524257,"lng":-71.08795522780629,"avgVisitMinutes":77,"estimatedCostEur":24,"score":2.867459105937281},{"id":"adstock_1571","citySlug":"adstock","name":"Iglesia de Adstock","category":"historia","lat":46.04534626937566,"lng":-71.07614596736683,"avgVisitMinutes":54,"estimatedCostEur":5,"score":2.7686357149298524},{"id":"adstock_3390","citySlug":"adstock","name":"Restaurante Típico de Adstock","category":"gastronomia","lat":46.05508912715184,"lng":-71.08380665848297,"avgVisitMinutes":65,"estimatedCostEur":22,"score":1.3725400260290037},{"id":"adstock_5396","citySlug":"adstock","name":"Teatro Municipal","category":"cultura","lat":46.04406301741469,"lng":-71.07971256691955,"avgVisitMinutes":89,"estimatedCostEur":8,"score":1.8293393800596238},{"id":"adstock_6937","citySlug":"adstock","name":"Punto Panorámico","category":"mirador","lat":46.05526650940139,"lng":-71.0892773908358,"avgVisitMinutes":89,"estimatedCostEur":15,"score":1.7184352932947062},{"id":"advocate-harbour_5047","citySlug":"advocate-harbour","name":"Zona Comercial","category":"ocio","lat":45.33267869931752,"lng":-64.78126684416675,"avgVisitMinutes":53,"estimatedCostEur":15,"score":2.2838821328054584},{"id":"advocate-harbour_4946","citySlug":"advocate-harbour","name":"Castillo de Advocate Harbour","category":"historia","lat":45.328610756557154,"lng":-64.77394929642867,"avgVisitMinutes":85,"estimatedCostEur":9,"score":2.777301114289365},{"id":"advocate-harbour_7557","citySlug":"advocate-harbour","name":"Restaurante Típico de Advocate Harbour","category":"gastronomia","lat":45.336637253382705,"lng":-64.77549452238566,"avgVisitMinutes":88,"estimatedCostEur":15,"score":3.2907609846423753},{"id":"advocate-harbour_6508","citySlug":"advocate-harbour","name":"Mirador de Advocate Harbour","category":"mirador","lat":45.34253897900367,"lng":-64.78280781738573,"avgVisitMinutes":25,"estimatedCostEur":25,"score":0.618175648152445},{"id":"advocate-harbour_1520","citySlug":"advocate-harbour","name":"Centro de Arte de Advocate Harbour","category":"cultura","lat":45.34316238751064,"lng":-64.78411815511754,"avgVisitMinutes":27,"estimatedCostEur":9,"score":1.0204189525610285},{"id":"advocate-harbour_4162","citySlug":"advocate-harbour","name":"Mirador de Advocate Harbour","category":"mirador","lat":45.34172045165744,"lng":-64.77998890005932,"avgVisitMinutes":81,"estimatedCostEur":23,"score":0.6871957860518494},{"id":"advocate-harbour_8767","citySlug":"advocate-harbour","name":"Galería de Arte","category":"cultura","lat":45.32677212396166,"lng":-64.77373001506614,"avgVisitMinutes":22,"estimatedCostEur":25,"score":1.0662501729791791},{"id":"advocate-harbour_5924","citySlug":"advocate-harbour","name":"Restaurante Típico de Advocate Harbour","category":"gastronomia","lat":45.34138433522751,"lng":-64.7816054460935,"avgVisitMinutes":73,"estimatedCostEur":14,"score":4.526566967132727},{"id":"advocate-harbour_9108","citySlug":"advocate-harbour","name":"Ruta de Tapas","category":"gastronomia","lat":45.33481952895013,"lng":-64.77196052341404,"avgVisitMinutes":78,"estimatedCostEur":3,"score":2.965628434734073},{"id":"agassiz_6713","citySlug":"agassiz","name":"Restaurante Típico de Agassiz","category":"gastronomia","lat":49.22607044052245,"lng":-121.77732342932866,"avgVisitMinutes":41,"estimatedCostEur":7,"score":3.546348756856167},{"id":"agassiz_9664","citySlug":"agassiz","name":"Vista Alta de Agassiz","category":"mirador","lat":49.234401282688445,"lng":-121.77301841169846,"avgVisitMinutes":49,"estimatedCostEur":7,"score":0.7103819569833583},{"id":"agassiz_7217","citySlug":"agassiz","name":"Punto Panorámico","category":"mirador","lat":49.234151098168304,"lng":-121.77225934945257,"avgVisitMinutes":37,"estimatedCostEur":4,"score":4.073166566710358},{"id":"agassiz_1895","citySlug":"agassiz","name":"Playa Central","category":"playa","lat":49.22400195610716,"lng":-121.76175171576435,"avgVisitMinutes":56,"estimatedCostEur":25,"score":2.74720296259682},{"id":"agassiz_2424","citySlug":"agassiz","name":"Iglesia de Agassiz","category":"historia","lat":49.23521484064567,"lng":-121.76294035686661,"avgVisitMinutes":43,"estimatedCostEur":3,"score":4.305279606481596},{"id":"aguanish_3091","citySlug":"aguanish","name":"Vista Alta de Aguanish","category":"mirador","lat":50.21592621122237,"lng":-62.08930989927645,"avgVisitMinutes":74,"estimatedCostEur":5,"score":0.5939704118256792},{"id":"aguanish_1985","citySlug":"aguanish","name":"Ruta de Tapas","category":"gastronomia","lat":50.22641525550918,"lng":-62.08116530817251,"avgVisitMinutes":39,"estimatedCostEur":17,"score":0.7175315583443638},{"id":"aguanish_5354","citySlug":"aguanish","name":"Parque Central","category":"ocio","lat":50.21758627992653,"lng":-62.071891551438036,"avgVisitMinutes":23,"estimatedCostEur":24,"score":4.812917307968456},{"id":"aguanish_7486","citySlug":"aguanish","name":"Zona Comercial","category":"ocio","lat":50.21461758660219,"lng":-62.08516383400734,"avgVisitMinutes":38,"estimatedCostEur":20,"score":2.058974880482151},{"id":"aguanish_7549","citySlug":"aguanish","name":"Museo Cultural de Aguanish","category":"cultura","lat":50.221745840598565,"lng":-62.075858229845466,"avgVisitMinutes":56,"estimatedCostEur":12,"score":4.953821429266757},{"id":"aguanish_9367","citySlug":"aguanish","name":"Ruta de Tapas","category":"gastronomia","lat":50.21744062421276,"lng":-62.08068799372073,"avgVisitMinutes":60,"estimatedCostEur":10,"score":0.6171996247050009},{"id":"aguanish_8376","citySlug":"aguanish","name":"Playa Sur","category":"playa","lat":50.22384217466092,"lng":-62.081468694731136,"avgVisitMinutes":90,"estimatedCostEur":2,"score":3.8070171720171797},{"id":"aguanish_8636","citySlug":"aguanish","name":"Teatro Municipal","category":"cultura","lat":50.22544403820369,"lng":-62.079209765619474,"avgVisitMinutes":29,"estimatedCostEur":24,"score":4.080933903048885},{"id":"aguanish_6082","citySlug":"aguanish","name":"Centro de Arte de Aguanish","category":"cultura","lat":50.207856044260254,"lng":-62.07545813447479,"avgVisitMinutes":36,"estimatedCostEur":4,"score":0.6373159490310956},{"id":"aguanish_2506","citySlug":"aguanish","name":"Restaurante Típico de Aguanish","category":"gastronomia","lat":50.22330963829337,"lng":-62.08065390527838,"avgVisitMinutes":72,"estimatedCostEur":16,"score":3.315525356545688},{"id":"aguanish_8710","citySlug":"aguanish","name":"Parque Central","category":"ocio","lat":50.2075891676817,"lng":-62.07743817021545,"avgVisitMinutes":76,"estimatedCostEur":12,"score":4.936901958860147},{"id":"aguanish_8927","citySlug":"aguanish","name":"Castillo de Aguanish","category":"historia","lat":50.217466078276104,"lng":-62.08806693244377,"avgVisitMinutes":68,"estimatedCostEur":0,"score":3.7563810333745287},{"id":"airdrie_9501","citySlug":"airdrie","name":"Paseo Principal","category":"ocio","lat":51.29674030049584,"lng":-114.03925164202785,"avgVisitMinutes":73,"estimatedCostEur":24,"score":3.1202589109719057},{"id":"airdrie_8554","citySlug":"airdrie","name":"Ruta de Tapas","category":"gastronomia","lat":51.30940984405536,"lng":-114.04366984395158,"avgVisitMinutes":26,"estimatedCostEur":13,"score":4.9366115235304315},{"id":"airdrie_7719","citySlug":"airdrie","name":"Restaurante Típico de Airdrie","category":"gastronomia","lat":51.295974555036786,"lng":-114.035069055899,"avgVisitMinutes":74,"estimatedCostEur":12,"score":2.3420655738671057},{"id":"airdrie_2433","citySlug":"airdrie","name":"Museo Local de Airdrie","category":"historia","lat":51.30176905700329,"lng":-114.04066218901225,"avgVisitMinutes":72,"estimatedCostEur":1,"score":1.1260796795333516},{"id":"airdrie_4819","citySlug":"airdrie","name":"Teatro Municipal","category":"cultura","lat":51.308913296126924,"lng":-114.03742141589152,"avgVisitMinutes":81,"estimatedCostEur":12,"score":4.478225043066501},{"id":"ajax_9069","citySlug":"ajax","name":"Punto Panorámico","category":"mirador","lat":43.84504453847463,"lng":-79.04174039947019,"avgVisitMinutes":20,"estimatedCostEur":18,"score":3.9563771014801348},{"id":"ajax_6073","citySlug":"ajax","name":"Playa Norte","category":"playa","lat":43.84531874124572,"lng":-79.02816139912031,"avgVisitMinutes":58,"estimatedCostEur":21,"score":2.254956534685044},{"id":"ajax_3900","citySlug":"ajax","name":"Museo Cultural de Ajax","category":"cultura","lat":43.850121888602686,"lng":-79.03874844706718,"avgVisitMinutes":90,"estimatedCostEur":6,"score":4.571293546079502},{"id":"ajax_1659","citySlug":"ajax","name":"Castillo de Ajax","category":"historia","lat":43.8511678129853,"lng":-79.02457454850904,"avgVisitMinutes":44,"estimatedCostEur":18,"score":2.7467184549301837},{"id":"ajax_1297","citySlug":"ajax","name":"Zona Comercial","category":"ocio","lat":43.840594869016456,"lng":-79.035804223595,"avgVisitMinutes":73,"estimatedCostEur":5,"score":4.263613399801482},{"id":"ajax_3988","citySlug":"ajax","name":"Punto Panorámico","category":"mirador","lat":43.846758473413,"lng":-79.03289086407777,"avgVisitMinutes":30,"estimatedCostEur":3,"score":1.147535971503012},{"id":"ajax_7590","citySlug":"ajax","name":"Zona Comercial","category":"ocio","lat":43.85366028542349,"lng":-79.03503160140839,"avgVisitMinutes":76,"estimatedCostEur":19,"score":4.8150728466824715},{"id":"ajax_3116","citySlug":"ajax","name":"Museo Cultural de Ajax","category":"cultura","lat":43.853621631365144,"lng":-79.03839432657394,"avgVisitMinutes":40,"estimatedCostEur":18,"score":2.4429638293808584},{"id":"ajax_4199","citySlug":"ajax","name":"Centro Histórico","category":"historia","lat":43.852501816017984,"lng":-79.03277341712844,"avgVisitMinutes":62,"estimatedCostEur":13,"score":2.498745875196357},{"id":"ajax_2437","citySlug":"ajax","name":"Parque Central","category":"ocio","lat":43.8581878769336,"lng":-79.0232746850432,"avgVisitMinutes":41,"estimatedCostEur":11,"score":0.758769767504165},{"id":"aklavik_9944","citySlug":"aklavik","name":"Centro de Arte de Aklavik","category":"cultura","lat":68.21271791232118,"lng":-135.01715365319168,"avgVisitMinutes":50,"estimatedCostEur":6,"score":2.689166447395791},{"id":"aklavik_3532","citySlug":"aklavik","name":"Playa Central","category":"playa","lat":68.2120115749875,"lng":-135.01886529987738,"avgVisitMinutes":72,"estimatedCostEur":14,"score":4.852634715441016},{"id":"aklavik_1660","citySlug":"aklavik","name":"Vista Alta de Aklavik","category":"mirador","lat":68.21507201947064,"lng":-135.00981797087792,"avgVisitMinutes":25,"estimatedCostEur":17,"score":2.3743668535315905},{"id":"aklavik_6481","citySlug":"aklavik","name":"Museo Cultural de Aklavik","category":"cultura","lat":68.21649702818227,"lng":-135.01698762252,"avgVisitMinutes":20,"estimatedCostEur":17,"score":1.0327894352726155},{"id":"aklavik_3102","citySlug":"aklavik","name":"Parque Central","category":"ocio","lat":68.21185105024901,"lng":-135.00856997256764,"avgVisitMinutes":45,"estimatedCostEur":19,"score":2.692201822959783},{"id":"aklavik_2308","citySlug":"aklavik","name":"Zona Comercial","category":"ocio","lat":68.21203861307838,"lng":-135.0182016191799,"avgVisitMinutes":49,"estimatedCostEur":13,"score":2.014406454331393},{"id":"aklavik_2800","citySlug":"aklavik","name":"Playa Sur","category":"playa","lat":68.21351209600883,"lng":-135.00157285511608,"avgVisitMinutes":28,"estimatedCostEur":16,"score":1.8620971985153258},{"id":"aklavik_6918","citySlug":"aklavik","name":"Punto Panorámico","category":"mirador","lat":68.22319784120334,"lng":-135.00322551039818,"avgVisitMinutes":90,"estimatedCostEur":22,"score":1.1433806603795542},{"id":"aklavik_3792","citySlug":"aklavik","name":"Iglesia de Aklavik","category":"historia","lat":68.21021725064418,"lng":-135.0179868883828,"avgVisitMinutes":77,"estimatedCostEur":11,"score":1.2820434186508962},{"id":"aklavik_4820","citySlug":"aklavik","name":"Paseo Principal","category":"ocio","lat":68.20913545467852,"lng":-135.01545119584745,"avgVisitMinutes":76,"estimatedCostEur":10,"score":4.5134406906087055},{"id":"aklavik_4147","citySlug":"aklavik","name":"Vista Alta de Aklavik","category":"mirador","lat":68.21853745658436,"lng":-135.00097034675034,"avgVisitMinutes":54,"estimatedCostEur":8,"score":2.6080239638662164},{"id":"akulivik_1779","citySlug":"akulivik","name":"Zona Comercial","category":"ocio","lat":60.79979320309854,"lng":-78.19960100735341,"avgVisitMinutes":83,"estimatedCostEur":2,"score":0.7302784629623622},{"id":"akulivik_1006","citySlug":"akulivik","name":"Parque Central","category":"ocio","lat":60.79102908747478,"lng":-78.20551746887219,"avgVisitMinutes":27,"estimatedCostEur":14,"score":2.88195608528443},{"id":"akulivik_9792","citySlug":"akulivik","name":"Paseo Principal","category":"ocio","lat":60.801710662711024,"lng":-78.19786763863553,"avgVisitMinutes":35,"estimatedCostEur":22,"score":3.012654764638351},{"id":"akulivik_9110","citySlug":"akulivik","name":"Mirador de Akulivik","category":"mirador","lat":60.80465408410805,"lng":-78.19035432025916,"avgVisitMinutes":31,"estimatedCostEur":24,"score":4.701140064474273},{"id":"akulivik_9737","citySlug":"akulivik","name":"Playa Central","category":"playa","lat":60.79189353785355,"lng":-78.19547908369286,"avgVisitMinutes":60,"estimatedCostEur":9,"score":2.417574847809374},{"id":"albanel_6113","citySlug":"albanel","name":"Punto Panorámico","category":"mirador","lat":48.89025143360392,"lng":-72.44971094111284,"avgVisitMinutes":59,"estimatedCostEur":6,"score":2.0475276640349316},{"id":"albanel_8180","citySlug":"albanel","name":"Ruta de Tapas","category":"gastronomia","lat":48.873784500902794,"lng":-72.44883126487824,"avgVisitMinutes":20,"estimatedCostEur":8,"score":0.5808999200200882},{"id":"albanel_5740","citySlug":"albanel","name":"Playa Norte","category":"playa","lat":48.88123599583008,"lng":-72.45595121473139,"avgVisitMinutes":80,"estimatedCostEur":9,"score":2.4740890758736636},{"id":"albanel_3829","citySlug":"albanel","name":"Punto Panorámico","category":"mirador","lat":48.889723669589884,"lng":-72.44043631676416,"avgVisitMinutes":74,"estimatedCostEur":7,"score":4.655570248231468},{"id":"albanel_5999","citySlug":"albanel","name":"Galería de Arte","category":"cultura","lat":48.880365626179696,"lng":-72.45161088068551,"avgVisitMinutes":35,"estimatedCostEur":24,"score":1.2856341251856975},{"id":"albanel_3714","citySlug":"albanel","name":"Murallas de Albanel","category":"historia","lat":48.8828528973484,"lng":-72.44688070423899,"avgVisitMinutes":37,"estimatedCostEur":25,"score":2.881262351418054},{"id":"albanel_2197","citySlug":"albanel","name":"Playa Central","category":"playa","lat":48.88299461581932,"lng":-72.44625202009422,"avgVisitMinutes":72,"estimatedCostEur":13,"score":0.7182347935798734},{"id":"albanel_3621","citySlug":"albanel","name":"Restaurante Típico de Albanel","category":"gastronomia","lat":48.88896890205985,"lng":-72.43959137089168,"avgVisitMinutes":49,"estimatedCostEur":25,"score":4.997869097305313},{"id":"albanel_2179","citySlug":"albanel","name":"Vista Alta de Albanel","category":"mirador","lat":48.87453719383679,"lng":-72.45372706992781,"avgVisitMinutes":31,"estimatedCostEur":19,"score":4.696988067546473},{"id":"albanel_3227","citySlug":"albanel","name":"Teatro Municipal","category":"cultura","lat":48.89210860030031,"lng":-72.44763263219917,"avgVisitMinutes":87,"estimatedCostEur":9,"score":3.10348007211384},{"id":"albert-bridge_5145","citySlug":"albert-bridge","name":"Restaurante Típico de Albert Bridge","category":"gastronomia","lat":46.01512974363803,"lng":-60.05700628686178,"avgVisitMinutes":43,"estimatedCostEur":4,"score":1.5103982291792355},{"id":"albert-bridge_1705","citySlug":"albert-bridge","name":"Iglesia de Albert Bridge","category":"historia","lat":46.02062362416156,"lng":-60.05774865721933,"avgVisitMinutes":56,"estimatedCostEur":12,"score":0.7580326483804407},{"id":"albert-bridge_5017","citySlug":"albert-bridge","name":"Iglesia de Albert Bridge","category":"historia","lat":46.00833636264624,"lng":-60.05586920242247,"avgVisitMinutes":39,"estimatedCostEur":18,"score":4.217453805239073},{"id":"albert-bridge_9102","citySlug":"albert-bridge","name":"Playa Sur","category":"playa","lat":46.02392491527959,"lng":-60.049860073267546,"avgVisitMinutes":57,"estimatedCostEur":19,"score":3.77493997914684},{"id":"albert-bridge_7799","citySlug":"albert-bridge","name":"Restaurante Típico de Albert Bridge","category":"gastronomia","lat":46.01894075300804,"lng":-60.0646558360012,"avgVisitMinutes":43,"estimatedCostEur":16,"score":4.930112309949169},{"id":"albert-bridge_3942","citySlug":"albert-bridge","name":"Parque Central","category":"ocio","lat":46.02347654622194,"lng":-60.051923939901634,"avgVisitMinutes":89,"estimatedCostEur":11,"score":0.9274400652668684},{"id":"albert-bridge_8198","citySlug":"albert-bridge","name":"Playa Norte","category":"playa","lat":46.01226233597972,"lng":-60.05714773215469,"avgVisitMinutes":66,"estimatedCostEur":20,"score":3.73234760110843},{"id":"albert-bridge_1437","citySlug":"albert-bridge","name":"Iglesia de Albert Bridge","category":"historia","lat":46.02174519686922,"lng":-60.05224092971694,"avgVisitMinutes":40,"estimatedCostEur":9,"score":1.2222377300482312},{"id":"albert-bridge_2788","citySlug":"albert-bridge","name":"Vista Alta de Albert Bridge","category":"mirador","lat":46.01025179404504,"lng":-60.06415130321563,"avgVisitMinutes":87,"estimatedCostEur":6,"score":2.813009935135926},{"id":"alberton_9429","citySlug":"alberton","name":"Parque Central","category":"ocio","lat":46.820310564264474,"lng":-64.07540489454664,"avgVisitMinutes":61,"estimatedCostEur":5,"score":4.240279682091568},{"id":"alberton_3078","citySlug":"alberton","name":"Restaurante Típico de Alberton","category":"gastronomia","lat":46.80742090851936,"lng":-64.0636490906602,"avgVisitMinutes":35,"estimatedCostEur":11,"score":0.9910977661643798},{"id":"alberton_6715","citySlug":"alberton","name":"Restaurante Típico de Alberton","category":"gastronomia","lat":46.821098589018675,"lng":-64.07086807959956,"avgVisitMinutes":78,"estimatedCostEur":16,"score":1.6090126856563745},{"id":"alberton_3473","citySlug":"alberton","name":"Zona Comercial","category":"ocio","lat":46.813281817277776,"lng":-64.06094364429804,"avgVisitMinutes":73,"estimatedCostEur":22,"score":2.3011214550758603},{"id":"alberton_5076","citySlug":"alberton","name":"Mercado Gastronómico","category":"gastronomia","lat":46.81326813888423,"lng":-64.0683785195948,"avgVisitMinutes":39,"estimatedCostEur":5,"score":1.5420063765220702},{"id":"alberton_2763","citySlug":"alberton","name":"Murallas de Alberton","category":"historia","lat":46.81907478664822,"lng":-64.05606429228774,"avgVisitMinutes":46,"estimatedCostEur":1,"score":4.4261843008169315},{"id":"alberton_8698","citySlug":"alberton","name":"Murallas de Alberton","category":"historia","lat":46.82055156800514,"lng":-64.06284417807888,"avgVisitMinutes":49,"estimatedCostEur":2,"score":4.340019770251862},{"id":"albro-lake_1213","citySlug":"albro-lake","name":"Zona Comercial","category":"ocio","lat":44.675291061289236,"lng":-63.57742079938836,"avgVisitMinutes":64,"estimatedCostEur":8,"score":4.640909054898849},{"id":"albro-lake_6168","citySlug":"albro-lake","name":"Punto Panorámico","category":"mirador","lat":44.67929405979329,"lng":-63.57197357811582,"avgVisitMinutes":60,"estimatedCostEur":13,"score":3.763279965636271},{"id":"albro-lake_4571","citySlug":"albro-lake","name":"Galería de Arte","category":"cultura","lat":44.68809421117796,"lng":-63.585969370246744,"avgVisitMinutes":27,"estimatedCostEur":9,"score":2.298228426031848},{"id":"albro-lake_8585","citySlug":"albro-lake","name":"Vista Alta de Albro Lake","category":"mirador","lat":44.67604457904327,"lng":-63.58585964250942,"avgVisitMinutes":72,"estimatedCostEur":4,"score":2.880749553954787},{"id":"albro-lake_4582","citySlug":"albro-lake","name":"Teatro Municipal","category":"cultura","lat":44.68215667512172,"lng":-63.59111373861427,"avgVisitMinutes":76,"estimatedCostEur":12,"score":3.434416782719885},{"id":"albro-lake_1350","citySlug":"albro-lake","name":"Castillo de Albro Lake","category":"historia","lat":44.69065145768279,"lng":-63.5800415910302,"avgVisitMinutes":22,"estimatedCostEur":8,"score":0.5218464350130696},{"id":"albro-lake_3731","citySlug":"albro-lake","name":"Museo Local de Albro Lake","category":"historia","lat":44.6776359100097,"lng":-63.59128032623746,"avgVisitMinutes":39,"estimatedCostEur":8,"score":4.045501642113798},{"id":"albro-lake_7571","citySlug":"albro-lake","name":"Punto Panorámico","category":"mirador","lat":44.67934306460372,"lng":-63.58282550690872,"avgVisitMinutes":22,"estimatedCostEur":10,"score":0.7717340470284629},{"id":"albro-lake_4302","citySlug":"albro-lake","name":"Castillo de Albro Lake","category":"historia","lat":44.67414497961792,"lng":-63.58204645972717,"avgVisitMinutes":73,"estimatedCostEur":25,"score":3.061363185625002},{"id":"albro-lake_8920","citySlug":"albro-lake","name":"Restaurante Típico de Albro Lake","category":"gastronomia","lat":44.684319023684324,"lng":-63.58943978659581,"avgVisitMinutes":29,"estimatedCostEur":18,"score":1.0733087652341342},{"id":"albro-lake_4550","citySlug":"albro-lake","name":"Playa Norte","category":"playa","lat":44.6936718185935,"lng":-63.579301837476564,"avgVisitMinutes":73,"estimatedCostEur":6,"score":4.242897045065277},{"id":"aldouane_7895","citySlug":"aldouane","name":"Playa Norte","category":"playa","lat":46.62773895216359,"lng":-65.05957375149023,"avgVisitMinutes":51,"estimatedCostEur":17,"score":1.6689843790150793},{"id":"aldouane_9906","citySlug":"aldouane","name":"Museo Local de Aldouane","category":"historia","lat":46.631644769698596,"lng":-65.05774119384463,"avgVisitMinutes":23,"estimatedCostEur":18,"score":3.826774745919357},{"id":"aldouane_1534","citySlug":"aldouane","name":"Paseo Principal","category":"ocio","lat":46.62850213563033,"lng":-65.05893169404895,"avgVisitMinutes":44,"estimatedCostEur":22,"score":2.2147185135676364},{"id":"aldouane_2539","citySlug":"aldouane","name":"Murallas de Aldouane","category":"historia","lat":46.637959662288196,"lng":-65.06994526410524,"avgVisitMinutes":36,"estimatedCostEur":22,"score":3.765208713819926},{"id":"aldouane_3655","citySlug":"aldouane","name":"Museo Local de Aldouane","category":"historia","lat":46.63727381026556,"lng":-65.06965366696626,"avgVisitMinutes":44,"estimatedCostEur":1,"score":4.6181751875924455},{"id":"aldouane_1042","citySlug":"aldouane","name":"Centro de Arte de Aldouane","category":"cultura","lat":46.62552450895609,"lng":-65.05822444921779,"avgVisitMinutes":20,"estimatedCostEur":16,"score":2.806135008352708},{"id":"aldouane_1246","citySlug":"aldouane","name":"Parque Central","category":"ocio","lat":46.64045619626371,"lng":-65.05696189649979,"avgVisitMinutes":47,"estimatedCostEur":0,"score":3.6525700049918313},{"id":"alert-bay_8374","citySlug":"alert-bay","name":"Parque Central","category":"ocio","lat":50.57793166738276,"lng":-126.92945886469305,"avgVisitMinutes":58,"estimatedCostEur":8,"score":0.6894350897845468},{"id":"alert-bay_2896","citySlug":"alert-bay","name":"Punto Panorámico","category":"mirador","lat":50.57609832154592,"lng":-126.9308545478217,"avgVisitMinutes":21,"estimatedCostEur":7,"score":0.5239293308449685},{"id":"alert-bay_6478","citySlug":"alert-bay","name":"Teatro Municipal","category":"cultura","lat":50.5854129330694,"lng":-126.92314830204816,"avgVisitMinutes":22,"estimatedCostEur":24,"score":1.4722565710321898},{"id":"alert-bay_3362","citySlug":"alert-bay","name":"Parque Central","category":"ocio","lat":50.58045959765166,"lng":-126.92572014963876,"avgVisitMinutes":86,"estimatedCostEur":9,"score":4.5195791647071655},{"id":"alert-bay_5068","citySlug":"alert-bay","name":"Ruta de Tapas","category":"gastronomia","lat":50.58487914935123,"lng":-126.9336977834643,"avgVisitMinutes":81,"estimatedCostEur":7,"score":3.2999600390701582},{"id":"alert-bay_1658","citySlug":"alert-bay","name":"Zona Comercial","category":"ocio","lat":50.58405585949184,"lng":-126.92943300918778,"avgVisitMinutes":50,"estimatedCostEur":21,"score":0.5598322383554992},{"id":"alert-bay_5228","citySlug":"alert-bay","name":"Iglesia de Alert Bay","category":"historia","lat":50.58972261962238,"lng":-126.93457756595514,"avgVisitMinutes":37,"estimatedCostEur":2,"score":1.894573139874916},{"id":"alert-bay_9928","citySlug":"alert-bay","name":"Mirador de Alert Bay","category":"mirador","lat":50.58051728564147,"lng":-126.92510662529557,"avgVisitMinutes":77,"estimatedCostEur":3,"score":4.830399585068016},{"id":"alexandra_5351","citySlug":"alexandra","name":"Playa Norte","category":"playa","lat":46.19115201464852,"lng":-63.03789960216002,"avgVisitMinutes":46,"estimatedCostEur":16,"score":2.235068800201315},{"id":"alexandra_4414","citySlug":"alexandra","name":"Playa Central","category":"playa","lat":46.19866568970475,"lng":-63.03662776478147,"avgVisitMinutes":49,"estimatedCostEur":25,"score":4.312214670144867},{"id":"alexandra_5798","citySlug":"alexandra","name":"Restaurante Típico de Alexandra","category":"gastronomia","lat":46.2005071492975,"lng":-63.03230719125354,"avgVisitMinutes":65,"estimatedCostEur":25,"score":1.0478593274395083},{"id":"alexandra_2168","citySlug":"alexandra","name":"Parque Central","category":"ocio","lat":46.193258848340065,"lng":-63.02622311531709,"avgVisitMinutes":22,"estimatedCostEur":23,"score":4.2289579005485765},{"id":"alexandra_8708","citySlug":"alexandra","name":"Vista Alta de Alexandra","category":"mirador","lat":46.19319828488765,"lng":-63.03728487168482,"avgVisitMinutes":48,"estimatedCostEur":18,"score":1.63232734804367},{"id":"alexandra_8236","citySlug":"alexandra","name":"Vista Alta de Alexandra","category":"mirador","lat":46.19066381972482,"lng":-63.037209940278274,"avgVisitMinutes":73,"estimatedCostEur":7,"score":4.507398175202411},{"id":"alexandra_5528","citySlug":"alexandra","name":"Iglesia de Alexandra","category":"historia","lat":46.194638393224665,"lng":-63.024024861705755,"avgVisitMinutes":66,"estimatedCostEur":24,"score":0.760689142347662},{"id":"alexandra_2048","citySlug":"alexandra","name":"Museo Cultural de Alexandra","category":"cultura","lat":46.18948229317505,"lng":-63.03709659292959,"avgVisitMinutes":25,"estimatedCostEur":5,"score":2.9667909450862378},{"id":"alexandra_5331","citySlug":"alexandra","name":"Zona Comercial","category":"ocio","lat":46.190754706698286,"lng":-63.033456423399755,"avgVisitMinutes":26,"estimatedCostEur":4,"score":1.4134279831778875},{"id":"alexandra_3906","citySlug":"alexandra","name":"Ruta de Tapas","category":"gastronomia","lat":46.20297223902207,"lng":-63.032392276524924,"avgVisitMinutes":39,"estimatedCostEur":18,"score":2.888474483727621},{"id":"alexandria_3224","citySlug":"alexandria","name":"Playa Norte","category":"playa","lat":45.30914786494715,"lng":-74.63233837482319,"avgVisitMinutes":75,"estimatedCostEur":20,"score":2.871308654758539},{"id":"alexandria_1381","citySlug":"alexandria","name":"Punto Panorámico","category":"mirador","lat":45.307178064912435,"lng":-74.64527041699593,"avgVisitMinutes":39,"estimatedCostEur":12,"score":3.2101573016586986},{"id":"alexandria_7256","citySlug":"alexandria","name":"Murallas de Alexandria","category":"historia","lat":45.30832588449282,"lng":-74.63382981982551,"avgVisitMinutes":85,"estimatedCostEur":15,"score":2.976008558732256},{"id":"alexandria_2783","citySlug":"alexandria","name":"Mirador de Alexandria","category":"mirador","lat":45.31752277337467,"lng":-74.62824918590552,"avgVisitMinutes":55,"estimatedCostEur":8,"score":3.7249551595970707},{"id":"alexandria_7856","citySlug":"alexandria","name":"Centro Histórico","category":"historia","lat":45.30561226565326,"lng":-74.63389367463644,"avgVisitMinutes":71,"estimatedCostEur":13,"score":0.84495330714931},{"id":"alexandria_1631","citySlug":"alexandria","name":"Ruta de Tapas","category":"gastronomia","lat":45.31217896325445,"lng":-74.63832102182708,"avgVisitMinutes":57,"estimatedCostEur":15,"score":3.13980332543335},{"id":"alix_6469","citySlug":"alix","name":"Restaurante Típico de Alix","category":"gastronomia","lat":52.394639511910334,"lng":-113.18431335292287,"avgVisitMinutes":41,"estimatedCostEur":14,"score":0.8806300375461722},{"id":"alix_4017","citySlug":"alix","name":"Paseo Principal","category":"ocio","lat":52.39467627905711,"lng":-113.17763907839795,"avgVisitMinutes":69,"estimatedCostEur":23,"score":0.6901463437252497},{"id":"alix_9964","citySlug":"alix","name":"Teatro Municipal","category":"cultura","lat":52.40714161219532,"lng":-113.17537005433891,"avgVisitMinutes":43,"estimatedCostEur":16,"score":3.4810165525541743},{"id":"alix_8198","citySlug":"alix","name":"Teatro Municipal","category":"cultura","lat":52.409098120827586,"lng":-113.17556572420096,"avgVisitMinutes":90,"estimatedCostEur":17,"score":3.5447600150228857},{"id":"alix_7855","citySlug":"alix","name":"Ruta de Tapas","category":"gastronomia","lat":52.401232563497366,"lng":-113.18382373045881,"avgVisitMinutes":23,"estimatedCostEur":6,"score":4.722446699221064},{"id":"alix_4289","citySlug":"alix","name":"Vista Alta de Alix","category":"mirador","lat":52.3983809543407,"lng":-113.1844171938923,"avgVisitMinutes":54,"estimatedCostEur":4,"score":0.9239630507272929},{"id":"alix_9019","citySlug":"alix","name":"Paseo Principal","category":"ocio","lat":52.40226070568079,"lng":-113.17542699447624,"avgVisitMinutes":40,"estimatedCostEur":23,"score":2.260930272484368},{"id":"alix_5105","citySlug":"alix","name":"Playa Sur","category":"playa","lat":52.4023247220122,"lng":-113.19453977785956,"avgVisitMinutes":81,"estimatedCostEur":7,"score":0.930319868795064},{"id":"alix_3524","citySlug":"alix","name":"Museo Local de Alix","category":"historia","lat":52.401732711675116,"lng":-113.18955678514743,"avgVisitMinutes":61,"estimatedCostEur":2,"score":0.946268451737772},{"id":"alliston_9389","citySlug":"alliston","name":"Parque Central","category":"ocio","lat":44.145619981961346,"lng":-79.86654285421002,"avgVisitMinutes":82,"estimatedCostEur":19,"score":4.914444962932857},{"id":"alliston_5984","citySlug":"alliston","name":"Playa Norte","category":"playa","lat":44.14218942038419,"lng":-79.87237740522409,"avgVisitMinutes":27,"estimatedCostEur":14,"score":2.2320340686970415},{"id":"alliston_1619","citySlug":"alliston","name":"Parque Central","category":"ocio","lat":44.15219826887374,"lng":-79.8585166249153,"avgVisitMinutes":63,"estimatedCostEur":13,"score":2.5445483992030296},{"id":"alliston_9107","citySlug":"alliston","name":"Centro de Arte de Alliston","category":"cultura","lat":44.153870560059296,"lng":-79.87545916078706,"avgVisitMinutes":38,"estimatedCostEur":15,"score":1.9040269203395892},{"id":"alliston_6612","citySlug":"alliston","name":"Zona Comercial","category":"ocio","lat":44.14306563321636,"lng":-79.87082669565144,"avgVisitMinutes":25,"estimatedCostEur":9,"score":1.2645084533586903},{"id":"alliston_2706","citySlug":"alliston","name":"Punto Panorámico","category":"mirador","lat":44.153947184767695,"lng":-79.8617109656344,"avgVisitMinutes":84,"estimatedCostEur":7,"score":1.7037262269470896},{"id":"alliston_4491","citySlug":"alliston","name":"Teatro Municipal","category":"cultura","lat":44.14921859035183,"lng":-79.8568458596793,"avgVisitMinutes":74,"estimatedCostEur":9,"score":0.5328327542925457},{"id":"alma_1222","citySlug":"alma","name":"Playa Central","category":"playa","lat":45.64619932109999,"lng":-64.91413027126902,"avgVisitMinutes":29,"estimatedCostEur":9,"score":2.5783534876129264},{"id":"alma_5189","citySlug":"alma","name":"Mirador de Alma","category":"mirador","lat":45.65069868892723,"lng":-64.93280258396724,"avgVisitMinutes":44,"estimatedCostEur":18,"score":1.8939202291467467},{"id":"alma_8916","citySlug":"alma","name":"Parque Central","category":"ocio","lat":45.661402782153054,"lng":-64.91908422979249,"avgVisitMinutes":42,"estimatedCostEur":20,"score":2.6675689385172143},{"id":"alma_5856","citySlug":"alma","name":"Murallas de Alma","category":"historia","lat":45.645527312997096,"lng":-64.93234195589432,"avgVisitMinutes":61,"estimatedCostEur":24,"score":0.7868421273629475},{"id":"alma_6705","citySlug":"alma","name":"Vista Alta de Alma","category":"mirador","lat":45.661819031954685,"lng":-64.93160889891024,"avgVisitMinutes":56,"estimatedCostEur":20,"score":1.961120840649328},{"id":"alma_3322","citySlug":"alma","name":"Iglesia de Alma","category":"historia","lat":45.661326223255635,"lng":-64.93118948089887,"avgVisitMinutes":75,"estimatedCostEur":0,"score":3.119542951722948},{"id":"alma_7864","citySlug":"alma","name":"Punto Panorámico","category":"mirador","lat":45.661816036581115,"lng":-64.93340009594199,"avgVisitMinutes":74,"estimatedCostEur":7,"score":3.941054498679057},{"id":"alma_8387","citySlug":"alma","name":"Mercado Gastronómico","category":"gastronomia","lat":48.55315269221014,"lng":-71.63985981769187,"avgVisitMinutes":34,"estimatedCostEur":4,"score":2.1242918885847852},{"id":"alma_6841","citySlug":"alma","name":"Playa Norte","category":"playa","lat":48.54611407199489,"lng":-71.64613964173726,"avgVisitMinutes":75,"estimatedCostEur":10,"score":4.917014347095669},{"id":"alma_7875","citySlug":"alma","name":"Museo Cultural de Alma","category":"cultura","lat":48.556935901974924,"lng":-71.65355394114636,"avgVisitMinutes":62,"estimatedCostEur":1,"score":1.5909500611796576},{"id":"alma_1991","citySlug":"alma","name":"Ruta de Tapas","category":"gastronomia","lat":48.54814586037019,"lng":-71.64935538230556,"avgVisitMinutes":48,"estimatedCostEur":21,"score":2.2237422852210162},{"id":"alma_2435","citySlug":"alma","name":"Playa Central","category":"playa","lat":48.5410474735873,"lng":-71.64874587431956,"avgVisitMinutes":47,"estimatedCostEur":9,"score":3.3359056481318903},{"id":"alma_5168","citySlug":"alma","name":"Paseo Principal","category":"ocio","lat":48.55396618682879,"lng":-71.64605247707541,"avgVisitMinutes":21,"estimatedCostEur":11,"score":0.8655350817458751},{"id":"alma_4603","citySlug":"alma","name":"Restaurante Típico de Alma","category":"gastronomia","lat":48.54926393973998,"lng":-71.6415329469604,"avgVisitMinutes":66,"estimatedCostEur":22,"score":2.644619317765531},{"id":"alma_4551","citySlug":"alma","name":"Mirador de Alma","category":"mirador","lat":48.54225595671555,"lng":-71.65374600598585,"avgVisitMinutes":75,"estimatedCostEur":1,"score":3.560211674976329},{"id":"alma_3412","citySlug":"alma","name":"Centro Histórico","category":"historia","lat":48.549706005896695,"lng":-71.65432163482548,"avgVisitMinutes":54,"estimatedCostEur":3,"score":2.1351643923212418},{"id":"altona_5921","citySlug":"altona","name":"Zona Comercial","category":"ocio","lat":49.09647583385101,"lng":-97.56580557610918,"avgVisitMinutes":39,"estimatedCostEur":8,"score":4.897612317679806},{"id":"altona_4674","citySlug":"altona","name":"Restaurante Típico de Altona","category":"gastronomia","lat":49.095184629010475,"lng":-97.5666255437381,"avgVisitMinutes":21,"estimatedCostEur":25,"score":0.9779467492867926},{"id":"altona_1196","citySlug":"altona","name":"Playa Norte","category":"playa","lat":49.11027364191299,"lng":-97.5547015957434,"avgVisitMinutes":23,"estimatedCostEur":14,"score":2.641357007163621},{"id":"altona_4639","citySlug":"altona","name":"Mercado Gastronómico","category":"gastronomia","lat":49.09663321036146,"lng":-97.55586737332166,"avgVisitMinutes":80,"estimatedCostEur":8,"score":4.521365443264311},{"id":"altona_2792","citySlug":"altona","name":"Zona Comercial","category":"ocio","lat":49.10486852928692,"lng":-97.55447992648716,"avgVisitMinutes":41,"estimatedCostEur":21,"score":3.407116411293389},{"id":"altona_8770","citySlug":"altona","name":"Murallas de Altona","category":"historia","lat":49.10210365922422,"lng":-97.55424338502468,"avgVisitMinutes":58,"estimatedCostEur":6,"score":3.8450117822655505},{"id":"amethyst-harbour_4062","citySlug":"amethyst-harbour","name":"Playa Central","category":"playa","lat":48.54311902844369,"lng":-88.86435678752663,"avgVisitMinutes":42,"estimatedCostEur":4,"score":2.097618814734421},{"id":"amethyst-harbour_3583","citySlug":"amethyst-harbour","name":"Paseo Principal","category":"ocio","lat":48.54735713436777,"lng":-88.8725673392611,"avgVisitMinutes":51,"estimatedCostEur":21,"score":4.992990095677037},{"id":"amethyst-harbour_6439","citySlug":"amethyst-harbour","name":"Centro de Arte de Amethyst Harbour","category":"cultura","lat":48.53782885710857,"lng":-88.87267666603329,"avgVisitMinutes":20,"estimatedCostEur":9,"score":3.3443898788149617},{"id":"amethyst-harbour_2304","citySlug":"amethyst-harbour","name":"Paseo Principal","category":"ocio","lat":48.550884019750406,"lng":-88.86552841097121,"avgVisitMinutes":53,"estimatedCostEur":8,"score":2.0020679155935124},{"id":"amethyst-harbour_9543","citySlug":"amethyst-harbour","name":"Museo Cultural de Amethyst Harbour","category":"cultura","lat":48.53820850145666,"lng":-88.86847703860536,"avgVisitMinutes":90,"estimatedCostEur":1,"score":3.7390440063823336},{"id":"amethyst-harbour_5333","citySlug":"amethyst-harbour","name":"Paseo Principal","category":"ocio","lat":48.53275091323095,"lng":-88.87972063061473,"avgVisitMinutes":63,"estimatedCostEur":20,"score":4.1861452872605724},{"id":"amethyst-harbour_2661","citySlug":"amethyst-harbour","name":"Vista Alta de Amethyst Harbour","category":"mirador","lat":48.540183061374286,"lng":-88.87697099615629,"avgVisitMinutes":71,"estimatedCostEur":23,"score":4.773472932945311},{"id":"amethyst-harbour_1436","citySlug":"amethyst-harbour","name":"Centro Histórico","category":"historia","lat":48.540641876679345,"lng":-88.87330809439851,"avgVisitMinutes":79,"estimatedCostEur":9,"score":4.581991710386858},{"id":"amherst_4432","citySlug":"amherst","name":"Mercado Gastronómico","category":"gastronomia","lat":45.83462022750887,"lng":-64.19982605559522,"avgVisitMinutes":87,"estimatedCostEur":9,"score":4.899153461072636},{"id":"amherst_6715","citySlug":"amherst","name":"Parque Central","category":"ocio","lat":45.84112282983541,"lng":-64.19463530697409,"avgVisitMinutes":70,"estimatedCostEur":22,"score":3.4972570049350136},{"id":"amherst_7816","citySlug":"amherst","name":"Punto Panorámico","category":"mirador","lat":45.825469663524785,"lng":-64.19400070277706,"avgVisitMinutes":56,"estimatedCostEur":24,"score":4.092707548449756},{"id":"amherst_9620","citySlug":"amherst","name":"Restaurante Típico de Amherst","category":"gastronomia","lat":45.826835967137505,"lng":-64.2016828254118,"avgVisitMinutes":87,"estimatedCostEur":22,"score":2.7607828950803697},{"id":"amherst_7544","citySlug":"amherst","name":"Ruta de Tapas","category":"gastronomia","lat":45.83563408246969,"lng":-64.1973557894847,"avgVisitMinutes":40,"estimatedCostEur":14,"score":3.04890488209921},{"id":"amherst_4550","citySlug":"amherst","name":"Castillo de Amherst","category":"historia","lat":45.82760735886929,"lng":-64.20319517791295,"avgVisitMinutes":74,"estimatedCostEur":12,"score":3.024523796605404},{"id":"amherst_4852","citySlug":"amherst","name":"Iglesia de Amherst","category":"historia","lat":45.831710095477334,"lng":-64.19014088544023,"avgVisitMinutes":39,"estimatedCostEur":21,"score":3.9266515900917405},{"id":"amherst_5608","citySlug":"amherst","name":"Mercado Gastronómico","category":"gastronomia","lat":45.827443185069534,"lng":-64.19798873180211,"avgVisitMinutes":37,"estimatedCostEur":4,"score":1.6347505570865188},{"id":"amherst_5059","citySlug":"amherst","name":"Punto Panorámico","category":"mirador","lat":45.842678450420884,"lng":-64.20626970917904,"avgVisitMinutes":61,"estimatedCostEur":11,"score":3.126018407482496},{"id":"amherst_1280","citySlug":"amherst","name":"Parque Central","category":"ocio","lat":45.82490705680926,"lng":-64.20867897727962,"avgVisitMinutes":63,"estimatedCostEur":3,"score":4.4102610415906405},{"id":"amherst_2016","citySlug":"amherst","name":"Centro de Arte de Amherst","category":"cultura","lat":45.83461766303968,"lng":-64.19389275446801,"avgVisitMinutes":39,"estimatedCostEur":15,"score":3.5607299747905623},{"id":"amherst_6982","citySlug":"amherst","name":"Mirador de Amherst","category":"mirador","lat":45.84143550795987,"lng":-64.19006664377991,"avgVisitMinutes":56,"estimatedCostEur":11,"score":3.450249360076689},{"id":"amherstburg_7500","citySlug":"amherstburg","name":"Playa Norte","category":"playa","lat":42.10873405377375,"lng":-83.09878395303875,"avgVisitMinutes":71,"estimatedCostEur":6,"score":2.2401458506137617},{"id":"amherstburg_3236","citySlug":"amherstburg","name":"Ruta de Tapas","category":"gastronomia","lat":42.09231879880666,"lng":-83.09629972857995,"avgVisitMinutes":43,"estimatedCostEur":10,"score":1.9676606376921426},{"id":"amherstburg_5438","citySlug":"amherstburg","name":"Parque Central","category":"ocio","lat":42.09184289541857,"lng":-83.09010164003836,"avgVisitMinutes":76,"estimatedCostEur":1,"score":4.944877236913426},{"id":"amherstburg_6426","citySlug":"amherstburg","name":"Playa Norte","category":"playa","lat":42.10337165372359,"lng":-83.09735830027438,"avgVisitMinutes":39,"estimatedCostEur":6,"score":4.069038734037054},{"id":"amherstburg_5644","citySlug":"amherstburg","name":"Centro Histórico","category":"historia","lat":42.10945373443641,"lng":-83.10549476027853,"avgVisitMinutes":26,"estimatedCostEur":14,"score":4.342321912145441},{"id":"amigo-beach_1839","citySlug":"amigo-beach","name":"Centro de Arte de Amigo Beach","category":"cultura","lat":44.68794041364262,"lng":-79.38792713990213,"avgVisitMinutes":22,"estimatedCostEur":23,"score":1.6716155611366497},{"id":"amigo-beach_2973","citySlug":"amigo-beach","name":"Parque Central","category":"ocio","lat":44.6834317427581,"lng":-79.39553929445498,"avgVisitMinutes":63,"estimatedCostEur":9,"score":3.29627900460012},{"id":"amigo-beach_6005","citySlug":"amigo-beach","name":"Mirador de Amigo Beach","category":"mirador","lat":44.686473475184464,"lng":-79.38981485339418,"avgVisitMinutes":53,"estimatedCostEur":17,"score":3.629704589752721},{"id":"amigo-beach_8681","citySlug":"amigo-beach","name":"Vista Alta de Amigo Beach","category":"mirador","lat":44.682267238966205,"lng":-79.38654506182199,"avgVisitMinutes":46,"estimatedCostEur":7,"score":2.1451824810611826},{"id":"amigo-beach_6158","citySlug":"amigo-beach","name":"Parque Central","category":"ocio","lat":44.688585022291186,"lng":-79.38412398082471,"avgVisitMinutes":72,"estimatedCostEur":12,"score":2.6002350078735317},{"id":"amigo-beach_2772","citySlug":"amigo-beach","name":"Mirador de Amigo Beach","category":"mirador","lat":44.686460808151814,"lng":-79.39387917612054,"avgVisitMinutes":61,"estimatedCostEur":17,"score":1.2539486749116457},{"id":"amigo-beach_6581","citySlug":"amigo-beach","name":"Centro Histórico","category":"historia","lat":44.690915039530054,"lng":-79.40198233369216,"avgVisitMinutes":56,"estimatedCostEur":16,"score":0.8739177491272139},{"id":"amigo-beach_1118","citySlug":"amigo-beach","name":"Parque Central","category":"ocio","lat":44.70086406171725,"lng":-79.38767786988704,"avgVisitMinutes":85,"estimatedCostEur":18,"score":1.215741393934007},{"id":"amigo-beach_3111","citySlug":"amigo-beach","name":"Paseo Principal","category":"ocio","lat":44.69787769280022,"lng":-79.38594600510423,"avgVisitMinutes":74,"estimatedCostEur":14,"score":3.0272016411861236},{"id":"amos_2704","citySlug":"amos","name":"Punto Panorámico","category":"mirador","lat":48.567916746404755,"lng":-78.11901540047276,"avgVisitMinutes":39,"estimatedCostEur":8,"score":0.9867432780950962},{"id":"amos_3307","citySlug":"amos","name":"Centro de Arte de Amos","category":"cultura","lat":48.563628221424906,"lng":-78.11779101639816,"avgVisitMinutes":23,"estimatedCostEur":10,"score":1.8996476246054361},{"id":"amos_6556","citySlug":"amos","name":"Iglesia de Amos","category":"historia","lat":48.55717954892833,"lng":-78.11685978721101,"avgVisitMinutes":45,"estimatedCostEur":4,"score":3.440644140468196},{"id":"amos_4100","citySlug":"amos","name":"Iglesia de Amos","category":"historia","lat":48.56784248739428,"lng":-78.12264079747055,"avgVisitMinutes":23,"estimatedCostEur":9,"score":2.289143004143268},{"id":"amos_7892","citySlug":"amos","name":"Playa Sur","category":"playa","lat":48.569137989631066,"lng":-78.1135425476018,"avgVisitMinutes":75,"estimatedCostEur":12,"score":2.551387313350652},{"id":"amos_5506","citySlug":"amos","name":"Murallas de Amos","category":"historia","lat":48.57259527633222,"lng":-78.11439353158723,"avgVisitMinutes":37,"estimatedCostEur":7,"score":3.6561941897233283},{"id":"amos_3097","citySlug":"amos","name":"Mirador de Amos","category":"mirador","lat":48.56624654112723,"lng":-78.10757024575105,"avgVisitMinutes":67,"estimatedCostEur":8,"score":3.3560589430761882},{"id":"amos_6930","citySlug":"amos","name":"Zona Comercial","category":"ocio","lat":48.56732043294113,"lng":-78.10762734503659,"avgVisitMinutes":60,"estimatedCostEur":23,"score":4.585396879116143},{"id":"anchor-point_9403","citySlug":"anchor-point","name":"Vista Alta de Anchor Point","category":"mirador","lat":51.23170037820449,"lng":-56.805785237303716,"avgVisitMinutes":65,"estimatedCostEur":1,"score":0.9053932338153264},{"id":"anchor-point_9897","citySlug":"anchor-point","name":"Ruta de Tapas","category":"gastronomia","lat":51.22900331633286,"lng":-56.80419217070826,"avgVisitMinutes":43,"estimatedCostEur":11,"score":4.512382860597983},{"id":"anchor-point_2785","citySlug":"anchor-point","name":"Teatro Municipal","category":"cultura","lat":51.23453073271371,"lng":-56.80053955853521,"avgVisitMinutes":58,"estimatedCostEur":12,"score":4.996235286640968},{"id":"anchor-point_8443","citySlug":"anchor-point","name":"Murallas de Anchor Point","category":"historia","lat":51.2399778543391,"lng":-56.795641894630165,"avgVisitMinutes":50,"estimatedCostEur":6,"score":1.7855452879953257},{"id":"anchor-point_9131","citySlug":"anchor-point","name":"Murallas de Anchor Point","category":"historia","lat":51.238433537091915,"lng":-56.80263319672703,"avgVisitMinutes":81,"estimatedCostEur":4,"score":0.5641947840916537},{"id":"anchor-point_8156","citySlug":"anchor-point","name":"Teatro Municipal","category":"cultura","lat":51.242000218496244,"lng":-56.80191512205825,"avgVisitMinutes":28,"estimatedCostEur":13,"score":2.7668359334269748},{"id":"anchor-point_2410","citySlug":"anchor-point","name":"Vista Alta de Anchor Point","category":"mirador","lat":51.232218198351696,"lng":-56.79783684132712,"avgVisitMinutes":65,"estimatedCostEur":11,"score":2.9929783690945886},{"id":"anchor-point_7240","citySlug":"anchor-point","name":"Playa Central","category":"playa","lat":51.22847999330932,"lng":-56.80181935320805,"avgVisitMinutes":65,"estimatedCostEur":1,"score":1.7697102523394401},{"id":"anchor-point_8072","citySlug":"anchor-point","name":"Restaurante Típico de Anchor Point","category":"gastronomia","lat":51.24080999602659,"lng":-56.805390400826994,"avgVisitMinutes":65,"estimatedCostEur":16,"score":2.0672463093028832},{"id":"ange-gardien_1054","citySlug":"ange-gardien","name":"Castillo de Ange-Gardien","category":"historia","lat":45.35780268324673,"lng":-72.92322348038697,"avgVisitMinutes":60,"estimatedCostEur":23,"score":2.2656084126741503},{"id":"ange-gardien_4915","citySlug":"ange-gardien","name":"Playa Central","category":"playa","lat":45.35674223049187,"lng":-72.92959026438396,"avgVisitMinutes":33,"estimatedCostEur":22,"score":2.8155202179100347},{"id":"ange-gardien_2954","citySlug":"ange-gardien","name":"Playa Central","category":"playa","lat":45.34013621888054,"lng":-72.9230331424124,"avgVisitMinutes":90,"estimatedCostEur":4,"score":0.8716245008504324},{"id":"ange-gardien_7104","citySlug":"ange-gardien","name":"Parque Central","category":"ocio","lat":45.351141767418845,"lng":-72.92604373347268,"avgVisitMinutes":76,"estimatedCostEur":20,"score":2.931817437074833},{"id":"ange-gardien_9507","citySlug":"ange-gardien","name":"Iglesia de Ange-Gardien","category":"historia","lat":45.34968884342317,"lng":-72.94169351195099,"avgVisitMinutes":28,"estimatedCostEur":15,"score":4.005469244618755},{"id":"ange-gardien_3263","citySlug":"ange-gardien","name":"Mercado Gastronómico","category":"gastronomia","lat":45.35402787772365,"lng":-72.93693149186633,"avgVisitMinutes":82,"estimatedCostEur":9,"score":3.5325120671816195},{"id":"ange-gardien_1537","citySlug":"ange-gardien","name":"Murallas de Ange-Gardien","category":"historia","lat":45.353049161588324,"lng":-72.94046506500052,"avgVisitMinutes":59,"estimatedCostEur":19,"score":4.197701897982385},{"id":"ange-gardien_1933","citySlug":"ange-gardien","name":"Punto Panorámico","category":"mirador","lat":45.35604795950989,"lng":-72.92703481993289,"avgVisitMinutes":86,"estimatedCostEur":15,"score":4.204668692682134},{"id":"ange-gardien_8343","citySlug":"ange-gardien","name":"Centro de Arte de Ange-Gardien","category":"cultura","lat":45.348545925091216,"lng":-72.926278709916,"avgVisitMinutes":66,"estimatedCostEur":5,"score":1.6869097999261449},{"id":"ange-gardien_6522","citySlug":"ange-gardien","name":"Parque Central","category":"ocio","lat":45.35647294771257,"lng":-72.94110450559937,"avgVisitMinutes":28,"estimatedCostEur":22,"score":1.0159674208370382},{"id":"ange-gardien_4206","citySlug":"ange-gardien","name":"Murallas de Ange-Gardien","category":"historia","lat":45.35524352874598,"lng":-72.92777633110822,"avgVisitMinutes":66,"estimatedCostEur":10,"score":3.3618953498458453},{"id":"ange-gardien_6879","citySlug":"ange-gardien","name":"Mirador de Ange-Gardien","category":"mirador","lat":45.35590609594252,"lng":-72.94184988223847,"avgVisitMinutes":48,"estimatedCostEur":6,"score":4.333521287281526},{"id":"annapolis-royal_1745","citySlug":"annapolis-royal","name":"Iglesia de Annapolis Royal","category":"historia","lat":44.73783541374187,"lng":-65.52591537694333,"avgVisitMinutes":49,"estimatedCostEur":25,"score":3.4741197092165357},{"id":"annapolis-royal_8537","citySlug":"annapolis-royal","name":"Mercado Gastronómico","category":"gastronomia","lat":44.74720162269084,"lng":-65.51829513903826,"avgVisitMinutes":71,"estimatedCostEur":15,"score":3.3969400287990577},{"id":"annapolis-royal_5607","citySlug":"annapolis-royal","name":"Mirador de Annapolis Royal","category":"mirador","lat":44.74400722269512,"lng":-65.52597183087578,"avgVisitMinutes":86,"estimatedCostEur":8,"score":3.7994973227683975},{"id":"annapolis-royal_6046","citySlug":"annapolis-royal","name":"Castillo de Annapolis Royal","category":"historia","lat":44.733493877929256,"lng":-65.50959797237932,"avgVisitMinutes":24,"estimatedCostEur":2,"score":0.5580449905307356},{"id":"annapolis-royal_4625","citySlug":"annapolis-royal","name":"Centro Histórico","category":"historia","lat":44.733695128889615,"lng":-65.50944943401305,"avgVisitMinutes":47,"estimatedCostEur":16,"score":4.4315825771897766},{"id":"annapolis-royal_7903","citySlug":"annapolis-royal","name":"Paseo Principal","category":"ocio","lat":44.74062310673556,"lng":-65.52324879288868,"avgVisitMinutes":33,"estimatedCostEur":18,"score":2.03952771889501},{"id":"annapolis-royal_6815","citySlug":"annapolis-royal","name":"Museo Local de Annapolis Royal","category":"historia","lat":44.736593648150816,"lng":-65.52466399497386,"avgVisitMinutes":45,"estimatedCostEur":11,"score":2.0462083277341043},{"id":"annapolis-royal_8279","citySlug":"annapolis-royal","name":"Paseo Principal","category":"ocio","lat":44.74011459205857,"lng":-65.51909127360318,"avgVisitMinutes":54,"estimatedCostEur":4,"score":3.439428497630873},{"id":"annapolis-royal_2880","citySlug":"annapolis-royal","name":"Parque Central","category":"ocio","lat":44.74111033226884,"lng":-65.51513490228855,"avgVisitMinutes":51,"estimatedCostEur":4,"score":4.7230280959645965},{"id":"annapolis-royal_6133","citySlug":"annapolis-royal","name":"Parque Central","category":"ocio","lat":44.74256074389876,"lng":-65.51887082560835,"avgVisitMinutes":45,"estimatedCostEur":24,"score":1.3230268686139077},{"id":"annapolis-royal_4279","citySlug":"annapolis-royal","name":"Mercado Gastronómico","category":"gastronomia","lat":44.74878106967872,"lng":-65.51529094619008,"avgVisitMinutes":81,"estimatedCostEur":14,"score":4.752489399004423},{"id":"annapolis-royal_1640","citySlug":"annapolis-royal","name":"Playa Norte","category":"playa","lat":44.74213434131391,"lng":-65.51201617567055,"avgVisitMinutes":40,"estimatedCostEur":2,"score":4.28032059985505},{"id":"anten-mills_6580","citySlug":"anten-mills","name":"Mercado Gastronómico","category":"gastronomia","lat":44.48787372726079,"lng":-79.81916772630352,"avgVisitMinutes":85,"estimatedCostEur":3,"score":3.293442057927315},{"id":"anten-mills_3030","citySlug":"anten-mills","name":"Vista Alta de Anten Mills","category":"mirador","lat":44.47999574837225,"lng":-79.82116160535935,"avgVisitMinutes":88,"estimatedCostEur":13,"score":4.516975823335031},{"id":"anten-mills_1925","citySlug":"anten-mills","name":"Playa Sur","category":"playa","lat":44.47555274958041,"lng":-79.82380783467218,"avgVisitMinutes":57,"estimatedCostEur":0,"score":4.321293201344876},{"id":"anten-mills_9897","citySlug":"anten-mills","name":"Mirador de Anten Mills","category":"mirador","lat":44.477202666926324,"lng":-79.81463001564448,"avgVisitMinutes":25,"estimatedCostEur":15,"score":1.7332171429712584},{"id":"anten-mills_4904","citySlug":"anten-mills","name":"Centro de Arte de Anten Mills","category":"cultura","lat":44.489392130457816,"lng":-79.81849314863148,"avgVisitMinutes":84,"estimatedCostEur":4,"score":0.6740980299603225},{"id":"anten-mills_2734","citySlug":"anten-mills","name":"Zona Comercial","category":"ocio","lat":44.47275858303441,"lng":-79.8081891776671,"avgVisitMinutes":90,"estimatedCostEur":0,"score":2.262292497078495},{"id":"anten-mills_4872","citySlug":"anten-mills","name":"Playa Central","category":"playa","lat":44.482045240265336,"lng":-79.81241814627718,"avgVisitMinutes":84,"estimatedCostEur":2,"score":3.989259876862298},{"id":"antigonish_7322","citySlug":"antigonish","name":"Murallas de Antigonish","category":"historia","lat":45.61265179611453,"lng":-61.99821297750019,"avgVisitMinutes":60,"estimatedCostEur":0,"score":2.248818515536873},{"id":"antigonish_8949","citySlug":"antigonish","name":"Vista Alta de Antigonish","category":"mirador","lat":45.62533622510604,"lng":-61.98995434425114,"avgVisitMinutes":80,"estimatedCostEur":21,"score":1.460605199362681},{"id":"antigonish_8415","citySlug":"antigonish","name":"Vista Alta de Antigonish","category":"mirador","lat":45.62615948851377,"lng":-62.00763703829293,"avgVisitMinutes":60,"estimatedCostEur":14,"score":0.7567512332128132},{"id":"antigonish_4466","citySlug":"antigonish","name":"Mirador de Antigonish","category":"mirador","lat":45.61640507253942,"lng":-62.00072443846746,"avgVisitMinutes":77,"estimatedCostEur":11,"score":3.849838924791562},{"id":"antigonish_1846","citySlug":"antigonish","name":"Museo Cultural de Antigonish","category":"cultura","lat":45.61593977631483,"lng":-61.99866306351102,"avgVisitMinutes":60,"estimatedCostEur":18,"score":1.680625677073522},{"id":"antigonish_8624","citySlug":"antigonish","name":"Restaurante Típico de Antigonish","category":"gastronomia","lat":45.60964496367641,"lng":-61.99153759125867,"avgVisitMinutes":44,"estimatedCostEur":12,"score":2.247711700172351},{"id":"antigonish_8338","citySlug":"antigonish","name":"Vista Alta de Antigonish","category":"mirador","lat":45.61622944076613,"lng":-61.99510626955386,"avgVisitMinutes":84,"estimatedCostEur":16,"score":4.051337960693802},{"id":"anzac_9143","citySlug":"anzac","name":"Ruta de Tapas","category":"gastronomia","lat":56.4599120025283,"lng":-111.02593714849893,"avgVisitMinutes":38,"estimatedCostEur":25,"score":2.4343431834915847},{"id":"anzac_3517","citySlug":"anzac","name":"Museo Cultural de Anzac","category":"cultura","lat":56.44313758786984,"lng":-111.04211739055022,"avgVisitMinutes":85,"estimatedCostEur":23,"score":1.5824626583145855},{"id":"anzac_1918","citySlug":"anzac","name":"Ruta de Tapas","category":"gastronomia","lat":56.458045676500184,"lng":-111.0354790540137,"avgVisitMinutes":57,"estimatedCostEur":23,"score":3.069359868911977},{"id":"anzac_7318","citySlug":"anzac","name":"Restaurante Típico de Anzac","category":"gastronomia","lat":56.45716143296325,"lng":-111.0303521244341,"avgVisitMinutes":21,"estimatedCostEur":6,"score":3.6457819525420248},{"id":"anzac_7193","citySlug":"anzac","name":"Galería de Arte","category":"cultura","lat":56.45989126903844,"lng":-111.0402188204942,"avgVisitMinutes":52,"estimatedCostEur":16,"score":0.9333939701908296},{"id":"anzac_6097","citySlug":"anzac","name":"Murallas de Anzac","category":"historia","lat":56.44349395018348,"lng":-111.03090032898707,"avgVisitMinutes":47,"estimatedCostEur":24,"score":1.8306939885729645},{"id":"anzac_8303","citySlug":"anzac","name":"Paseo Principal","category":"ocio","lat":56.440693800512186,"lng":-111.03053810221705,"avgVisitMinutes":90,"estimatedCostEur":8,"score":2.6368866419100754},{"id":"anzac_1853","citySlug":"anzac","name":"Punto Panorámico","category":"mirador","lat":56.44914205239137,"lng":-111.04031042123401,"avgVisitMinutes":29,"estimatedCostEur":13,"score":4.252921527476344},{"id":"anzac_6474","citySlug":"anzac","name":"Ruta de Tapas","category":"gastronomia","lat":56.45876228172303,"lng":-111.03566611139549,"avgVisitMinutes":41,"estimatedCostEur":25,"score":2.968155343549144},{"id":"anzac_4258","citySlug":"anzac","name":"Vista Alta de Anzac","category":"mirador","lat":56.44147070164229,"lng":-111.03648030882522,"avgVisitMinutes":69,"estimatedCostEur":12,"score":3.292487211663587},{"id":"anzac_1764","citySlug":"anzac","name":"Centro Histórico","category":"historia","lat":56.45740261367406,"lng":-111.03824897294784,"avgVisitMinutes":57,"estimatedCostEur":2,"score":4.34076509795978},{"id":"appleton_4750","citySlug":"appleton","name":"Iglesia de Appleton","category":"historia","lat":48.992097291232135,"lng":-54.87479670818973,"avgVisitMinutes":50,"estimatedCostEur":1,"score":1.3856199158858953},{"id":"appleton_4852","citySlug":"appleton","name":"Zona Comercial","category":"ocio","lat":48.992647504611966,"lng":-54.87213633619386,"avgVisitMinutes":74,"estimatedCostEur":12,"score":1.4712331252584354},{"id":"appleton_4489","citySlug":"appleton","name":"Zona Comercial","category":"ocio","lat":48.979096733424285,"lng":-54.86646538580953,"avgVisitMinutes":78,"estimatedCostEur":9,"score":2.73611710908711},{"id":"appleton_1352","citySlug":"appleton","name":"Museo Cultural de Appleton","category":"cultura","lat":48.974581286002454,"lng":-54.862662974072585,"avgVisitMinutes":58,"estimatedCostEur":4,"score":2.257398607036119},{"id":"appleton_9911","citySlug":"appleton","name":"Mirador de Appleton","category":"mirador","lat":48.984628127450065,"lng":-54.864330085823354,"avgVisitMinutes":88,"estimatedCostEur":17,"score":3.8920738496132654},{"id":"appleton_8927","citySlug":"appleton","name":"Parque Central","category":"ocio","lat":48.98014950403021,"lng":-54.865812005374416,"avgVisitMinutes":59,"estimatedCostEur":11,"score":2.1214036009558024},{"id":"arborg_8887","citySlug":"arborg","name":"Parque Central","category":"ocio","lat":50.912425388001196,"lng":-97.21802855474074,"avgVisitMinutes":48,"estimatedCostEur":16,"score":2.460848893662271},{"id":"arborg_3481","citySlug":"arborg","name":"Museo Cultural de Arborg","category":"cultura","lat":50.899576702231904,"lng":-97.21342039527643,"avgVisitMinutes":31,"estimatedCostEur":2,"score":3.2318409732101587},{"id":"arborg_2222","citySlug":"arborg","name":"Murallas de Arborg","category":"historia","lat":50.90495820485276,"lng":-97.22127829812983,"avgVisitMinutes":49,"estimatedCostEur":13,"score":4.497961670309064},{"id":"arborg_5064","citySlug":"arborg","name":"Zona Comercial","category":"ocio","lat":50.910604488291796,"lng":-97.22181728698541,"avgVisitMinutes":58,"estimatedCostEur":4,"score":3.2583554410949773},{"id":"arborg_6861","citySlug":"arborg","name":"Centro de Arte de Arborg","category":"cultura","lat":50.91242893268972,"lng":-97.2106438755168,"avgVisitMinutes":43,"estimatedCostEur":25,"score":1.8899748696679526},{"id":"ardrossan_2923","citySlug":"ardrossan","name":"Galería de Arte","category":"cultura","lat":53.54659928755539,"lng":-113.12631162212001,"avgVisitMinutes":69,"estimatedCostEur":25,"score":4.363374480413863},{"id":"ardrossan_6162","citySlug":"ardrossan","name":"Ruta de Tapas","category":"gastronomia","lat":53.5455547761512,"lng":-113.13770876523965,"avgVisitMinutes":22,"estimatedCostEur":11,"score":0.5631591166241776},{"id":"ardrossan_8474","citySlug":"ardrossan","name":"Punto Panorámico","category":"mirador","lat":53.543834979259564,"lng":-113.14178868144049,"avgVisitMinutes":57,"estimatedCostEur":6,"score":1.572170197396918},{"id":"ardrossan_6370","citySlug":"ardrossan","name":"Mercado Gastronómico","category":"gastronomia","lat":53.54851037228805,"lng":-113.13744547686684,"avgVisitMinutes":49,"estimatedCostEur":9,"score":1.7136924157464333},{"id":"ardrossan_3123","citySlug":"ardrossan","name":"Playa Central","category":"playa","lat":53.554990177549804,"lng":-113.14436371141214,"avgVisitMinutes":30,"estimatedCostEur":9,"score":3.8589881176850547},{"id":"ardrossan_4510","citySlug":"ardrossan","name":"Playa Norte","category":"playa","lat":53.555901972765035,"lng":-113.13787198766173,"avgVisitMinutes":56,"estimatedCostEur":19,"score":2.2740987650459443},{"id":"ardrossan_1373","citySlug":"ardrossan","name":"Vista Alta de Ardrossan","category":"mirador","lat":53.54633250015178,"lng":-113.13202209565188,"avgVisitMinutes":31,"estimatedCostEur":20,"score":4.57219539753589},{"id":"armstrong_6715","citySlug":"armstrong","name":"Zona Comercial","category":"ocio","lat":50.447523165174395,"lng":-119.20398332940411,"avgVisitMinutes":26,"estimatedCostEur":9,"score":0.8921667238851054},{"id":"armstrong_1589","citySlug":"armstrong","name":"Mirador de Armstrong","category":"mirador","lat":50.44054776313293,"lng":-119.19797366361902,"avgVisitMinutes":39,"estimatedCostEur":19,"score":0.8489542091986365},{"id":"armstrong_5857","citySlug":"armstrong","name":"Centro de Arte de Armstrong","category":"cultura","lat":50.45228283758919,"lng":-119.19360098313106,"avgVisitMinutes":63,"estimatedCostEur":16,"score":3.1011184154714275},{"id":"armstrong_2380","citySlug":"armstrong","name":"Ruta de Tapas","category":"gastronomia","lat":50.44745212551023,"lng":-119.20263846320807,"avgVisitMinutes":36,"estimatedCostEur":0,"score":0.6338754235205234},{"id":"armstrong_9096","citySlug":"armstrong","name":"Museo Cultural de Armstrong","category":"cultura","lat":50.459127472538235,"lng":-119.19405058258874,"avgVisitMinutes":41,"estimatedCostEur":3,"score":2.606555693129337},{"id":"armstrong_2694","citySlug":"armstrong","name":"Centro de Arte de Armstrong","category":"cultura","lat":50.45130255738261,"lng":-119.19381201081893,"avgVisitMinutes":45,"estimatedCostEur":20,"score":2.556028732978563},{"id":"armstrong_7903","citySlug":"armstrong","name":"Playa Sur","category":"playa","lat":50.45758185552458,"lng":-119.19999475115463,"avgVisitMinutes":60,"estimatedCostEur":5,"score":0.8547185579430808},{"id":"armstrong_9915","citySlug":"armstrong","name":"Iglesia de Armstrong","category":"historia","lat":50.45734008703918,"lng":-119.19267412602544,"avgVisitMinutes":21,"estimatedCostEur":20,"score":1.4934713419093413},{"id":"armstrong_5363","citySlug":"armstrong","name":"Centro Histórico","category":"historia","lat":50.44609857054122,"lng":-119.19550638012812,"avgVisitMinutes":73,"estimatedCostEur":7,"score":3.579225123360639},{"id":"armstrong_4365","citySlug":"armstrong","name":"Ruta de Tapas","category":"gastronomia","lat":50.45592012918563,"lng":-119.20885494065145,"avgVisitMinutes":26,"estimatedCostEur":20,"score":4.345016336799128},{"id":"armstrong_9393","citySlug":"armstrong","name":"Paseo Principal","category":"ocio","lat":50.45306172600849,"lng":-119.19372600046819,"avgVisitMinutes":49,"estimatedCostEur":11,"score":1.1900764155451995},{"id":"armstrong_1418","citySlug":"armstrong","name":"Parque Central","category":"ocio","lat":50.449801637087944,"lng":-119.20950655328807,"avgVisitMinutes":41,"estimatedCostEur":0,"score":2.233164978156273},{"id":"arnold-s-cove_5254","citySlug":"arnold-s-cove","name":"Punto Panorámico","category":"mirador","lat":47.77456046636109,"lng":-53.988228737538776,"avgVisitMinutes":68,"estimatedCostEur":8,"score":4.906759569055883},{"id":"arnold-s-cove_4305","citySlug":"arnold-s-cove","name":"Ruta de Tapas","category":"gastronomia","lat":47.76571359953979,"lng":-53.995868916256306,"avgVisitMinutes":68,"estimatedCostEur":5,"score":4.587456707023058},{"id":"arnold-s-cove_8581","citySlug":"arnold-s-cove","name":"Centro de Arte de Arnold's Cove","category":"cultura","lat":47.76205200847084,"lng":-53.99171604509463,"avgVisitMinutes":79,"estimatedCostEur":7,"score":2.6425568622601676},{"id":"arnold-s-cove_1764","citySlug":"arnold-s-cove","name":"Teatro Municipal","category":"cultura","lat":47.765657871021574,"lng":-53.982066114389184,"avgVisitMinutes":66,"estimatedCostEur":6,"score":3.5940473596710545},{"id":"arnold-s-cove_4355","citySlug":"arnold-s-cove","name":"Vista Alta de Arnold's Cove","category":"mirador","lat":47.77098158798083,"lng":-53.98431187061188,"avgVisitMinutes":69,"estimatedCostEur":25,"score":3.2877388855389444},{"id":"arnold-s-cove_2015","citySlug":"arnold-s-cove","name":"Parque Central","category":"ocio","lat":47.77006256114356,"lng":-53.983750492228296,"avgVisitMinutes":50,"estimatedCostEur":10,"score":4.1023545514655355},{"id":"arnprior_3593","citySlug":"arnprior","name":"Punto Panorámico","category":"mirador","lat":45.42343980080357,"lng":-76.35938683205148,"avgVisitMinutes":28,"estimatedCostEur":6,"score":3.752673083954822},{"id":"arnprior_5142","citySlug":"arnprior","name":"Centro Histórico","category":"historia","lat":45.42392864129631,"lng":-76.33953360224032,"avgVisitMinutes":53,"estimatedCostEur":15,"score":0.5467671342044893},{"id":"arnprior_6970","citySlug":"arnprior","name":"Playa Sur","category":"playa","lat":45.43566351739984,"lng":-76.34736673071052,"avgVisitMinutes":38,"estimatedCostEur":13,"score":2.030730146226138},{"id":"arnprior_1826","citySlug":"arnprior","name":"Murallas de Arnprior","category":"historia","lat":45.4252052891543,"lng":-76.34773579031118,"avgVisitMinutes":67,"estimatedCostEur":10,"score":4.334665141938665},{"id":"arnprior_4370","citySlug":"arnprior","name":"Ruta de Tapas","category":"gastronomia","lat":45.44087370196251,"lng":-76.34456618655696,"avgVisitMinutes":33,"estimatedCostEur":4,"score":2.414942189444779},{"id":"arnprior_2565","citySlug":"arnprior","name":"Museo Local de Arnprior","category":"historia","lat":45.4305346771993,"lng":-76.34495413293396,"avgVisitMinutes":33,"estimatedCostEur":12,"score":4.167376546210027},{"id":"arnprior_9630","citySlug":"arnprior","name":"Galería de Arte","category":"cultura","lat":45.42404971556297,"lng":-76.3593559486382,"avgVisitMinutes":28,"estimatedCostEur":19,"score":3.245857413595665},{"id":"arnprior_9569","citySlug":"arnprior","name":"Vista Alta de Arnprior","category":"mirador","lat":45.43123453147633,"lng":-76.34581424364313,"avgVisitMinutes":78,"estimatedCostEur":20,"score":0.5136612952286489},{"id":"arnprior_4476","citySlug":"arnprior","name":"Ruta de Tapas","category":"gastronomia","lat":45.43791633396397,"lng":-76.34020826826848,"avgVisitMinutes":59,"estimatedCostEur":20,"score":4.374397209771949},{"id":"val-des-sources_6372","citySlug":"val-des-sources","name":"Mercado Gastronómico","category":"gastronomia","lat":45.77657094682002,"lng":-71.92777554299008,"avgVisitMinutes":83,"estimatedCostEur":9,"score":3.830468539052832},{"id":"val-des-sources_6326","citySlug":"val-des-sources","name":"Galería de Arte","category":"cultura","lat":45.77217587902922,"lng":-71.92546476834704,"avgVisitMinutes":43,"estimatedCostEur":9,"score":3.582935260507291},{"id":"val-des-sources_1922","citySlug":"val-des-sources","name":"Punto Panorámico","category":"mirador","lat":45.77313099959151,"lng":-71.92691330828343,"avgVisitMinutes":61,"estimatedCostEur":2,"score":4.556500762633571},{"id":"val-des-sources_4911","citySlug":"val-des-sources","name":"Teatro Municipal","category":"cultura","lat":45.767625412714935,"lng":-71.9232259172518,"avgVisitMinutes":21,"estimatedCostEur":19,"score":1.202991232908372},{"id":"val-des-sources_3841","citySlug":"val-des-sources","name":"Restaurante Típico de Val-des-Sources","category":"gastronomia","lat":45.767978400302766,"lng":-71.93386203958102,"avgVisitMinutes":58,"estimatedCostEur":14,"score":2.8103517333935315},{"id":"val-des-sources_5544","citySlug":"val-des-sources","name":"Playa Norte","category":"playa","lat":45.75952853797465,"lng":-71.93304855989614,"avgVisitMinutes":32,"estimatedCostEur":22,"score":4.422067486227027},{"id":"val-des-sources_3063","citySlug":"val-des-sources","name":"Vista Alta de Val-des-Sources","category":"mirador","lat":45.77184572463134,"lng":-71.94047188243118,"avgVisitMinutes":56,"estimatedCostEur":2,"score":0.9504307798465536},{"id":"val-des-sources_9346","citySlug":"val-des-sources","name":"Centro Histórico","category":"historia","lat":45.76830666418524,"lng":-71.94168991134939,"avgVisitMinutes":58,"estimatedCostEur":9,"score":1.7078379843749194},{"id":"val-des-sources_4802","citySlug":"val-des-sources","name":"Parque Central","category":"ocio","lat":45.76855603564628,"lng":-71.93852343931664,"avgVisitMinutes":52,"estimatedCostEur":19,"score":1.4062881833138734},{"id":"val-des-sources_7391","citySlug":"val-des-sources","name":"Playa Sur","category":"playa","lat":45.76284482502211,"lng":-71.94092454068694,"avgVisitMinutes":59,"estimatedCostEur":3,"score":1.6156851341755456},{"id":"val-des-sources_2736","citySlug":"val-des-sources","name":"Playa Norte","category":"playa","lat":45.77042841217187,"lng":-71.93414685128779,"avgVisitMinutes":38,"estimatedCostEur":16,"score":4.136737500875444},{"id":"val-des-sources_8808","citySlug":"val-des-sources","name":"Mercado Gastronómico","category":"gastronomia","lat":45.76728389032757,"lng":-71.92534341655073,"avgVisitMinutes":59,"estimatedCostEur":18,"score":2.508245364002406},{"id":"ashcroft_3275","citySlug":"ashcroft","name":"Centro de Arte de Ashcroft","category":"cultura","lat":50.72602338452789,"lng":-121.28620815791585,"avgVisitMinutes":85,"estimatedCostEur":11,"score":1.918101750161367},{"id":"ashcroft_4054","citySlug":"ashcroft","name":"Zona Comercial","category":"ocio","lat":50.71870867169362,"lng":-121.28731153743801,"avgVisitMinutes":74,"estimatedCostEur":18,"score":2.9848974089931435},{"id":"ashcroft_2219","citySlug":"ashcroft","name":"Museo Local de Ashcroft","category":"historia","lat":50.71552847645152,"lng":-121.27928848903538,"avgVisitMinutes":36,"estimatedCostEur":15,"score":3.101021770748667},{"id":"ashcroft_6886","citySlug":"ashcroft","name":"Mirador de Ashcroft","category":"mirador","lat":50.72204894814393,"lng":-121.28793724590038,"avgVisitMinutes":54,"estimatedCostEur":11,"score":0.997826580875421},{"id":"ashcroft_6847","citySlug":"ashcroft","name":"Paseo Principal","category":"ocio","lat":50.71657412861388,"lng":-121.28977016426128,"avgVisitMinutes":81,"estimatedCostEur":22,"score":1.9047460671023686},{"id":"ashcroft_8847","citySlug":"ashcroft","name":"Murallas de Ashcroft","category":"historia","lat":50.73369228308758,"lng":-121.28532934237319,"avgVisitMinutes":22,"estimatedCostEur":12,"score":2.431778450875975},{"id":"ashcroft_6891","citySlug":"ashcroft","name":"Parque Central","category":"ocio","lat":50.71813555576663,"lng":-121.28636153077264,"avgVisitMinutes":25,"estimatedCostEur":20,"score":2.168071378558923},{"id":"ashcroft_8330","citySlug":"ashcroft","name":"Museo Cultural de Ashcroft","category":"cultura","lat":50.72232858990336,"lng":-121.27410336482397,"avgVisitMinutes":33,"estimatedCostEur":10,"score":3.7020541336847894},{"id":"ashcroft_7830","citySlug":"ashcroft","name":"Galería de Arte","category":"cultura","lat":50.724560420538445,"lng":-121.28236815176265,"avgVisitMinutes":79,"estimatedCostEur":25,"score":0.7734790322020203},{"id":"ashton_1479","citySlug":"ashton","name":"Punto Panorámico","category":"mirador","lat":45.14079449948958,"lng":-76.02972620512399,"avgVisitMinutes":37,"estimatedCostEur":11,"score":3.7169279230564722},{"id":"ashton_1579","citySlug":"ashton","name":"Punto Panorámico","category":"mirador","lat":45.15931938750182,"lng":-76.02569707917135,"avgVisitMinutes":42,"estimatedCostEur":14,"score":2.4297496862135093},{"id":"ashton_9798","citySlug":"ashton","name":"Playa Norte","category":"playa","lat":45.145687208108605,"lng":-76.02524002320114,"avgVisitMinutes":34,"estimatedCostEur":6,"score":1.6635180473335416},{"id":"ashton_3637","citySlug":"ashton","name":"Paseo Principal","category":"ocio","lat":45.14214146415917,"lng":-76.03074805233413,"avgVisitMinutes":31,"estimatedCostEur":23,"score":2.442196516560904},{"id":"ashton_7554","citySlug":"ashton","name":"Galería de Arte","category":"cultura","lat":45.14565236876505,"lng":-76.02395330545723,"avgVisitMinutes":59,"estimatedCostEur":6,"score":1.638548451233859},{"id":"ashton_6987","citySlug":"ashton","name":"Centro Histórico","category":"historia","lat":45.14204223966594,"lng":-76.02554278551331,"avgVisitMinutes":67,"estimatedCostEur":0,"score":1.065100841211402},{"id":"assiniboia_8535","citySlug":"assiniboia","name":"Teatro Municipal","category":"cultura","lat":49.642590275945864,"lng":-105.98756373786586,"avgVisitMinutes":42,"estimatedCostEur":15,"score":2.601887159861689},{"id":"assiniboia_7557","citySlug":"assiniboia","name":"Vista Alta de Assiniboia","category":"mirador","lat":49.631595500880046,"lng":-105.9927393602439,"avgVisitMinutes":37,"estimatedCostEur":7,"score":1.0141236211514926},{"id":"assiniboia_9603","citySlug":"assiniboia","name":"Museo Local de Assiniboia","category":"historia","lat":49.62887011895062,"lng":-105.9795441602366,"avgVisitMinutes":60,"estimatedCostEur":6,"score":0.8377225335778782},{"id":"assiniboia_3943","citySlug":"assiniboia","name":"Ruta de Tapas","category":"gastronomia","lat":49.638424400558485,"lng":-105.99269332782293,"avgVisitMinutes":60,"estimatedCostEur":20,"score":0.5983646887123417},{"id":"assiniboia_6482","citySlug":"assiniboia","name":"Paseo Principal","category":"ocio","lat":49.63373188890457,"lng":-105.99050322940101,"avgVisitMinutes":20,"estimatedCostEur":17,"score":3.0833991873162625},{"id":"assiniboia_7029","citySlug":"assiniboia","name":"Playa Central","category":"playa","lat":49.62942768950196,"lng":-105.98888645947748,"avgVisitMinutes":76,"estimatedCostEur":10,"score":0.5404997758869519},{"id":"assiniboia_2584","citySlug":"assiniboia","name":"Mirador de Assiniboia","category":"mirador","lat":49.64157154406845,"lng":-105.98504868216642,"avgVisitMinutes":83,"estimatedCostEur":4,"score":3.3301556302022606},{"id":"assiniboia_4619","citySlug":"assiniboia","name":"Parque Central","category":"ocio","lat":49.63105332039795,"lng":-105.98803568144173,"avgVisitMinutes":70,"estimatedCostEur":9,"score":2.4095685326985894},{"id":"assiniboia_8746","citySlug":"assiniboia","name":"Restaurante Típico de Assiniboia","category":"gastronomia","lat":49.643184163902085,"lng":-105.98570813936763,"avgVisitMinutes":32,"estimatedCostEur":20,"score":0.5987839730420155},{"id":"assiniboia_8990","citySlug":"assiniboia","name":"Teatro Municipal","category":"cultura","lat":49.6430478459951,"lng":-105.98435885173384,"avgVisitMinutes":41,"estimatedCostEur":15,"score":1.9487528207150846},{"id":"assiniboia_6766","citySlug":"assiniboia","name":"Museo Cultural de Assiniboia","category":"cultura","lat":49.64127853611673,"lng":-105.98368361158322,"avgVisitMinutes":85,"estimatedCostEur":0,"score":2.6999383344157986},{"id":"assiniboia_6314","citySlug":"assiniboia","name":"Parque Central","category":"ocio","lat":49.62606481773557,"lng":-105.9866189763697,"avgVisitMinutes":26,"estimatedCostEur":18,"score":1.1142660958328154},{"id":"athabasca_4933","citySlug":"athabasca","name":"Paseo Principal","category":"ocio","lat":54.71130424075767,"lng":-113.27849664570464,"avgVisitMinutes":47,"estimatedCostEur":19,"score":1.855606029328462},{"id":"athabasca_8646","citySlug":"athabasca","name":"Galería de Arte","category":"cultura","lat":54.72317085114666,"lng":-113.2889036286109,"avgVisitMinutes":61,"estimatedCostEur":17,"score":4.0627396368296615},{"id":"athabasca_6696","citySlug":"athabasca","name":"Paseo Principal","category":"ocio","lat":54.7247983524799,"lng":-113.29512785445682,"avgVisitMinutes":44,"estimatedCostEur":20,"score":4.12840697862438},{"id":"athabasca_8956","citySlug":"athabasca","name":"Zona Comercial","category":"ocio","lat":54.715675221255125,"lng":-113.28421623305256,"avgVisitMinutes":59,"estimatedCostEur":25,"score":3.2197872155717535},{"id":"athabasca_5770","citySlug":"athabasca","name":"Mercado Gastronómico","category":"gastronomia","lat":54.71960140500955,"lng":-113.28534298881027,"avgVisitMinutes":47,"estimatedCostEur":20,"score":2.3069658139871265},{"id":"athabasca_3167","citySlug":"athabasca","name":"Playa Sur","category":"playa","lat":54.72387767124969,"lng":-113.28429327310242,"avgVisitMinutes":53,"estimatedCostEur":4,"score":4.08472995770615},{"id":"athabasca_9205","citySlug":"athabasca","name":"Museo Local de Athabasca","category":"historia","lat":54.71276792681816,"lng":-113.2785564717917,"avgVisitMinutes":40,"estimatedCostEur":10,"score":1.3026716139624048},{"id":"athabasca_9297","citySlug":"athabasca","name":"Restaurante Típico de Athabasca","category":"gastronomia","lat":54.723169950996166,"lng":-113.28004411095213,"avgVisitMinutes":86,"estimatedCostEur":18,"score":0.7114393663263303},{"id":"athens_9829","citySlug":"athens","name":"Zona Comercial","category":"ocio","lat":44.631590348438664,"lng":-75.94196989034604,"avgVisitMinutes":29,"estimatedCostEur":22,"score":2.46113754606244},{"id":"athens_6734","citySlug":"athens","name":"Playa Sur","category":"playa","lat":44.6257119046593,"lng":-75.95506444447155,"avgVisitMinutes":28,"estimatedCostEur":13,"score":2.6020093217250655},{"id":"athens_2023","citySlug":"athens","name":"Ruta de Tapas","category":"gastronomia","lat":44.64266159447292,"lng":-75.94086774436917,"avgVisitMinutes":80,"estimatedCostEur":22,"score":1.1030171924091883},{"id":"athens_5256","citySlug":"athens","name":"Parque Central","category":"ocio","lat":44.63279466375867,"lng":-75.94520799866532,"avgVisitMinutes":36,"estimatedCostEur":19,"score":3.1972374415651217},{"id":"athens_8099","citySlug":"athens","name":"Vista Alta de Athens","category":"mirador","lat":44.637967354720615,"lng":-75.95489686540631,"avgVisitMinutes":84,"estimatedCostEur":2,"score":1.43675663641369},{"id":"athens_1799","citySlug":"athens","name":"Centro Histórico","category":"historia","lat":44.6264167590911,"lng":-75.94257053966652,"avgVisitMinutes":30,"estimatedCostEur":2,"score":1.2964612399046864},{"id":"athens_3487","citySlug":"athens","name":"Restaurante Típico de Athens","category":"gastronomia","lat":44.631417073362506,"lng":-75.9512823489557,"avgVisitMinutes":21,"estimatedCostEur":19,"score":0.9313069771710103},{"id":"athens_6424","citySlug":"athens","name":"Restaurante Típico de Athens","category":"gastronomia","lat":44.62990020627809,"lng":-75.95380946659142,"avgVisitMinutes":84,"estimatedCostEur":14,"score":1.3539412769011296},{"id":"athens_8433","citySlug":"athens","name":"Murallas de Athens","category":"historia","lat":44.625128282489186,"lng":-75.94377139025482,"avgVisitMinutes":74,"estimatedCostEur":17,"score":3.626736681935993},{"id":"athens_5204","citySlug":"athens","name":"Parque Central","category":"ocio","lat":44.633605085272364,"lng":-75.94153192911743,"avgVisitMinutes":76,"estimatedCostEur":17,"score":0.7168403665566092},{"id":"atikokan_5686","citySlug":"atikokan","name":"Galería de Arte","category":"cultura","lat":48.76157869145846,"lng":-91.62033728879983,"avgVisitMinutes":37,"estimatedCostEur":23,"score":4.736919134669954},{"id":"atikokan_4615","citySlug":"atikokan","name":"Teatro Municipal","category":"cultura","lat":48.76163177653555,"lng":-91.62005021975259,"avgVisitMinutes":27,"estimatedCostEur":17,"score":4.92731635098998},{"id":"atikokan_7282","citySlug":"atikokan","name":"Mercado Gastronómico","category":"gastronomia","lat":48.763411322570676,"lng":-91.62972342148693,"avgVisitMinutes":77,"estimatedCostEur":19,"score":0.5483150714409959},{"id":"atikokan_6942","citySlug":"atikokan","name":"Paseo Principal","category":"ocio","lat":48.764660118329104,"lng":-91.62548157204505,"avgVisitMinutes":74,"estimatedCostEur":17,"score":0.6966726555639862},{"id":"atikokan_9671","citySlug":"atikokan","name":"Restaurante Típico de Atikokan","category":"gastronomia","lat":48.75827384259149,"lng":-91.62307502443804,"avgVisitMinutes":52,"estimatedCostEur":7,"score":1.1601467880124223},{"id":"atikokan_1463","citySlug":"atikokan","name":"Mercado Gastronómico","category":"gastronomia","lat":48.74757672624997,"lng":-91.62868505223416,"avgVisitMinutes":69,"estimatedCostEur":23,"score":4.174447409271436},{"id":"atikokan_3019","citySlug":"atikokan","name":"Teatro Municipal","category":"cultura","lat":48.764875181643745,"lng":-91.62099663257814,"avgVisitMinutes":82,"estimatedCostEur":19,"score":4.571030598601439},{"id":"atikokan_8039","citySlug":"atikokan","name":"Murallas de Atikokan","category":"historia","lat":48.76228943150037,"lng":-91.62868612167176,"avgVisitMinutes":41,"estimatedCostEur":9,"score":1.3227707337555787},{"id":"atikokan_8273","citySlug":"atikokan","name":"Castillo de Atikokan","category":"historia","lat":48.75367205355861,"lng":-91.62035927762834,"avgVisitMinutes":37,"estimatedCostEur":3,"score":2.9715231020421666},{"id":"atlin_8408","citySlug":"atlin","name":"Castillo de Atlin","category":"historia","lat":59.57269692311446,"lng":-133.68234247271604,"avgVisitMinutes":80,"estimatedCostEur":0,"score":3.5658793623986047},{"id":"atlin_1447","citySlug":"atlin","name":"Parque Central","category":"ocio","lat":59.5764710444582,"lng":-133.68654471174764,"avgVisitMinutes":35,"estimatedCostEur":3,"score":0.7518537362789159},{"id":"atlin_1547","citySlug":"atlin","name":"Centro de Arte de Atlin","category":"cultura","lat":59.57673657439081,"lng":-133.69775841126074,"avgVisitMinutes":90,"estimatedCostEur":18,"score":2.615418180346237},{"id":"atlin_9941","citySlug":"atlin","name":"Punto Panorámico","category":"mirador","lat":59.58158316548193,"lng":-133.68000953519032,"avgVisitMinutes":46,"estimatedCostEur":14,"score":4.325669913317747},{"id":"atlin_5416","citySlug":"atlin","name":"Mirador de Atlin","category":"mirador","lat":59.57190314042041,"lng":-133.69071816100674,"avgVisitMinutes":73,"estimatedCostEur":2,"score":1.074048998498958},{"id":"attawapiskat_9233","citySlug":"attawapiskat","name":"Paseo Principal","category":"ocio","lat":52.92380054230685,"lng":-82.41697356421744,"avgVisitMinutes":66,"estimatedCostEur":21,"score":4.036842531920341},{"id":"attawapiskat_7653","citySlug":"attawapiskat","name":"Centro Histórico","category":"historia","lat":52.9328186679968,"lng":-82.41659864134891,"avgVisitMinutes":73,"estimatedCostEur":5,"score":2.8955948486704965},{"id":"attawapiskat_4280","citySlug":"attawapiskat","name":"Zona Comercial","category":"ocio","lat":52.91807995140723,"lng":-82.42497024664819,"avgVisitMinutes":63,"estimatedCostEur":4,"score":0.8743036770837376},{"id":"attawapiskat_1355","citySlug":"attawapiskat","name":"Paseo Principal","category":"ocio","lat":52.93229567696775,"lng":-82.40898031450784,"avgVisitMinutes":45,"estimatedCostEur":7,"score":1.056565761108732},{"id":"attawapiskat_6983","citySlug":"attawapiskat","name":"Playa Central","category":"playa","lat":52.929744902084344,"lng":-82.42237276505139,"avgVisitMinutes":20,"estimatedCostEur":4,"score":3.936186621043886},{"id":"attawapiskat_1438","citySlug":"attawapiskat","name":"Paseo Principal","category":"ocio","lat":52.933785590829046,"lng":-82.42571582563869,"avgVisitMinutes":73,"estimatedCostEur":14,"score":2.0183030853124713},{"id":"attawapiskat_4843","citySlug":"attawapiskat","name":"Parque Central","category":"ocio","lat":52.92676503477156,"lng":-82.41845508259976,"avgVisitMinutes":63,"estimatedCostEur":10,"score":4.330215026429954},{"id":"attawapiskat_2939","citySlug":"attawapiskat","name":"Murallas de Attawapiskat","category":"historia","lat":52.93499402260037,"lng":-82.41612453815205,"avgVisitMinutes":74,"estimatedCostEur":1,"score":1.7680702210643269},{"id":"attawapiskat_3162","citySlug":"attawapiskat","name":"Ruta de Tapas","category":"gastronomia","lat":52.93607232522317,"lng":-82.4223511258284,"avgVisitMinutes":51,"estimatedCostEur":8,"score":2.326450947658466},{"id":"aupaluk_9885","citySlug":"aupaluk","name":"Castillo de Aupaluk","category":"historia","lat":59.30111130119356,"lng":-69.58922592727004,"avgVisitMinutes":74,"estimatedCostEur":25,"score":3.256257006800581},{"id":"aupaluk_7864","citySlug":"aupaluk","name":"Castillo de Aupaluk","category":"historia","lat":59.30931210995231,"lng":-69.59807971084707,"avgVisitMinutes":43,"estimatedCostEur":21,"score":4.511826447062816},{"id":"aupaluk_1831","citySlug":"aupaluk","name":"Playa Sur","category":"playa","lat":59.29862715187172,"lng":-69.58957033466294,"avgVisitMinutes":82,"estimatedCostEur":21,"score":0.5815213833184483},{"id":"aupaluk_6584","citySlug":"aupaluk","name":"Iglesia de Aupaluk","category":"historia","lat":59.2966489586316,"lng":-69.59862860948496,"avgVisitMinutes":68,"estimatedCostEur":8,"score":2.772394773358119},{"id":"aupaluk_2240","citySlug":"aupaluk","name":"Zona Comercial","category":"ocio","lat":59.310342609874546,"lng":-69.60233848000615,"avgVisitMinutes":43,"estimatedCostEur":23,"score":4.423789370332275},{"id":"aupaluk_1325","citySlug":"aupaluk","name":"Galería de Arte","category":"cultura","lat":59.29497489023773,"lng":-69.60064989889405,"avgVisitMinutes":52,"estimatedCostEur":25,"score":3.3998838696260996},{"id":"aupaluk_2419","citySlug":"aupaluk","name":"Playa Central","category":"playa","lat":59.297170587798185,"lng":-69.59063733525562,"avgVisitMinutes":52,"estimatedCostEur":20,"score":1.8129179140421985},{"id":"aupaluk_8364","citySlug":"aupaluk","name":"Zona Comercial","category":"ocio","lat":59.310304294299435,"lng":-69.60634661021786,"avgVisitMinutes":69,"estimatedCostEur":7,"score":3.5704024801984637},{"id":"aupaluk_6387","citySlug":"aupaluk","name":"Centro de Arte de Aupaluk","category":"cultura","lat":59.297785539477395,"lng":-69.60458863688693,"avgVisitMinutes":46,"estimatedCostEur":7,"score":1.5812388003964375},{"id":"aupaluk_5208","citySlug":"aupaluk","name":"Zona Comercial","category":"ocio","lat":59.30943416563093,"lng":-69.58862076319629,"avgVisitMinutes":67,"estimatedCostEur":14,"score":3.835558866315266},{"id":"aupaluk_1974","citySlug":"aupaluk","name":"Ruta de Tapas","category":"gastronomia","lat":59.310258093788555,"lng":-69.60012149350504,"avgVisitMinutes":70,"estimatedCostEur":22,"score":1.6872536001692129},{"id":"aupaluk_6985","citySlug":"aupaluk","name":"Restaurante Típico de Aupaluk","category":"gastronomia","lat":59.309593176921425,"lng":-69.59482472786395,"avgVisitMinutes":32,"estimatedCostEur":1,"score":1.5120508625152378},{"id":"aurora_9726","citySlug":"aurora","name":"Centro Histórico","category":"historia","lat":43.991292238237314,"lng":-79.45975392447072,"avgVisitMinutes":66,"estimatedCostEur":12,"score":1.0378735374080226},{"id":"aurora_2993","citySlug":"aurora","name":"Castillo de Aurora","category":"historia","lat":44.00664364131423,"lng":-79.45959124776302,"avgVisitMinutes":26,"estimatedCostEur":25,"score":2.5273933860614077},