{"country":"CL","pois":[{"id":"yungay_6112","citySlug":"yungay","name":"Punto Panorámico","category":"mirador","lat":-37.11996969351785,"lng":-72.02300524844514,"avgVisitMinutes":58,"estimatedCostEur":3,"score":3.509369987354269},{"id":"yungay_2834","citySlug":"yungay","name":"Zona Comercial","category":"ocio","lat":-37.11981088958281,"lng":-72.01532357041262,"avgVisitMinutes":83,"estimatedCostEur":23,"score":3.9601590001041314},{"id":"yungay_3104","citySlug":"yungay","name":"Parque Central","category":"ocio","lat":-37.11380813069454,"lng":-72.0139468907146,"avgVisitMinutes":84,"estimatedCostEur":22,"score":1.8149356080110293},{"id":"yungay_1152","citySlug":"yungay","name":"Centro de Arte de Yungay","category":"cultura","lat":-37.127106935870415,"lng":-72.02257911432878,"avgVisitMinutes":77,"estimatedCostEur":22,"score":4.57465322289214},{"id":"yungay_3686","citySlug":"yungay","name":"Museo Local de Yungay","category":"historia","lat":-37.111906954956325,"lng":-72.02970988941996,"avgVisitMinutes":22,"estimatedCostEur":14,"score":1.1214941393984883},{"id":"yumbel_3476","citySlug":"yumbel","name":"Centro Histórico","category":"historia","lat":-37.09287721176186,"lng":-72.56393169563952,"avgVisitMinutes":27,"estimatedCostEur":3,"score":3.5732728324467695},{"id":"yumbel_8011","citySlug":"yumbel","name":"Vista Alta de Yumbel","category":"mirador","lat":-37.09076781141065,"lng":-72.55736955856094,"avgVisitMinutes":49,"estimatedCostEur":2,"score":3.0547130586875526},{"id":"yumbel_3270","citySlug":"yumbel","name":"Vista Alta de Yumbel","category":"mirador","lat":-37.10615559814906,"lng":-72.55426198649472,"avgVisitMinutes":32,"estimatedCostEur":20,"score":2.2222067340188896},{"id":"yumbel_2890","citySlug":"yumbel","name":"Restaurante Típico de Yumbel","category":"gastronomia","lat":-37.09203150280711,"lng":-72.55472330419673,"avgVisitMinutes":82,"estimatedCostEur":4,"score":3.6736477938069934},{"id":"yumbel_2882","citySlug":"yumbel","name":"Playa Sur","category":"playa","lat":-37.10149898023149,"lng":-72.56232656119148,"avgVisitMinutes":90,"estimatedCostEur":4,"score":3.6130567739017407},{"id":"yumbel_7352","citySlug":"yumbel","name":"Ruta de Tapas","category":"gastronomia","lat":-37.095638959397,"lng":-72.56697041018877,"avgVisitMinutes":76,"estimatedCostEur":17,"score":2.5731549714614532},{"id":"yumbel_2344","citySlug":"yumbel","name":"Restaurante Típico de Yumbel","category":"gastronomia","lat":-37.09152105423067,"lng":-72.5666893624498,"avgVisitMinutes":38,"estimatedCostEur":12,"score":2.0578653264253752},{"id":"yumbel_7858","citySlug":"yumbel","name":"Punto Panorámico","category":"mirador","lat":-37.10061156754412,"lng":-72.56324168038044,"avgVisitMinutes":59,"estimatedCostEur":6,"score":3.7045322253839394},{"id":"yumbel_2657","citySlug":"yumbel","name":"Playa Norte","category":"playa","lat":-37.10663631592771,"lng":-72.55581817897055,"avgVisitMinutes":75,"estimatedCostEur":12,"score":4.270070412632605},{"id":"yerbas-buenas_3977","citySlug":"yerbas-buenas","name":"Playa Central","category":"playa","lat":-35.745048886622726,"lng":-71.59522792091717,"avgVisitMinutes":64,"estimatedCostEur":15,"score":3.178953639010812},{"id":"yerbas-buenas_7428","citySlug":"yerbas-buenas","name":"Zona Comercial","category":"ocio","lat":-35.752982519291066,"lng":-71.5952543359178,"avgVisitMinutes":42,"estimatedCostEur":0,"score":3.428496516925899},{"id":"yerbas-buenas_1741","citySlug":"yerbas-buenas","name":"Mercado Gastronómico","category":"gastronomia","lat":-35.757722077664674,"lng":-71.59171623281584,"avgVisitMinutes":58,"estimatedCostEur":13,"score":1.1923298355828318},{"id":"yerbas-buenas_5040","citySlug":"yerbas-buenas","name":"Playa Central","category":"playa","lat":-35.75492334970546,"lng":-71.59495024564323,"avgVisitMinutes":23,"estimatedCostEur":24,"score":2.800969090940863},{"id":"yerbas-buenas_5963","citySlug":"yerbas-buenas","name":"Playa Sur","category":"playa","lat":-35.74251329802749,"lng":-71.5888104101468,"avgVisitMinutes":85,"estimatedCostEur":23,"score":4.192485311063046},{"id":"yerbas-buenas_9164","citySlug":"yerbas-buenas","name":"Murallas de Yerbas Buenas","category":"historia","lat":-35.74518853598643,"lng":-71.5775742799129,"avgVisitMinutes":52,"estimatedCostEur":19,"score":1.1778602553059088},{"id":"yerbas-buenas_9385","citySlug":"yerbas-buenas","name":"Playa Central","category":"playa","lat":-35.74244290245421,"lng":-71.58495313684118,"avgVisitMinutes":53,"estimatedCostEur":2,"score":2.5435684544199466},{"id":"yerbas-buenas_5746","citySlug":"yerbas-buenas","name":"Ruta de Tapas","category":"gastronomia","lat":-35.74893588782872,"lng":-71.58088945584319,"avgVisitMinutes":70,"estimatedCostEur":21,"score":4.457794771995676},{"id":"yerbas-buenas_3715","citySlug":"yerbas-buenas","name":"Punto Panorámico","category":"mirador","lat":-35.74198866280779,"lng":-71.59397066493536,"avgVisitMinutes":35,"estimatedCostEur":19,"score":1.313548995892367},{"id":"vina-del-mar_2048","citySlug":"vina-del-mar","name":"Playa Sur","category":"playa","lat":-33.01955292339926,"lng":-71.54359470796705,"avgVisitMinutes":75,"estimatedCostEur":2,"score":3.993894631651628},{"id":"vina-del-mar_7409","citySlug":"vina-del-mar","name":"Parque Central","category":"ocio","lat":-33.016726976282456,"lng":-71.55179971539883,"avgVisitMinutes":51,"estimatedCostEur":24,"score":4.794150539069488},{"id":"vina-del-mar_6909","citySlug":"vina-del-mar","name":"Parque Central","category":"ocio","lat":-33.02902043450663,"lng":-71.54751876276018,"avgVisitMinutes":47,"estimatedCostEur":18,"score":2.0663309739342064},{"id":"vina-del-mar_1076","citySlug":"vina-del-mar","name":"Teatro Municipal","category":"cultura","lat":-33.02568469122548,"lng":-71.55449463936223,"avgVisitMinutes":71,"estimatedCostEur":25,"score":2.9258187107794766},{"id":"vina-del-mar_7176","citySlug":"vina-del-mar","name":"Ruta de Tapas","category":"gastronomia","lat":-33.02887473800811,"lng":-71.56172664383003,"avgVisitMinutes":25,"estimatedCostEur":11,"score":3.733089810369759},{"id":"vina-del-mar_5574","citySlug":"vina-del-mar","name":"Centro de Arte de Viña del Mar","category":"cultura","lat":-33.01519858352831,"lng":-71.55175898718272,"avgVisitMinutes":39,"estimatedCostEur":17,"score":1.9935512068191505},{"id":"vina-del-mar_2072","citySlug":"vina-del-mar","name":"Centro de Arte de Viña del Mar","category":"cultura","lat":-33.0215651674649,"lng":-71.56159126452933,"avgVisitMinutes":62,"estimatedCostEur":4,"score":0.8609774969618675},{"id":"vina-del-mar_7830","citySlug":"vina-del-mar","name":"Mercado Gastronómico","category":"gastronomia","lat":-33.02060896622824,"lng":-71.5476827154704,"avgVisitMinutes":61,"estimatedCostEur":1,"score":1.38130320588068},{"id":"vina-del-mar_1962","citySlug":"vina-del-mar","name":"Murallas de Viña del Mar","category":"historia","lat":-33.02864080242202,"lng":-71.54631695375409,"avgVisitMinutes":77,"estimatedCostEur":8,"score":0.7307634375318326},{"id":"vina-del-mar_7067","citySlug":"vina-del-mar","name":"Teatro Municipal","category":"cultura","lat":-33.020168492281734,"lng":-71.55613747799069,"avgVisitMinutes":25,"estimatedCostEur":10,"score":3.93501680902287},{"id":"vina-del-mar_6860","citySlug":"vina-del-mar","name":"Museo Local de Viña del Mar","category":"historia","lat":-33.02770543429173,"lng":-71.54211287718232,"avgVisitMinutes":73,"estimatedCostEur":20,"score":3.8699651954056202},{"id":"villarrica_3957","citySlug":"villarrica","name":"Paseo Principal","category":"ocio","lat":-39.28379123227863,"lng":-72.22976498939735,"avgVisitMinutes":53,"estimatedCostEur":1,"score":1.2399621204993136},{"id":"villarrica_1937","citySlug":"villarrica","name":"Castillo de Villarrica","category":"historia","lat":-39.287496831912904,"lng":-72.22635779512592,"avgVisitMinutes":51,"estimatedCostEur":25,"score":2.3675136224941857},{"id":"villarrica_2789","citySlug":"villarrica","name":"Paseo Principal","category":"ocio","lat":-39.27794713964582,"lng":-72.22231588846547,"avgVisitMinutes":72,"estimatedCostEur":21,"score":1.5214700006937958},{"id":"villarrica_2179","citySlug":"villarrica","name":"Paseo Principal","category":"ocio","lat":-39.2797802077547,"lng":-72.22193699559989,"avgVisitMinutes":69,"estimatedCostEur":9,"score":3.4276478741609595},{"id":"villarrica_2548","citySlug":"villarrica","name":"Playa Sur","category":"playa","lat":-39.29052040323759,"lng":-72.2290678880543,"avgVisitMinutes":42,"estimatedCostEur":21,"score":2.496001031681439},{"id":"villarrica_6353","citySlug":"villarrica","name":"Restaurante Típico de Villarrica","category":"gastronomia","lat":-39.28816415863972,"lng":-72.22958362971669,"avgVisitMinutes":54,"estimatedCostEur":13,"score":4.098724955129626},{"id":"villarrica_3488","citySlug":"villarrica","name":"Centro de Arte de Villarrica","category":"cultura","lat":-39.2898132958111,"lng":-72.23469778860844,"avgVisitMinutes":23,"estimatedCostEur":24,"score":1.370242813293897},{"id":"villa-alemana_1071","citySlug":"villa-alemana","name":"Centro de Arte de Villa Alemana","category":"cultura","lat":-33.04450324888398,"lng":-71.38034738202668,"avgVisitMinutes":32,"estimatedCostEur":6,"score":1.998045168156608},{"id":"villa-alemana_8982","citySlug":"villa-alemana","name":"Playa Central","category":"playa","lat":-33.04755780270235,"lng":-71.36836720446259,"avgVisitMinutes":57,"estimatedCostEur":7,"score":1.4646684433593116},{"id":"villa-alemana_4467","citySlug":"villa-alemana","name":"Mercado Gastronómico","category":"gastronomia","lat":-33.0516945264291,"lng":-71.364527874315,"avgVisitMinutes":62,"estimatedCostEur":3,"score":0.8791264356107595},{"id":"villa-alemana_3225","citySlug":"villa-alemana","name":"Iglesia de Villa Alemana","category":"historia","lat":-33.0436854575116,"lng":-71.37415075484387,"avgVisitMinutes":79,"estimatedCostEur":1,"score":3.0198665515840464},{"id":"villa-alemana_2917","citySlug":"villa-alemana","name":"Mirador de Villa Alemana","category":"mirador","lat":-33.053797831514025,"lng":-71.36965828415606,"avgVisitMinutes":48,"estimatedCostEur":15,"score":4.5239367355068225},{"id":"villa-alemana_5036","citySlug":"villa-alemana","name":"Museo Cultural de Villa Alemana","category":"cultura","lat":-33.05239562665733,"lng":-71.38220004823351,"avgVisitMinutes":78,"estimatedCostEur":0,"score":1.2615722630864643},{"id":"villa-alemana_2500","citySlug":"villa-alemana","name":"Playa Central","category":"playa","lat":-33.04797143976193,"lng":-71.37481322274917,"avgVisitMinutes":31,"estimatedCostEur":9,"score":0.9787392392700198},{"id":"villa-alemana_5636","citySlug":"villa-alemana","name":"Mirador de Villa Alemana","category":"mirador","lat":-33.0525349172572,"lng":-71.36935903931348,"avgVisitMinutes":61,"estimatedCostEur":7,"score":3.4730321579411614},{"id":"villa-alemana_2097","citySlug":"villa-alemana","name":"Castillo de Villa Alemana","category":"historia","lat":-33.04661997426882,"lng":-71.37416828631821,"avgVisitMinutes":37,"estimatedCostEur":1,"score":4.075461580373938},{"id":"villa-alemana_4777","citySlug":"villa-alemana","name":"Mirador de Villa Alemana","category":"mirador","lat":-33.04790891905398,"lng":-71.37641824438526,"avgVisitMinutes":61,"estimatedCostEur":17,"score":2.8022207214295047},{"id":"villa-alemana_9495","citySlug":"villa-alemana","name":"Vista Alta de Villa Alemana","category":"mirador","lat":-33.03857149050565,"lng":-71.36328158947741,"avgVisitMinutes":47,"estimatedCostEur":24,"score":3.1505168386461424},{"id":"villa-alegre_8880","citySlug":"villa-alegre","name":"Vista Alta de Villa Alegre","category":"mirador","lat":-35.67272939373777,"lng":-71.74754250541052,"avgVisitMinutes":69,"estimatedCostEur":0,"score":3.5862439233646195},{"id":"villa-alegre_3750","citySlug":"villa-alegre","name":"Playa Sur","category":"playa","lat":-35.680564950757486,"lng":-71.74087395456694,"avgVisitMinutes":62,"estimatedCostEur":14,"score":2.9213569523184755},{"id":"villa-alegre_1315","citySlug":"villa-alegre","name":"Centro de Arte de Villa Alegre","category":"cultura","lat":-35.66983606459158,"lng":-71.75323258036481,"avgVisitMinutes":88,"estimatedCostEur":21,"score":3.96992938168316},{"id":"villa-alegre_6584","citySlug":"villa-alegre","name":"Vista Alta de Villa Alegre","category":"mirador","lat":-35.67461319914693,"lng":-71.75061993870132,"avgVisitMinutes":82,"estimatedCostEur":19,"score":0.5339862503692074},{"id":"villa-alegre_2754","citySlug":"villa-alegre","name":"Playa Central","category":"playa","lat":-35.67134983858957,"lng":-71.75152499015995,"avgVisitMinutes":33,"estimatedCostEur":1,"score":4.820907708853671},{"id":"villa-alegre_4431","citySlug":"villa-alegre","name":"Galería de Arte","category":"cultura","lat":-35.66553534246137,"lng":-71.73865836491517,"avgVisitMinutes":27,"estimatedCostEur":12,"score":3.593518669942788},{"id":"villa-alegre_2392","citySlug":"villa-alegre","name":"Mercado Gastronómico","category":"gastronomia","lat":-35.67994482192251,"lng":-71.74224151231867,"avgVisitMinutes":23,"estimatedCostEur":1,"score":4.438874574416603},{"id":"vilcun_8495","citySlug":"vilcun","name":"Zona Comercial","category":"ocio","lat":-38.67260744787527,"lng":-72.22710049921231,"avgVisitMinutes":64,"estimatedCostEur":15,"score":1.0870272917813535},{"id":"vilcun_7739","citySlug":"vilcun","name":"Playa Central","category":"playa","lat":-38.67453793011795,"lng":-72.22270182343972,"avgVisitMinutes":39,"estimatedCostEur":20,"score":0.552953020345276},{"id":"vilcun_4259","citySlug":"vilcun","name":"Vista Alta de Vilcún","category":"mirador","lat":-38.66505966753306,"lng":-72.21574753794,"avgVisitMinutes":62,"estimatedCostEur":16,"score":2.3277173128029434},{"id":"vilcun_9732","citySlug":"vilcun","name":"Ruta de Tapas","category":"gastronomia","lat":-38.677007585296806,"lng":-72.22283808476944,"avgVisitMinutes":48,"estimatedCostEur":3,"score":4.006964942421085},{"id":"vilcun_4302","citySlug":"vilcun","name":"Vista Alta de Vilcún","category":"mirador","lat":-38.67219997804256,"lng":-72.21683667447174,"avgVisitMinutes":63,"estimatedCostEur":25,"score":4.169414740355098},{"id":"vilcun_7303","citySlug":"vilcun","name":"Restaurante Típico de Vilcún","category":"gastronomia","lat":-38.67415598321718,"lng":-72.23446044141885,"avgVisitMinutes":66,"estimatedCostEur":19,"score":4.908777265249689},{"id":"vilcun_8079","citySlug":"vilcun","name":"Playa Norte","category":"playa","lat":-38.6628352481238,"lng":-72.23198820213398,"avgVisitMinutes":29,"estimatedCostEur":4,"score":2.3879491069594048},{"id":"vilcun_4726","citySlug":"vilcun","name":"Punto Panorámico","category":"mirador","lat":-38.66204472413565,"lng":-72.22886142300993,"avgVisitMinutes":80,"estimatedCostEur":22,"score":0.6076495286013437},{"id":"vilcun_5073","citySlug":"vilcun","name":"Parque Central","category":"ocio","lat":-38.659283474284265,"lng":-72.22303902667791,"avgVisitMinutes":79,"estimatedCostEur":2,"score":1.8211619587632752},{"id":"vilcun_5447","citySlug":"vilcun","name":"Mirador de Vilcún","category":"mirador","lat":-38.67518567823241,"lng":-72.2326734896154,"avgVisitMinutes":70,"estimatedCostEur":14,"score":2.4884507973949326},{"id":"vilcun_9786","citySlug":"vilcun","name":"Castillo de Vilcún","category":"historia","lat":-38.667225238893714,"lng":-72.23354871744284,"avgVisitMinutes":72,"estimatedCostEur":12,"score":3.412136966924821},{"id":"vilcun_6218","citySlug":"vilcun","name":"Vista Alta de Vilcún","category":"mirador","lat":-38.66008731610102,"lng":-72.22060116795174,"avgVisitMinutes":73,"estimatedCostEur":16,"score":0.7426048621466295},{"id":"vicuna_2995","citySlug":"vicuna","name":"Mirador de Vicuña","category":"mirador","lat":-30.026906774086903,"lng":-70.71600342493709,"avgVisitMinutes":87,"estimatedCostEur":2,"score":4.1908968078897875},{"id":"vicuna_6495","citySlug":"vicuna","name":"Playa Sur","category":"playa","lat":-30.03785609761571,"lng":-70.71425248372886,"avgVisitMinutes":74,"estimatedCostEur":10,"score":2.8845846961360544},{"id":"vicuna_7999","citySlug":"vicuna","name":"Playa Norte","category":"playa","lat":-30.037454721426453,"lng":-70.71610827153944,"avgVisitMinutes":48,"estimatedCostEur":17,"score":2.992990407239371},{"id":"vicuna_8273","citySlug":"vicuna","name":"Ruta de Tapas","category":"gastronomia","lat":-30.027562489034157,"lng":-70.715229191114,"avgVisitMinutes":71,"estimatedCostEur":11,"score":1.5607483817592804},{"id":"vicuna_7954","citySlug":"vicuna","name":"Punto Panorámico","category":"mirador","lat":-30.031277166008316,"lng":-70.71426338545126,"avgVisitMinutes":54,"estimatedCostEur":12,"score":0.6810671034279949},{"id":"vicuna_8628","citySlug":"vicuna","name":"Vista Alta de Vicuña","category":"mirador","lat":-30.040264210308504,"lng":-70.70881295663102,"avgVisitMinutes":68,"estimatedCostEur":8,"score":4.9133587359840485},{"id":"vicuna_7681","citySlug":"vicuna","name":"Teatro Municipal","category":"cultura","lat":-30.026562872876333,"lng":-70.71930071510758,"avgVisitMinutes":85,"estimatedCostEur":1,"score":1.229546952256909},{"id":"vicuna_2018","citySlug":"vicuna","name":"Mirador de Vicuña","category":"mirador","lat":-30.04418692913509,"lng":-70.70606629224974,"avgVisitMinutes":53,"estimatedCostEur":16,"score":4.905212106766238},{"id":"vicuna_1633","citySlug":"vicuna","name":"Paseo Principal","category":"ocio","lat":-30.044727885585523,"lng":-70.70726348620282,"avgVisitMinutes":88,"estimatedCostEur":18,"score":3.073089106846383},{"id":"vicuna_9073","citySlug":"vicuna","name":"Museo Cultural de Vicuña","category":"cultura","lat":-30.043111743116878,"lng":-70.71301792272665,"avgVisitMinutes":28,"estimatedCostEur":0,"score":4.586923708237432},{"id":"vicuna_6196","citySlug":"vicuna","name":"Mercado Gastronómico","category":"gastronomia","lat":-30.034651906845085,"lng":-70.70698925487963,"avgVisitMinutes":30,"estimatedCostEur":15,"score":3.8799367251346153},{"id":"victoria_9810","citySlug":"victoria","name":"Playa Sur","category":"playa","lat":-38.22306571298359,"lng":-72.32434299780542,"avgVisitMinutes":85,"estimatedCostEur":1,"score":4.534875371317548},{"id":"victoria_6099","citySlug":"victoria","name":"Playa Sur","category":"playa","lat":-38.227923901396494,"lng":-72.34194105764013,"avgVisitMinutes":35,"estimatedCostEur":14,"score":3.7808105842500144},{"id":"victoria_8089","citySlug":"victoria","name":"Restaurante Típico de Victoria","category":"gastronomia","lat":-38.225409492126175,"lng":-72.33618136980813,"avgVisitMinutes":72,"estimatedCostEur":19,"score":1.4732844999327597},{"id":"victoria_2496","citySlug":"victoria","name":"Centro Histórico","category":"historia","lat":-38.22583112756866,"lng":-72.33781853409302,"avgVisitMinutes":83,"estimatedCostEur":12,"score":0.5448083433589179},{"id":"victoria_6257","citySlug":"victoria","name":"Playa Central","category":"playa","lat":-38.2421495545203,"lng":-72.34133665841257,"avgVisitMinutes":42,"estimatedCostEur":6,"score":3.273961739242629},{"id":"victoria_1066","citySlug":"victoria","name":"Ruta de Tapas","category":"gastronomia","lat":-38.23639511966175,"lng":-72.32961122208565,"avgVisitMinutes":89,"estimatedCostEur":8,"score":3.7488913063578},{"id":"victoria_5646","citySlug":"victoria","name":"Centro de Arte de Victoria","category":"cultura","lat":-38.22888810179715,"lng":-72.3304485379589,"avgVisitMinutes":88,"estimatedCostEur":25,"score":3.501372591219776},{"id":"victoria_8717","citySlug":"victoria","name":"Centro Histórico","category":"historia","lat":-38.23705710036566,"lng":-72.34065241147904,"avgVisitMinutes":44,"estimatedCostEur":12,"score":2.1815958324562654},{"id":"valparaiso_4417","citySlug":"valparaiso","name":"Parque Central","category":"ocio","lat":-33.02783280804813,"lng":-71.63863613075428,"avgVisitMinutes":47,"estimatedCostEur":0,"score":2.248048488336534},{"id":"valparaiso_1019","citySlug":"valparaiso","name":"Playa Central","category":"playa","lat":-33.04000493952461,"lng":-71.62666893557213,"avgVisitMinutes":46,"estimatedCostEur":13,"score":2.3918270554267935},{"id":"valparaiso_1374","citySlug":"valparaiso","name":"Galería de Arte","category":"cultura","lat":-33.02919451567612,"lng":-71.63585511723207,"avgVisitMinutes":39,"estimatedCostEur":8,"score":4.306547565470772},{"id":"valparaiso_1978","citySlug":"valparaiso","name":"Centro de Arte de Valparaíso","category":"cultura","lat":-33.04011898825741,"lng":-71.63084856173174,"avgVisitMinutes":59,"estimatedCostEur":15,"score":0.5801313526038823},{"id":"valparaiso_4029","citySlug":"valparaiso","name":"Playa Central","category":"playa","lat":-33.03967797368419,"lng":-71.63729130406178,"avgVisitMinutes":33,"estimatedCostEur":3,"score":2.704507627460965},{"id":"valparaiso_3671","citySlug":"valparaiso","name":"Parque Central","category":"ocio","lat":-33.03441116344973,"lng":-71.63725448329954,"avgVisitMinutes":67,"estimatedCostEur":2,"score":4.410615909096027},{"id":"valparaiso_9976","citySlug":"valparaiso","name":"Parque Central","category":"ocio","lat":-33.0419873331727,"lng":-71.62968767937886,"avgVisitMinutes":29,"estimatedCostEur":25,"score":0.8156057983976392},{"id":"vallenar_5611","citySlug":"vallenar","name":"Murallas de Vallenar","category":"historia","lat":-28.57767447849981,"lng":-70.75429708976883,"avgVisitMinutes":35,"estimatedCostEur":10,"score":1.1267857387092923},{"id":"vallenar_7017","citySlug":"vallenar","name":"Punto Panorámico","category":"mirador","lat":-28.58065434089911,"lng":-70.75940377404292,"avgVisitMinutes":36,"estimatedCostEur":16,"score":1.4329064157637987},{"id":"vallenar_3769","citySlug":"vallenar","name":"Centro Histórico","category":"historia","lat":-28.574111306782868,"lng":-70.75398143728864,"avgVisitMinutes":57,"estimatedCostEur":21,"score":1.572133845734242},{"id":"vallenar_5238","citySlug":"vallenar","name":"Centro de Arte de Vallenar","category":"cultura","lat":-28.58488182607014,"lng":-70.75996955349949,"avgVisitMinutes":34,"estimatedCostEur":3,"score":3.609713970995},{"id":"vallenar_2101","citySlug":"vallenar","name":"Centro de Arte de Vallenar","category":"cultura","lat":-28.584737231778192,"lng":-70.76074019137245,"avgVisitMinutes":89,"estimatedCostEur":16,"score":3.0227353944883264},{"id":"vallenar_1001","citySlug":"vallenar","name":"Castillo de Vallenar","category":"historia","lat":-28.571069095994453,"lng":-70.75882972590726,"avgVisitMinutes":70,"estimatedCostEur":12,"score":2.1448597794330566},{"id":"vallenar_8252","citySlug":"vallenar","name":"Playa Sur","category":"playa","lat":-28.581091535699,"lng":-70.76756964707783,"avgVisitMinutes":53,"estimatedCostEur":20,"score":2.7001892572699844},{"id":"vallenar_6639","citySlug":"vallenar","name":"Playa Norte","category":"playa","lat":-28.575997071646928,"lng":-70.75998411387322,"avgVisitMinutes":85,"estimatedCostEur":13,"score":3.8486001252533724},{"id":"vallenar_8913","citySlug":"vallenar","name":"Playa Sur","category":"playa","lat":-28.569805822039985,"lng":-70.75095222931131,"avgVisitMinutes":49,"estimatedCostEur":3,"score":0.7868634181008167},{"id":"valdivia_3764","citySlug":"valdivia","name":"Playa Central","category":"playa","lat":-39.82197009545507,"lng":-73.2377802251381,"avgVisitMinutes":41,"estimatedCostEur":22,"score":1.0353229562968147},{"id":"valdivia_7001","citySlug":"valdivia","name":"Ruta de Tapas","category":"gastronomia","lat":-39.8091389066661,"lng":-73.24681755712722,"avgVisitMinutes":84,"estimatedCostEur":0,"score":0.7611849305332157},{"id":"valdivia_2783","citySlug":"valdivia","name":"Ruta de Tapas","category":"gastronomia","lat":-39.824161858848015,"lng":-73.25132472318666,"avgVisitMinutes":87,"estimatedCostEur":24,"score":4.803466988967563},{"id":"valdivia_9826","citySlug":"valdivia","name":"Paseo Principal","category":"ocio","lat":-39.81462743344929,"lng":-73.25085698124394,"avgVisitMinutes":45,"estimatedCostEur":4,"score":2.8668632831096943},{"id":"valdivia_6016","citySlug":"valdivia","name":"Castillo de Valdivia","category":"historia","lat":-39.816107785165194,"lng":-73.24445560901427,"avgVisitMinutes":84,"estimatedCostEur":25,"score":2.626173543064244},{"id":"valdivia_6506","citySlug":"valdivia","name":"Punto Panorámico","category":"mirador","lat":-39.80867073238877,"lng":-73.2488553968273,"avgVisitMinutes":66,"estimatedCostEur":12,"score":2.038251575881763},{"id":"valdivia_7842","citySlug":"valdivia","name":"Ruta de Tapas","category":"gastronomia","lat":-39.82343129775822,"lng":-73.24093164888086,"avgVisitMinutes":69,"estimatedCostEur":11,"score":3.2680137190847676},{"id":"valdivia_7155","citySlug":"valdivia","name":"Iglesia de Valdivia","category":"historia","lat":-39.82305815911246,"lng":-73.23735860419241,"avgVisitMinutes":72,"estimatedCostEur":16,"score":3.8189099040062473},{"id":"valdivia_5662","citySlug":"valdivia","name":"Paseo Principal","category":"ocio","lat":-39.813180768317295,"lng":-73.24037990494888,"avgVisitMinutes":80,"estimatedCostEur":12,"score":4.460408766679752},{"id":"valdivia_3255","citySlug":"valdivia","name":"Playa Norte","category":"playa","lat":-39.8160138739369,"lng":-73.24379472441477,"avgVisitMinutes":38,"estimatedCostEur":11,"score":3.73029012192267},{"id":"valdivia_7002","citySlug":"valdivia","name":"Mercado Gastronómico","category":"gastronomia","lat":-39.82341251214887,"lng":-73.24404868043096,"avgVisitMinutes":82,"estimatedCostEur":14,"score":3.0556112888487643},{"id":"valdivia_8003","citySlug":"valdivia","name":"Ruta de Tapas","category":"gastronomia","lat":-39.82058685928091,"lng":-73.25153354030653,"avgVisitMinutes":35,"estimatedCostEur":0,"score":3.6324684909620677},{"id":"tucapel_4362","citySlug":"tucapel","name":"Centro de Arte de Tucapel","category":"cultura","lat":-37.28307868885896,"lng":-71.95828560933847,"avgVisitMinutes":86,"estimatedCostEur":16,"score":3.229867333487242},{"id":"tucapel_6726","citySlug":"tucapel","name":"Playa Sur","category":"playa","lat":-37.2921951060452,"lng":-71.94729995942875,"avgVisitMinutes":62,"estimatedCostEur":9,"score":4.681089902867261},{"id":"tucapel_1355","citySlug":"tucapel","name":"Teatro Municipal","category":"cultura","lat":-37.290577251397394,"lng":-71.95801694673858,"avgVisitMinutes":68,"estimatedCostEur":24,"score":4.326483328524175},{"id":"tucapel_3472","citySlug":"tucapel","name":"Vista Alta de Tucapel","category":"mirador","lat":-37.29019288003834,"lng":-71.94555191219689,"avgVisitMinutes":44,"estimatedCostEur":24,"score":3.6596426018152677},{"id":"tucapel_9579","citySlug":"tucapel","name":"Zona Comercial","category":"ocio","lat":-37.290182564166756,"lng":-71.95886750443262,"avgVisitMinutes":51,"estimatedCostEur":20,"score":2.9108292684949526},{"id":"traiguen_4116","citySlug":"traiguen","name":"Playa Central","category":"playa","lat":-38.24553304714871,"lng":-72.67598897358229,"avgVisitMinutes":85,"estimatedCostEur":6,"score":4.669478533745127},{"id":"traiguen_4037","citySlug":"traiguen","name":"Punto Panorámico","category":"mirador","lat":-38.255361808137344,"lng":-72.67018656710934,"avgVisitMinutes":57,"estimatedCostEur":20,"score":0.671960300869874},{"id":"traiguen_9240","citySlug":"traiguen","name":"Paseo Principal","category":"ocio","lat":-38.25304297229963,"lng":-72.67429096008075,"avgVisitMinutes":31,"estimatedCostEur":7,"score":2.510741342934048},{"id":"traiguen_4987","citySlug":"traiguen","name":"Murallas de Traiguén","category":"historia","lat":-38.256119802149634,"lng":-72.66761919897898,"avgVisitMinutes":86,"estimatedCostEur":17,"score":1.3942886475995797},{"id":"traiguen_4714","citySlug":"traiguen","name":"Playa Central","category":"playa","lat":-38.25519019448637,"lng":-72.67358840604524,"avgVisitMinutes":40,"estimatedCostEur":15,"score":2.186131771703631},{"id":"traiguen_5791","citySlug":"traiguen","name":"Galería de Arte","category":"cultura","lat":-38.24610488353878,"lng":-72.67810790572985,"avgVisitMinutes":55,"estimatedCostEur":19,"score":3.0450479921416784},{"id":"traiguen_2233","citySlug":"traiguen","name":"Playa Norte","category":"playa","lat":-38.2547968115289,"lng":-72.67721314409475,"avgVisitMinutes":76,"estimatedCostEur":19,"score":3.9120834033481864},{"id":"tortel_6115","citySlug":"tortel","name":"Teatro Municipal","category":"cultura","lat":-47.80101175888199,"lng":-73.54111400347135,"avgVisitMinutes":86,"estimatedCostEur":22,"score":1.9560485147086126},{"id":"tortel_9366","citySlug":"tortel","name":"Mirador de Tortel","category":"mirador","lat":-47.81006631615414,"lng":-73.53651974012747,"avgVisitMinutes":72,"estimatedCostEur":21,"score":0.9260030221425537},{"id":"tortel_3942","citySlug":"tortel","name":"Paseo Principal","category":"ocio","lat":-47.80592718260432,"lng":-73.53333125008976,"avgVisitMinutes":42,"estimatedCostEur":0,"score":0.959638429201211},{"id":"tortel_4389","citySlug":"tortel","name":"Castillo de Tortel","category":"historia","lat":-47.80816614197959,"lng":-73.53731796808479,"avgVisitMinutes":29,"estimatedCostEur":10,"score":2.2058192692967213},{"id":"tortel_4831","citySlug":"tortel","name":"Restaurante Típico de Tortel","category":"gastronomia","lat":-47.805104393614194,"lng":-73.53528265571624,"avgVisitMinutes":42,"estimatedCostEur":9,"score":3.8619568023587725},{"id":"tortel_6233","citySlug":"tortel","name":"Punto Panorámico","category":"mirador","lat":-47.80742915280183,"lng":-73.54000429920309,"avgVisitMinutes":29,"estimatedCostEur":6,"score":0.8072633829680532},{"id":"tortel_1776","citySlug":"tortel","name":"Mirador de Tortel","category":"mirador","lat":-47.80828208719938,"lng":-73.53192128524371,"avgVisitMinutes":38,"estimatedCostEur":15,"score":2.0789660902556757},{"id":"tortel_2739","citySlug":"tortel","name":"Vista Alta de Tortel","category":"mirador","lat":-47.79556079016716,"lng":-73.52810000197556,"avgVisitMinutes":54,"estimatedCostEur":14,"score":3.082762030865538},{"id":"tome_5904","citySlug":"tome","name":"Playa Central","category":"playa","lat":-36.62571516684345,"lng":-72.9585927517814,"avgVisitMinutes":66,"estimatedCostEur":3,"score":1.5005790701694157},{"id":"tome_9143","citySlug":"tome","name":"Playa Central","category":"playa","lat":-36.61788059314808,"lng":-72.96461023038056,"avgVisitMinutes":60,"estimatedCostEur":2,"score":1.5830390320824659},{"id":"tome_5672","citySlug":"tome","name":"Playa Central","category":"playa","lat":-36.61811233295487,"lng":-72.9626530045616,"avgVisitMinutes":90,"estimatedCostEur":24,"score":1.3720891746384618},{"id":"tome_7071","citySlug":"tome","name":"Museo Cultural de Tomé","category":"cultura","lat":-36.61352775456078,"lng":-72.96086524162797,"avgVisitMinutes":58,"estimatedCostEur":18,"score":0.6824440188844969},{"id":"tome_8249","citySlug":"tome","name":"Zona Comercial","category":"ocio","lat":-36.62074132134558,"lng":-72.95930095891335,"avgVisitMinutes":42,"estimatedCostEur":21,"score":2.8052261981595508},{"id":"tome_6994","citySlug":"tome","name":"Paseo Principal","category":"ocio","lat":-36.62662703429271,"lng":-72.96303405741618,"avgVisitMinutes":43,"estimatedCostEur":5,"score":4.863743684536038},{"id":"tome_1746","citySlug":"tome","name":"Teatro Municipal","category":"cultura","lat":-36.61745993663193,"lng":-72.95070393762543,"avgVisitMinutes":83,"estimatedCostEur":16,"score":3.4261588075153595},{"id":"tome_7553","citySlug":"tome","name":"Museo Cultural de Tomé","category":"cultura","lat":-36.627545568827834,"lng":-72.95405679709287,"avgVisitMinutes":40,"estimatedCostEur":6,"score":4.568839911936378},{"id":"tocopilla_9860","citySlug":"tocopilla","name":"Mirador de Tocopilla","category":"mirador","lat":-22.083781901919192,"lng":-70.20725430113978,"avgVisitMinutes":27,"estimatedCostEur":10,"score":1.6004981629510224},{"id":"tocopilla_9019","citySlug":"tocopilla","name":"Mercado Gastronómico","category":"gastronomia","lat":-22.0863863341382,"lng":-70.20680440087102,"avgVisitMinutes":22,"estimatedCostEur":24,"score":1.332106780656941},{"id":"tocopilla_5724","citySlug":"tocopilla","name":"Parque Central","category":"ocio","lat":-22.09313075111884,"lng":-70.193202014653,"avgVisitMinutes":42,"estimatedCostEur":20,"score":4.6826541802021895},{"id":"tocopilla_4414","citySlug":"tocopilla","name":"Paseo Principal","category":"ocio","lat":-22.09650761277148,"lng":-70.20296242349482,"avgVisitMinutes":64,"estimatedCostEur":0,"score":3.2589446646488995},{"id":"tocopilla_6935","citySlug":"tocopilla","name":"Paseo Principal","category":"ocio","lat":-22.097087432966028,"lng":-70.203943687848,"avgVisitMinutes":70,"estimatedCostEur":23,"score":3.498000412392559},{"id":"tocopilla_3486","citySlug":"tocopilla","name":"Teatro Municipal","category":"cultura","lat":-22.089939543300382,"lng":-70.19663716460477,"avgVisitMinutes":85,"estimatedCostEur":5,"score":3.053861495100281},{"id":"tirua_6686","citySlug":"tirua","name":"Castillo de Tirúa","category":"historia","lat":-38.34316160583426,"lng":-73.48730119299428,"avgVisitMinutes":33,"estimatedCostEur":6,"score":2.5410504230991653},{"id":"tirua_6067","citySlug":"tirua","name":"Playa Sur","category":"playa","lat":-38.34708765130198,"lng":-73.49248934931087,"avgVisitMinutes":71,"estimatedCostEur":15,"score":4.7239110160785565},{"id":"tirua_8342","citySlug":"tirua","name":"Parque Central","category":"ocio","lat":-38.336944629617335,"lng":-73.49727598146377,"avgVisitMinutes":37,"estimatedCostEur":24,"score":2.2172654618017655},{"id":"tirua_3313","citySlug":"tirua","name":"Paseo Principal","category":"ocio","lat":-38.33872801556642,"lng":-73.4867873849665,"avgVisitMinutes":66,"estimatedCostEur":1,"score":4.163893064496536},{"id":"tirua_9790","citySlug":"tirua","name":"Playa Norte","category":"playa","lat":-38.33258740419347,"lng":-73.48335617519346,"avgVisitMinutes":78,"estimatedCostEur":21,"score":4.764018039243415},{"id":"tirua_8911","citySlug":"tirua","name":"Museo Cultural de Tirúa","category":"cultura","lat":-38.34983541531927,"lng":-73.48870892888719,"avgVisitMinutes":75,"estimatedCostEur":2,"score":4.191910240190822},{"id":"tirua_1448","citySlug":"tirua","name":"Zona Comercial","category":"ocio","lat":-38.34445864653342,"lng":-73.4920956545813,"avgVisitMinutes":81,"estimatedCostEur":4,"score":1.8008587125952042},{"id":"tirua_6790","citySlug":"tirua","name":"Teatro Municipal","category":"cultura","lat":-38.34347737112888,"lng":-73.4816087619538,"avgVisitMinutes":86,"estimatedCostEur":23,"score":2.7655034100781233},{"id":"tirua_4029","citySlug":"tirua","name":"Paseo Principal","category":"ocio","lat":-38.337833503076254,"lng":-73.49959560361532,"avgVisitMinutes":76,"estimatedCostEur":17,"score":1.8234884877454043},{"id":"tirua_2926","citySlug":"tirua","name":"Ruta de Tapas","category":"gastronomia","lat":-38.33963150271655,"lng":-73.49898630892635,"avgVisitMinutes":53,"estimatedCostEur":23,"score":1.0727064037486853},{"id":"tiltil_8014","citySlug":"tiltil","name":"Mirador de Tiltil","category":"mirador","lat":-33.09129298967464,"lng":-70.9390001727252,"avgVisitMinutes":78,"estimatedCostEur":24,"score":4.869226718338513},{"id":"tiltil_1654","citySlug":"tiltil","name":"Restaurante Típico de Tiltil","category":"gastronomia","lat":-33.091723274949956,"lng":-70.92095564394597,"avgVisitMinutes":37,"estimatedCostEur":7,"score":2.92645300844981},{"id":"tiltil_7608","citySlug":"tiltil","name":"Mercado Gastronómico","category":"gastronomia","lat":-33.07868177903923,"lng":-70.92610316442766,"avgVisitMinutes":30,"estimatedCostEur":2,"score":2.7785348039092117},{"id":"tiltil_5155","citySlug":"tiltil","name":"Centro de Arte de Tiltil","category":"cultura","lat":-33.08882033119601,"lng":-70.92798721046948,"avgVisitMinutes":32,"estimatedCostEur":16,"score":2.9266765686660765},{"id":"tiltil_2683","citySlug":"tiltil","name":"Paseo Principal","category":"ocio","lat":-33.07353137301113,"lng":-70.93316119438144,"avgVisitMinutes":58,"estimatedCostEur":22,"score":2.9857753204661903},{"id":"tiltil_5899","citySlug":"tiltil","name":"Restaurante Típico de Tiltil","category":"gastronomia","lat":-33.07914747945562,"lng":-70.93020045724273,"avgVisitMinutes":37,"estimatedCostEur":23,"score":0.736839096211789},{"id":"tiltil_6868","citySlug":"tiltil","name":"Vista Alta de Tiltil","category":"mirador","lat":-33.09305424493528,"lng":-70.92574993662454,"avgVisitMinutes":71,"estimatedCostEur":3,"score":2.368776446605462},{"id":"tiltil_8344","citySlug":"tiltil","name":"Parque Central","category":"ocio","lat":-33.08335152356028,"lng":-70.92202851798604,"avgVisitMinutes":37,"estimatedCostEur":3,"score":3.640997366584739},{"id":"tiltil_7928","citySlug":"tiltil","name":"Punto Panorámico","category":"mirador","lat":-33.08684044459322,"lng":-70.92475414196183,"avgVisitMinutes":32,"estimatedCostEur":2,"score":0.8293408054526958},{"id":"tiltil_9850","citySlug":"tiltil","name":"Playa Norte","category":"playa","lat":-33.07825327115984,"lng":-70.934085359987,"avgVisitMinutes":72,"estimatedCostEur":3,"score":2.52288026015444},{"id":"tiltil_6197","citySlug":"tiltil","name":"Museo Local de Tiltil","category":"historia","lat":-33.08302624636295,"lng":-70.93158534864943,"avgVisitMinutes":54,"estimatedCostEur":8,"score":1.1482576232877122},{"id":"tiltil_8054","citySlug":"tiltil","name":"Mirador de Tiltil","category":"mirador","lat":-33.07542562835606,"lng":-70.92102899171172,"avgVisitMinutes":57,"estimatedCostEur":17,"score":2.497990114177931},{"id":"tierra-amarilla_1845","citySlug":"tierra-amarilla","name":"Zona Comercial","category":"ocio","lat":-27.471227070797607,"lng":-70.26236151356062,"avgVisitMinutes":89,"estimatedCostEur":13,"score":4.689577598311601},{"id":"tierra-amarilla_9600","citySlug":"tierra-amarilla","name":"Vista Alta de Tierra Amarilla","category":"mirador","lat":-27.47065254064856,"lng":-70.26733618324323,"avgVisitMinutes":26,"estimatedCostEur":7,"score":2.2983152381029166},{"id":"tierra-amarilla_2300","citySlug":"tierra-amarilla","name":"Playa Sur","category":"playa","lat":-27.47002218558519,"lng":-70.2632642174765,"avgVisitMinutes":36,"estimatedCostEur":7,"score":0.8341745109815608},{"id":"tierra-amarilla_6694","citySlug":"tierra-amarilla","name":"Ruta de Tapas","category":"gastronomia","lat":-27.466806968036828,"lng":-70.25560610801833,"avgVisitMinutes":46,"estimatedCostEur":3,"score":0.990082507223466},{"id":"tierra-amarilla_7914","citySlug":"tierra-amarilla","name":"Restaurante Típico de Tierra Amarilla","category":"gastronomia","lat":-27.458766870029418,"lng":-70.25565503582654,"avgVisitMinutes":23,"estimatedCostEur":4,"score":1.493769115924343},{"id":"tierra-amarilla_7365","citySlug":"tierra-amarilla","name":"Ruta de Tapas","category":"gastronomia","lat":-27.46939637839432,"lng":-70.2659673082597,"avgVisitMinutes":84,"estimatedCostEur":7,"score":3.1001925714352767},{"id":"tierra-amarilla_6197","citySlug":"tierra-amarilla","name":"Playa Central","category":"playa","lat":-27.456755276853286,"lng":-70.2599186627798,"avgVisitMinutes":29,"estimatedCostEur":7,"score":2.7209363172732224},{"id":"tierra-amarilla_4740","citySlug":"tierra-amarilla","name":"Playa Central","category":"playa","lat":-27.461510635922636,"lng":-70.2692383224236,"avgVisitMinutes":43,"estimatedCostEur":13,"score":4.479580698642316},{"id":"tierra-amarilla_3760","citySlug":"tierra-amarilla","name":"Ruta de Tapas","category":"gastronomia","lat":-27.471999833315795,"lng":-70.25531946284549,"avgVisitMinutes":59,"estimatedCostEur":11,"score":0.5360392810156562},{"id":"tierra-amarilla_8843","citySlug":"tierra-amarilla","name":"Playa Central","category":"playa","lat":-27.45675218290275,"lng":-70.27187691440773,"avgVisitMinutes":33,"estimatedCostEur":21,"score":1.1094309732687382},{"id":"teodoro-schmidt_1219","citySlug":"teodoro-schmidt","name":"Centro de Arte de Teodoro Schmidt","category":"cultura","lat":-38.990764677394694,"lng":-73.08193919388546,"avgVisitMinutes":24,"estimatedCostEur":8,"score":2.691147487256279},{"id":"teodoro-schmidt_8193","citySlug":"teodoro-schmidt","name":"Punto Panorámico","category":"mirador","lat":-39.000806469988525,"lng":-73.08372717382706,"avgVisitMinutes":63,"estimatedCostEur":0,"score":4.127612705815189},{"id":"teodoro-schmidt_5022","citySlug":"teodoro-schmidt","name":"Playa Sur","category":"playa","lat":-38.985091290734076,"lng":-73.0801586849981,"avgVisitMinutes":65,"estimatedCostEur":23,"score":2.3709976839316047},{"id":"teodoro-schmidt_6093","citySlug":"teodoro-schmidt","name":"Centro de Arte de Teodoro Schmidt","category":"cultura","lat":-39.004256373182976,"lng":-73.0848823281156,"avgVisitMinutes":64,"estimatedCostEur":9,"score":2.0564298989871324},{"id":"teodoro-schmidt_6461","citySlug":"teodoro-schmidt","name":"Museo Cultural de Teodoro Schmidt","category":"cultura","lat":-38.99919125307815,"lng":-73.08204864820777,"avgVisitMinutes":77,"estimatedCostEur":19,"score":1.784992364538323},{"id":"teodoro-schmidt_8864","citySlug":"teodoro-schmidt","name":"Mirador de Teodoro Schmidt","category":"mirador","lat":-38.98642437438741,"lng":-73.08759141584925,"avgVisitMinutes":80,"estimatedCostEur":20,"score":1.132249756882587},{"id":"teodoro-schmidt_3373","citySlug":"teodoro-schmidt","name":"Centro de Arte de Teodoro Schmidt","category":"cultura","lat":-38.991419092954764,"lng":-73.09711800356914,"avgVisitMinutes":35,"estimatedCostEur":12,"score":1.8411005233975846},{"id":"teodoro-schmidt_1768","citySlug":"teodoro-schmidt","name":"Museo Local de Teodoro Schmidt","category":"historia","lat":-38.998643464479,"lng":-73.09774808594948,"avgVisitMinutes":35,"estimatedCostEur":0,"score":4.641627931740629},{"id":"teodoro-schmidt_1315","citySlug":"teodoro-schmidt","name":"Paseo Principal","category":"ocio","lat":-38.98725849882745,"lng":-73.09894135286228,"avgVisitMinutes":50,"estimatedCostEur":19,"score":0.7058363558562778},{"id":"teno_5791","citySlug":"teno","name":"Punto Panorámico","category":"mirador","lat":-34.861862146479865,"lng":-71.16338715701414,"avgVisitMinutes":22,"estimatedCostEur":25,"score":3.8031532321770314},{"id":"teno_2617","citySlug":"teno","name":"Galería de Arte","category":"cultura","lat":-34.87931147568006,"lng":-71.15409690992756,"avgVisitMinutes":83,"estimatedCostEur":11,"score":3.8700302643250706},{"id":"teno_6656","citySlug":"teno","name":"Ruta de Tapas","category":"gastronomia","lat":-34.87421947089896,"lng":-71.16331244857707,"avgVisitMinutes":51,"estimatedCostEur":4,"score":1.3918948541133345},{"id":"teno_4192","citySlug":"teno","name":"Zona Comercial","category":"ocio","lat":-34.86502944716471,"lng":-71.16497477975497,"avgVisitMinutes":45,"estimatedCostEur":6,"score":1.7365408591706555},{"id":"teno_3305","citySlug":"teno","name":"Playa Central","category":"playa","lat":-34.868647425130675,"lng":-71.15244975672904,"avgVisitMinutes":60,"estimatedCostEur":3,"score":0.9694230725732575},{"id":"teno_3764","citySlug":"teno","name":"Centro de Arte de Teno","category":"cultura","lat":-34.873591258288506,"lng":-71.16569300396236,"avgVisitMinutes":72,"estimatedCostEur":3,"score":0.5502420802468346},{"id":"teno_8955","citySlug":"teno","name":"Museo Cultural de Teno","category":"cultura","lat":-34.87436412146146,"lng":-71.15947116432639,"avgVisitMinutes":54,"estimatedCostEur":9,"score":1.2930594007552754},{"id":"teno_9788","citySlug":"teno","name":"Centro de Arte de Teno","category":"cultura","lat":-34.867692827114396,"lng":-71.15519613894237,"avgVisitMinutes":34,"estimatedCostEur":0,"score":0.6655144841089913},{"id":"teno_3199","citySlug":"teno","name":"Playa Norte","category":"playa","lat":-34.880107105306315,"lng":-71.16741727851358,"avgVisitMinutes":41,"estimatedCostEur":11,"score":3.716165622803826},{"id":"temuco_5929","citySlug":"temuco","name":"Zona Comercial","category":"ocio","lat":-38.746104073120186,"lng":-72.58850337888025,"avgVisitMinutes":55,"estimatedCostEur":23,"score":0.5805579039013655},{"id":"temuco_2022","citySlug":"temuco","name":"Playa Norte","category":"playa","lat":-38.74203185051911,"lng":-72.59878111152223,"avgVisitMinutes":62,"estimatedCostEur":1,"score":0.9216185937176258},{"id":"temuco_8266","citySlug":"temuco","name":"Playa Sur","category":"playa","lat":-38.74156989752068,"lng":-72.60699939446967,"avgVisitMinutes":45,"estimatedCostEur":11,"score":1.7654978771606433},{"id":"temuco_7353","citySlug":"temuco","name":"Mirador de Temuco","category":"mirador","lat":-38.744385095746786,"lng":-72.59383565158505,"avgVisitMinutes":57,"estimatedCostEur":0,"score":4.155422877189393},{"id":"temuco_3329","citySlug":"temuco","name":"Teatro Municipal","category":"cultura","lat":-38.72890214608151,"lng":-72.60332286307705,"avgVisitMinutes":67,"estimatedCostEur":6,"score":3.760702910807926},{"id":"temuco_6347","citySlug":"temuco","name":"Museo Cultural de Temuco","category":"cultura","lat":-38.73165616883178,"lng":-72.59736306041736,"avgVisitMinutes":60,"estimatedCostEur":10,"score":2.1459505318313044},{"id":"taltal_1492","citySlug":"taltal","name":"Zona Comercial","category":"ocio","lat":-25.405500838444148,"lng":-70.48961208826813,"avgVisitMinutes":79,"estimatedCostEur":11,"score":4.165028236311219},{"id":"taltal_4940","citySlug":"taltal","name":"Museo Cultural de Taltal","category":"cultura","lat":-25.405836898740475,"lng":-70.491211436807,"avgVisitMinutes":85,"estimatedCostEur":16,"score":1.9615800573908992},{"id":"taltal_6835","citySlug":"taltal","name":"Iglesia de Taltal","category":"historia","lat":-25.40520177553537,"lng":-70.48698451499693,"avgVisitMinutes":52,"estimatedCostEur":10,"score":1.0678876539262105},{"id":"taltal_3923","citySlug":"taltal","name":"Castillo de Taltal","category":"historia","lat":-25.400170494287384,"lng":-70.49176639769311,"avgVisitMinutes":48,"estimatedCostEur":5,"score":1.4522597999705869},{"id":"taltal_9008","citySlug":"taltal","name":"Mirador de Taltal","category":"mirador","lat":-25.411142087052756,"lng":-70.4805543547725,"avgVisitMinutes":41,"estimatedCostEur":10,"score":0.6140731827040622},{"id":"taltal_2296","citySlug":"taltal","name":"Mirador de Taltal","category":"mirador","lat":-25.415704519726667,"lng":-70.48023361605473,"avgVisitMinutes":34,"estimatedCostEur":6,"score":2.241836575508616},{"id":"taltal_6567","citySlug":"taltal","name":"Playa Sur","category":"playa","lat":-25.41665656401055,"lng":-70.48970889151187,"avgVisitMinutes":37,"estimatedCostEur":13,"score":4.010846037846596},{"id":"taltal_6703","citySlug":"taltal","name":"Centro Histórico","category":"historia","lat":-25.409777519007314,"lng":-70.47580020425936,"avgVisitMinutes":24,"estimatedCostEur":10,"score":1.8310366984712356},{"id":"taltal_5391","citySlug":"taltal","name":"Castillo de Taltal","category":"historia","lat":-25.40477836993524,"lng":-70.4930183618401,"avgVisitMinutes":64,"estimatedCostEur":22,"score":2.314370709081567},{"id":"taltal_6525","citySlug":"taltal","name":"Murallas de Taltal","category":"historia","lat":-25.40133071653617,"lng":-70.48669293640828,"avgVisitMinutes":86,"estimatedCostEur":20,"score":2.740852511855632},{"id":"taltal_4890","citySlug":"taltal","name":"Playa Central","category":"playa","lat":-25.4124867412221,"lng":-70.49409724481913,"avgVisitMinutes":62,"estimatedCostEur":23,"score":2.136495271898987},{"id":"taltal_1799","citySlug":"taltal","name":"Playa Norte","category":"playa","lat":-25.403334158243194,"lng":-70.48669660843306,"avgVisitMinutes":75,"estimatedCostEur":13,"score":4.579056198812821},{"id":"talcahuano_6191","citySlug":"talcahuano","name":"Playa Central","category":"playa","lat":-36.716203827121234,"lng":-73.12179486222384,"avgVisitMinutes":45,"estimatedCostEur":20,"score":1.8317901186866024},{"id":"talcahuano_5539","citySlug":"talcahuano","name":"Mercado Gastronómico","category":"gastronomia","lat":-36.73483399330886,"lng":-73.1095187618399,"avgVisitMinutes":34,"estimatedCostEur":14,"score":4.841475748585055},{"id":"talcahuano_9981","citySlug":"talcahuano","name":"Playa Sur","category":"playa","lat":-36.73466950278052,"lng":-73.11764962907162,"avgVisitMinutes":67,"estimatedCostEur":17,"score":3.734198911691582},{"id":"talcahuano_1943","citySlug":"talcahuano","name":"Punto Panorámico","category":"mirador","lat":-36.721777184661235,"lng":-73.11811029253762,"avgVisitMinutes":73,"estimatedCostEur":8,"score":0.9849955527172283},{"id":"talcahuano_2484","citySlug":"talcahuano","name":"Teatro Municipal","category":"cultura","lat":-36.72032951752002,"lng":-73.11470083317633,"avgVisitMinutes":48,"estimatedCostEur":15,"score":4.840065169549089},{"id":"talcahuano_6454","citySlug":"talcahuano","name":"Paseo Principal","category":"ocio","lat":-36.72457733984786,"lng":-73.111756159006,"avgVisitMinutes":38,"estimatedCostEur":15,"score":1.122229413325551},{"id":"talcahuano_7617","citySlug":"talcahuano","name":"Museo Cultural de Talcahuano","category":"cultura","lat":-36.72335183475083,"lng":-73.119741487428,"avgVisitMinutes":65,"estimatedCostEur":18,"score":1.3087911483806693},{"id":"talcahuano_6131","citySlug":"talcahuano","name":"Mercado Gastronómico","category":"gastronomia","lat":-36.72503289366736,"lng":-73.11646133518559,"avgVisitMinutes":32,"estimatedCostEur":17,"score":1.0520273686740846},{"id":"talcahuano_5562","citySlug":"talcahuano","name":"Mirador de Talcahuano","category":"mirador","lat":-36.73189123365721,"lng":-73.11919069741866,"avgVisitMinutes":72,"estimatedCostEur":11,"score":0.8892877392136892},{"id":"talcahuano_1135","citySlug":"talcahuano","name":"Mirador de Talcahuano","category":"mirador","lat":-36.71974350868063,"lng":-73.10901415268974,"avgVisitMinutes":62,"estimatedCostEur":10,"score":1.5046338448396863},{"id":"talca_2425","citySlug":"talca","name":"Parque Central","category":"ocio","lat":-35.415847001089276,"lng":-71.64656446551713,"avgVisitMinutes":52,"estimatedCostEur":7,"score":2.0793913073782937},{"id":"talca_1022","citySlug":"talca","name":"Punto Panorámico","category":"mirador","lat":-35.43221817560732,"lng":-71.65080658486747,"avgVisitMinutes":74,"estimatedCostEur":14,"score":3.1334978917603378},{"id":"talca_8209","citySlug":"talca","name":"Ruta de Tapas","category":"gastronomia","lat":-35.429525069185644,"lng":-71.65029685463992,"avgVisitMinutes":50,"estimatedCostEur":7,"score":1.821356766938944},{"id":"talca_4844","citySlug":"talca","name":"Mirador de Talca","category":"mirador","lat":-35.4224863757741,"lng":-71.6437365584382,"avgVisitMinutes":87,"estimatedCostEur":23,"score":0.641191489076318},{"id":"talca_9980","citySlug":"talca","name":"Castillo de Talca","category":"historia","lat":-35.43200678655486,"lng":-71.65933860905861,"avgVisitMinutes":30,"estimatedCostEur":12,"score":4.671305481354551},{"id":"talagante_9813","citySlug":"talagante","name":"Mercado Gastronómico","category":"gastronomia","lat":-33.654015653964414,"lng":-70.92691554573987,"avgVisitMinutes":51,"estimatedCostEur":16,"score":3.538586331980536},{"id":"talagante_3055","citySlug":"talagante","name":"Mercado Gastronómico","category":"gastronomia","lat":-33.66441004971412,"lng":-70.92117107729737,"avgVisitMinutes":23,"estimatedCostEur":24,"score":4.262631226226611},{"id":"talagante_8958","citySlug":"talagante","name":"Galería de Arte","category":"cultura","lat":-33.667645532422696,"lng":-70.9210289768636,"avgVisitMinutes":86,"estimatedCostEur":25,"score":4.561427269777052},{"id":"talagante_4365","citySlug":"talagante","name":"Museo Local de Talagante","category":"historia","lat":-33.657221672282844,"lng":-70.9196821364258,"avgVisitMinutes":41,"estimatedCostEur":10,"score":4.589637649186998},{"id":"talagante_9584","citySlug":"talagante","name":"Mirador de Talagante","category":"mirador","lat":-33.66121985674263,"lng":-70.93267106216868,"avgVisitMinutes":79,"estimatedCostEur":13,"score":3.5953332679190444},{"id":"talagante_5671","citySlug":"talagante","name":"Restaurante Típico de Talagante","category":"gastronomia","lat":-33.6572777491115,"lng":-70.9254729593984,"avgVisitMinutes":90,"estimatedCostEur":22,"score":0.6865324542927125},{"id":"talagante_2967","citySlug":"talagante","name":"Museo Cultural de Talagante","category":"cultura","lat":-33.65945023597936,"lng":-70.91797310534871,"avgVisitMinutes":31,"estimatedCostEur":8,"score":4.259900543513341},{"id":"talagante_2823","citySlug":"talagante","name":"Museo Cultural de Talagante","category":"cultura","lat":-33.665211757039046,"lng":-70.92543481609006,"avgVisitMinutes":27,"estimatedCostEur":11,"score":4.199974900788932},{"id":"sierra-gorda_6769","citySlug":"sierra-gorda","name":"Murallas de Sierra Gorda","category":"historia","lat":-22.893298170403856,"lng":-69.31061741843268,"avgVisitMinutes":20,"estimatedCostEur":23,"score":1.581144126687927},{"id":"sierra-gorda_6599","citySlug":"sierra-gorda","name":"Museo Cultural de Sierra Gorda","category":"cultura","lat":-22.88910318875274,"lng":-69.31347338116444,"avgVisitMinutes":76,"estimatedCostEur":6,"score":3.1760396907119754},{"id":"sierra-gorda_7455","citySlug":"sierra-gorda","name":"Playa Norte","category":"playa","lat":-22.892575504113232,"lng":-69.3213545081202,"avgVisitMinutes":34,"estimatedCostEur":1,"score":4.756169748162316},{"id":"sierra-gorda_1765","citySlug":"sierra-gorda","name":"Punto Panorámico","category":"mirador","lat":-22.88459040636074,"lng":-69.3139628597623,"avgVisitMinutes":60,"estimatedCostEur":0,"score":3.5495787880930862},{"id":"sierra-gorda_1448","citySlug":"sierra-gorda","name":"Centro de Arte de Sierra Gorda","category":"cultura","lat":-22.8835261894837,"lng":-69.3134027053828,"avgVisitMinutes":63,"estimatedCostEur":10,"score":4.047228751064062},{"id":"sierra-gorda_9953","citySlug":"sierra-gorda","name":"Playa Norte","category":"playa","lat":-22.882996798028753,"lng":-69.3200474692022,"avgVisitMinutes":57,"estimatedCostEur":19,"score":1.4214741054781694},{"id":"sierra-gorda_9154","citySlug":"sierra-gorda","name":"Restaurante Típico de Sierra Gorda","category":"gastronomia","lat":-22.897688604053986,"lng":-69.32425251016322,"avgVisitMinutes":68,"estimatedCostEur":19,"score":1.2559709971246233},{"id":"sierra-gorda_9769","citySlug":"sierra-gorda","name":"Ruta de Tapas","category":"gastronomia","lat":-22.896233345639416,"lng":-69.31153315693435,"avgVisitMinutes":28,"estimatedCostEur":9,"score":2.7536587044570298},{"id":"sierra-gorda_4639","citySlug":"sierra-gorda","name":"Museo Local de Sierra Gorda","category":"historia","lat":-22.89281995206718,"lng":-69.31988089396592,"avgVisitMinutes":52,"estimatedCostEur":5,"score":0.6815466529276686},{"id":"san-vicente-de-tagua-tagua_8983","citySlug":"san-vicente-de-tagua-tagua","name":"Playa Norte","category":"playa","lat":-34.43857200920924,"lng":-71.07125478595187,"avgVisitMinutes":74,"estimatedCostEur":25,"score":1.0337150206908774},{"id":"san-vicente-de-tagua-tagua_1028","citySlug":"san-vicente-de-tagua-tagua","name":"Playa Central","category":"playa","lat":-34.441007189657746,"lng":-71.08556465855558,"avgVisitMinutes":38,"estimatedCostEur":2,"score":0.8610274571078442},{"id":"san-vicente-de-tagua-tagua_2609","citySlug":"san-vicente-de-tagua-tagua","name":"Centro de Arte de San Vicente de Tagua Tagua","category":"cultura","lat":-34.437429422214684,"lng":-71.08213756612763,"avgVisitMinutes":26,"estimatedCostEur":4,"score":2.569520215746328},{"id":"san-vicente-de-tagua-tagua_9435","citySlug":"san-vicente-de-tagua-tagua","name":"Playa Sur","category":"playa","lat":-34.44290890611384,"lng":-71.08173252541539,"avgVisitMinutes":56,"estimatedCostEur":24,"score":4.23331898051659},{"id":"san-vicente-de-tagua-tagua_1960","citySlug":"san-vicente-de-tagua-tagua","name":"Paseo Principal","category":"ocio","lat":-34.43753630208421,"lng":-71.08691941958458,"avgVisitMinutes":40,"estimatedCostEur":3,"score":1.5571365225342892},{"id":"san-vicente-de-tagua-tagua_6654","citySlug":"san-vicente-de-tagua-tagua","name":"Vista Alta de San Vicente de Tagua Tagua","category":"mirador","lat":-34.43672745790831,"lng":-71.08409066990045,"avgVisitMinutes":37,"estimatedCostEur":12,"score":1.7257547326824525},{"id":"santiago_9230","citySlug":"santiago","name":"Punto Panorámico","category":"mirador","lat":-33.45833119922127,"lng":-70.65246652492145,"avgVisitMinutes":76,"estimatedCostEur":24,"score":3.833413762562726},{"id":"santiago_1086","citySlug":"santiago","name":"Mirador de Santiago","category":"mirador","lat":-33.45230406558742,"lng":-70.65314054446864,"avgVisitMinutes":76,"estimatedCostEur":14,"score":0.9623033078358992},{"id":"santiago_3677","citySlug":"santiago","name":"Centro Histórico","category":"historia","lat":-33.452562649921084,"lng":-70.6442135827255,"avgVisitMinutes":71,"estimatedCostEur":7,"score":4.9158453007923},{"id":"santiago_7019","citySlug":"santiago","name":"Punto Panorámico","category":"mirador","lat":-33.44785028664222,"lng":-70.65567777127139,"avgVisitMinutes":36,"estimatedCostEur":7,"score":1.2502080028145912},{"id":"santiago_2120","citySlug":"santiago","name":"Teatro Municipal","category":"cultura","lat":-33.45172674985991,"lng":-70.643334290232,"avgVisitMinutes":82,"estimatedCostEur":4,"score":4.438196576747147},{"id":"santiago_3322","citySlug":"santiago","name":"Punto Panorámico","category":"mirador","lat":-33.45206415849286,"lng":-70.63892492494159,"avgVisitMinutes":71,"estimatedCostEur":22,"score":4.956284688650342},{"id":"santa-maria_8368","citySlug":"santa-maria","name":"Restaurante Típico de Santa María","category":"gastronomia","lat":-32.742543585802764,"lng":-70.65492147171561,"avgVisitMinutes":85,"estimatedCostEur":2,"score":4.4694613849286835},{"id":"santa-maria_1866","citySlug":"santa-maria","name":"Museo Cultural de Santa María","category":"cultura","lat":-32.74722627957265,"lng":-70.65589846932133,"avgVisitMinutes":45,"estimatedCostEur":1,"score":3.231162183713857},{"id":"santa-maria_1011","citySlug":"santa-maria","name":"Mirador de Santa María","category":"mirador","lat":-32.7436662050036,"lng":-70.661619404453,"avgVisitMinutes":72,"estimatedCostEur":6,"score":2.081952386975888},{"id":"santa-maria_2981","citySlug":"santa-maria","name":"Playa Central","category":"playa","lat":-32.75507506616935,"lng":-70.64992672458207,"avgVisitMinutes":57,"estimatedCostEur":21,"score":3.587920408344317},{"id":"santa-maria_7232","citySlug":"santa-maria","name":"Parque Central","category":"ocio","lat":-32.743665701070114,"lng":-70.6558500263771,"avgVisitMinutes":88,"estimatedCostEur":25,"score":2.1398291191785197},{"id":"santa-maria_9759","citySlug":"santa-maria","name":"Playa Norte","category":"playa","lat":-32.75218795226002,"lng":-70.65628730972342,"avgVisitMinutes":76,"estimatedCostEur":13,"score":4.20244519837058},{"id":"santa-maria_9663","citySlug":"santa-maria","name":"Paseo Principal","category":"ocio","lat":-32.755478543205825,"lng":-70.6582685782944,"avgVisitMinutes":24,"estimatedCostEur":6,"score":0.8451419908175173},{"id":"santa-maria_8684","citySlug":"santa-maria","name":"Museo Cultural de Santa María","category":"cultura","lat":-32.75097668106896,"lng":-70.65446401955914,"avgVisitMinutes":87,"estimatedCostEur":22,"score":4.545665933643999},{"id":"santa-maria_1731","citySlug":"santa-maria","name":"Punto Panorámico","category":"mirador","lat":-32.753800339528546,"lng":-70.65765103669936,"avgVisitMinutes":35,"estimatedCostEur":18,"score":4.885188809723728},{"id":"santa-maria_6733","citySlug":"santa-maria","name":"Zona Comercial","category":"ocio","lat":-32.747065525785345,"lng":-70.66253448805566,"avgVisitMinutes":59,"estimatedCostEur":12,"score":1.003536915036671},{"id":"santa-maria_4683","citySlug":"santa-maria","name":"Punto Panorámico","category":"mirador","lat":-32.73832565026848,"lng":-70.65222622303564,"avgVisitMinutes":71,"estimatedCostEur":14,"score":3.515938085828037},{"id":"santa-juana_6658","citySlug":"santa-juana","name":"Vista Alta de Santa Juana","category":"mirador","lat":-37.18134969345293,"lng":-72.94911391382003,"avgVisitMinutes":50,"estimatedCostEur":25,"score":1.7363003377909814},{"id":"santa-juana_2626","citySlug":"santa-juana","name":"Museo Cultural de Santa Juana","category":"cultura","lat":-37.18398280185844,"lng":-72.94772504349363,"avgVisitMinutes":83,"estimatedCostEur":5,"score":3.7482856303123055},{"id":"santa-juana_7126","citySlug":"santa-juana","name":"Ruta de Tapas","category":"gastronomia","lat":-37.184416887604705,"lng":-72.93396351384406,"avgVisitMinutes":63,"estimatedCostEur":23,"score":3.5862079365115607},{"id":"santa-juana_5004","citySlug":"santa-juana","name":"Playa Norte","category":"playa","lat":-37.183667107753,"lng":-72.93717723964325,"avgVisitMinutes":80,"estimatedCostEur":20,"score":1.3792713570676467},{"id":"santa-juana_2137","citySlug":"santa-juana","name":"Playa Central","category":"playa","lat":-37.1737770402464,"lng":-72.94670313544971,"avgVisitMinutes":74,"estimatedCostEur":2,"score":2.771078769836989},{"id":"santa-juana_6121","citySlug":"santa-juana","name":"Murallas de Santa Juana","category":"historia","lat":-37.18505669077623,"lng":-72.94706186912698,"avgVisitMinutes":89,"estimatedCostEur":17,"score":0.6490900485547153},{"id":"santa-juana_7924","citySlug":"santa-juana","name":"Playa Central","category":"playa","lat":-37.17676967108883,"lng":-72.93993204092378,"avgVisitMinutes":81,"estimatedCostEur":22,"score":2.464484298192993},{"id":"santa-cruz_8567","citySlug":"santa-cruz","name":"Murallas de Santa Cruz","category":"historia","lat":-34.64765896356192,"lng":-71.36023927806279,"avgVisitMinutes":85,"estimatedCostEur":5,"score":3.9844009940872382},{"id":"santa-cruz_3275","citySlug":"santa-cruz","name":"Museo Cultural de Santa Cruz","category":"cultura","lat":-34.646622492928735,"lng":-71.37549196327781,"avgVisitMinutes":77,"estimatedCostEur":0,"score":3.707346979404992},{"id":"santa-cruz_9680","citySlug":"santa-cruz","name":"Punto Panorámico","category":"mirador","lat":-34.642842636232416,"lng":-71.37257835360423,"avgVisitMinutes":69,"estimatedCostEur":1,"score":4.414508824922846},{"id":"santa-cruz_1799","citySlug":"santa-cruz","name":"Centro Histórico","category":"historia","lat":-34.632476683594575,"lng":-71.36304719984676,"avgVisitMinutes":43,"estimatedCostEur":10,"score":1.570660987870442},{"id":"santa-cruz_3416","citySlug":"santa-cruz","name":"Zona Comercial","category":"ocio","lat":-34.63307185580975,"lng":-71.36177782370612,"avgVisitMinutes":35,"estimatedCostEur":17,"score":2.7520994888732426},{"id":"santa-barbara_1766","citySlug":"santa-barbara","name":"Zona Comercial","category":"ocio","lat":-37.67476756150837,"lng":-72.0311282209488,"avgVisitMinutes":79,"estimatedCostEur":1,"score":2.466944710962167},{"id":"santa-barbara_4174","citySlug":"santa-barbara","name":"Galería de Arte","category":"cultura","lat":-37.677221927346785,"lng":-72.02349866483122,"avgVisitMinutes":31,"estimatedCostEur":14,"score":0.8766723577960736},{"id":"santa-barbara_3821","citySlug":"santa-barbara","name":"Teatro Municipal","category":"cultura","lat":-37.667034635827875,"lng":-72.0203244084724,"avgVisitMinutes":55,"estimatedCostEur":9,"score":3.1478098525958047},{"id":"santa-barbara_7893","citySlug":"santa-barbara","name":"Paseo Principal","category":"ocio","lat":-37.66447349112472,"lng":-72.02519499576155,"avgVisitMinutes":63,"estimatedCostEur":16,"score":3.638362830924342},{"id":"santa-barbara_1994","citySlug":"santa-barbara","name":"Museo Cultural de Santa Bárbara","category":"cultura","lat":-37.669835532618386,"lng":-72.0305265660834,"avgVisitMinutes":25,"estimatedCostEur":20,"score":3.7571541821018646},{"id":"santa-barbara_5988","citySlug":"santa-barbara","name":"Parque Central","category":"ocio","lat":-37.671675388902344,"lng":-72.01725972424798,"avgVisitMinutes":64,"estimatedCostEur":22,"score":2.377054481864815},{"id":"santa-barbara_1188","citySlug":"santa-barbara","name":"Parque Central","category":"ocio","lat":-37.6634004313891,"lng":-72.02316136915128,"avgVisitMinutes":29,"estimatedCostEur":4,"score":4.502251884519967},{"id":"santa-barbara_6349","citySlug":"santa-barbara","name":"Mirador de Santa Bárbara","category":"mirador","lat":-37.67338980956259,"lng":-72.01393503337111,"avgVisitMinutes":79,"estimatedCostEur":8,"score":2.376204211572511},{"id":"santa-barbara_3784","citySlug":"santa-barbara","name":"Punto Panorámico","category":"mirador","lat":-37.65845167933196,"lng":-72.02113957600288,"avgVisitMinutes":59,"estimatedCostEur":7,"score":3.714174926630572},{"id":"santa-barbara_2378","citySlug":"santa-barbara","name":"Vista Alta de Santa Bárbara","category":"mirador","lat":-37.67106114429758,"lng":-72.01974959932915,"avgVisitMinutes":79,"estimatedCostEur":13,"score":4.37214965887344},{"id":"santa-barbara_7253","citySlug":"santa-barbara","name":"Vista Alta de Santa Bárbara","category":"mirador","lat":-37.66762994762015,"lng":-72.02148620309349,"avgVisitMinutes":84,"estimatedCostEur":16,"score":4.952721120487024},{"id":"santa-barbara_3243","citySlug":"santa-barbara","name":"Ruta de Tapas","category":"gastronomia","lat":-37.674364799800095,"lng":-72.02404909377852,"avgVisitMinutes":32,"estimatedCostEur":7,"score":3.9462590170625407},{"id":"san-rafael_4491","citySlug":"san-rafael","name":"Restaurante Típico de San Rafael","category":"gastronomia","lat":-35.29930743981771,"lng":-71.52893872743739,"avgVisitMinutes":34,"estimatedCostEur":13,"score":1.8645119584892786},{"id":"san-rafael_6030","citySlug":"san-rafael","name":"Mercado Gastronómico","category":"gastronomia","lat":-35.310805991849435,"lng":-71.52055303483932,"avgVisitMinutes":67,"estimatedCostEur":25,"score":4.574081519483195},{"id":"san-rafael_6064","citySlug":"san-rafael","name":"Parque Central","category":"ocio","lat":-35.303289677006795,"lng":-71.52541903869859,"avgVisitMinutes":57,"estimatedCostEur":25,"score":4.1277538108204865},{"id":"san-rafael_8307","citySlug":"san-rafael","name":"Iglesia de San Rafael","category":"historia","lat":-35.315514592273566,"lng":-71.50935301945084,"avgVisitMinutes":42,"estimatedCostEur":2,"score":4.578136289121059},{"id":"san-rafael_8722","citySlug":"san-rafael","name":"Centro Histórico","category":"historia","lat":-35.303083886309345,"lng":-71.50955171539512,"avgVisitMinutes":41,"estimatedCostEur":5,"score":0.7989909309231265},{"id":"san-rafael_6479","citySlug":"san-rafael","name":"Zona Comercial","category":"ocio","lat":-35.315022416220444,"lng":-71.52002361029535,"avgVisitMinutes":85,"estimatedCostEur":21,"score":4.342220173963704},{"id":"san-pedro-de-atacama_8446","citySlug":"san-pedro-de-atacama","name":"Teatro Municipal","category":"cultura","lat":-22.912871204926507,"lng":-68.20459250893924,"avgVisitMinutes":50,"estimatedCostEur":10,"score":0.5733074840690231},{"id":"san-pedro-de-atacama_1940","citySlug":"san-pedro-de-atacama","name":"Vista Alta de San Pedro de Atacama","category":"mirador","lat":-22.917369850994394,"lng":-68.1964910032844,"avgVisitMinutes":20,"estimatedCostEur":1,"score":1.0308650299177793},{"id":"san-pedro-de-atacama_8017","citySlug":"san-pedro-de-atacama","name":"Playa Norte","category":"playa","lat":-22.912276904712794,"lng":-68.20043740515592,"avgVisitMinutes":61,"estimatedCostEur":23,"score":1.9884113849432472},{"id":"san-pedro-de-atacama_1274","citySlug":"san-pedro-de-atacama","name":"Museo Local de San Pedro de Atacama","category":"historia","lat":-22.91564473700984,"lng":-68.21095828553621,"avgVisitMinutes":36,"estimatedCostEur":24,"score":2.202050379089519},{"id":"san-pedro-de-atacama_6807","citySlug":"san-pedro-de-atacama","name":"Punto Panorámico","category":"mirador","lat":-22.912932390018824,"lng":-68.1956559678443,"avgVisitMinutes":28,"estimatedCostEur":10,"score":3.248183321952108},{"id":"san-pedro-de-atacama_2862","citySlug":"san-pedro-de-atacama","name":"Vista Alta de San Pedro de Atacama","category":"mirador","lat":-22.920347831023893,"lng":-68.19299312964803,"avgVisitMinutes":49,"estimatedCostEur":13,"score":0.6843050020990303},{"id":"san-pedro-de-atacama_7775","citySlug":"san-pedro-de-atacama","name":"Mercado Gastronómico","category":"gastronomia","lat":-22.906471780776133,"lng":-68.19744927925602,"avgVisitMinutes":21,"estimatedCostEur":15,"score":1.3397887815135427},{"id":"san-pablo_8361","citySlug":"san-pablo","name":"Ruta de Tapas","category":"gastronomia","lat":-40.4073404323313,"lng":-73.01371175800347,"avgVisitMinutes":66,"estimatedCostEur":23,"score":4.803162958786041},{"id":"san-pablo_8787","citySlug":"san-pablo","name":"Parque Central","category":"ocio","lat":-40.414618795767105,"lng":-73.02015749673293,"avgVisitMinutes":56,"estimatedCostEur":4,"score":0.9986130293736575},{"id":"san-pablo_5347","citySlug":"san-pablo","name":"Parque Central","category":"ocio","lat":-40.42037732076101,"lng":-73.01919124195203,"avgVisitMinutes":61,"estimatedCostEur":5,"score":2.9187104912814537},{"id":"san-pablo_7930","citySlug":"san-pablo","name":"Playa Norte","category":"playa","lat":-40.42273747729238,"lng":-73.01933518054557,"avgVisitMinutes":48,"estimatedCostEur":7,"score":2.7871289939371917},{"id":"san-pablo_9126","citySlug":"san-pablo","name":"Playa Central","category":"playa","lat":-40.40652078116737,"lng":-73.02068539589571,"avgVisitMinutes":65,"estimatedCostEur":3,"score":3.5072660734794208},{"id":"san-pablo_2314","citySlug":"san-pablo","name":"Castillo de San Pablo","category":"historia","lat":-40.40700055662039,"lng":-73.00407373679357,"avgVisitMinutes":65,"estimatedCostEur":6,"score":3.86030098989204},{"id":"san-pablo_3053","citySlug":"san-pablo","name":"Mercado Gastronómico","category":"gastronomia","lat":-40.41387265319643,"lng":-73.01621907799031,"avgVisitMinutes":45,"estimatedCostEur":4,"score":0.537680150274422},{"id":"san-pablo_3682","citySlug":"san-pablo","name":"Parque Central","category":"ocio","lat":-40.4209136273903,"lng":-73.01044037153038,"avgVisitMinutes":37,"estimatedCostEur":11,"score":2.14410141636733},{"id":"san-pablo_3489","citySlug":"san-pablo","name":"Vista Alta de San Pablo","category":"mirador","lat":-40.4068966889595,"lng":-73.01641395434349,"avgVisitMinutes":76,"estimatedCostEur":15,"score":1.700388015818305},{"id":"san-pablo_9221","citySlug":"san-pablo","name":"Paseo Principal","category":"ocio","lat":-40.4133492470257,"lng":-73.01866400960704,"avgVisitMinutes":55,"estimatedCostEur":22,"score":2.810726262016895},{"id":"san-pablo_1827","citySlug":"san-pablo","name":"Teatro Municipal","category":"cultura","lat":-40.41606336666787,"lng":-73.01103273174446,"avgVisitMinutes":41,"estimatedCostEur":21,"score":4.072663007182447},{"id":"san-nicolas_5360","citySlug":"san-nicolas","name":"Galería de Arte","category":"cultura","lat":-36.50295927896252,"lng":-72.21970526219397,"avgVisitMinutes":54,"estimatedCostEur":17,"score":1.807657891482512},{"id":"san-nicolas_4213","citySlug":"san-nicolas","name":"Playa Central","category":"playa","lat":-36.49179285338141,"lng":-72.21214093852953,"avgVisitMinutes":47,"estimatedCostEur":6,"score":3.101468903754109},{"id":"san-nicolas_3901","citySlug":"san-nicolas","name":"Paseo Principal","category":"ocio","lat":-36.49129869327686,"lng":-72.22176866012491,"avgVisitMinutes":63,"estimatedCostEur":22,"score":1.404053709770128},{"id":"san-nicolas_2718","citySlug":"san-nicolas","name":"Ruta de Tapas","category":"gastronomia","lat":-36.49578642992495,"lng":-72.21760074891026,"avgVisitMinutes":59,"estimatedCostEur":18,"score":2.3116916551037368},{"id":"san-nicolas_6887","citySlug":"san-nicolas","name":"Zona Comercial","category":"ocio","lat":-36.50413592819322,"lng":-72.21935777790415,"avgVisitMinutes":23,"estimatedCostEur":19,"score":1.6849828267756788},{"id":"san-nicolas_9068","citySlug":"san-nicolas","name":"Galería de Arte","category":"cultura","lat":-36.49783907744287,"lng":-72.21978876400686,"avgVisitMinutes":21,"estimatedCostEur":12,"score":4.452365904349221},{"id":"san-nicolas_2929","citySlug":"san-nicolas","name":"Playa Norte","category":"playa","lat":-36.51107776958819,"lng":-72.22189847013362,"avgVisitMinutes":74,"estimatedCostEur":13,"score":4.039621613178393},{"id":"san-nicolas_8252","citySlug":"san-nicolas","name":"Playa Norte","category":"playa","lat":-36.50988627841069,"lng":-72.20711123124501,"avgVisitMinutes":79,"estimatedCostEur":4,"score":0.7914258140283424},{"id":"san-jose-de-maipo_3500","citySlug":"san-jose-de-maipo","name":"Punto Panorámico","category":"mirador","lat":-33.646987473366735,"lng":-70.34623535261474,"avgVisitMinutes":31,"estimatedCostEur":0,"score":1.1359738380329163},{"id":"san-jose-de-maipo_7625","citySlug":"san-jose-de-maipo","name":"Playa Sur","category":"playa","lat":-33.64418615610392,"lng":-70.35340878459384,"avgVisitMinutes":88,"estimatedCostEur":23,"score":2.3053585202402394},{"id":"san-jose-de-maipo_4527","citySlug":"san-jose-de-maipo","name":"Playa Norte","category":"playa","lat":-33.63973752015967,"lng":-70.35393260767168,"avgVisitMinutes":49,"estimatedCostEur":7,"score":3.999963507128868},{"id":"san-jose-de-maipo_1645","citySlug":"san-jose-de-maipo","name":"Restaurante Típico de San José de Maipo","category":"gastronomia","lat":-33.633124643472776,"lng":-70.35981756272324,"avgVisitMinutes":29,"estimatedCostEur":5,"score":4.831770994373579},{"id":"san-jose-de-maipo_9909","citySlug":"san-jose-de-maipo","name":"Museo Local de San José de Maipo","category":"historia","lat":-33.633410415187505,"lng":-70.34601811539267,"avgVisitMinutes":20,"estimatedCostEur":17,"score":0.850264379972089},{"id":"san-jose-de-maipo_8751","citySlug":"san-jose-de-maipo","name":"Restaurante Típico de San José de Maipo","category":"gastronomia","lat":-33.642750078218015,"lng":-70.36101715302944,"avgVisitMinutes":78,"estimatedCostEur":12,"score":1.480944802305119},{"id":"san-jose-de-maipo_6529","citySlug":"san-jose-de-maipo","name":"Restaurante Típico de San José de Maipo","category":"gastronomia","lat":-33.64776158343764,"lng":-70.3570708199243,"avgVisitMinutes":89,"estimatedCostEur":25,"score":4.7231544765959494},{"id":"san-jose-de-maipo_9328","citySlug":"san-jose-de-maipo","name":"Mirador de San José de Maipo","category":"mirador","lat":-33.647617842954844,"lng":-70.34825216530753,"avgVisitMinutes":24,"estimatedCostEur":6,"score":3.151097128407945},{"id":"san-jose-de-maipo_9444","citySlug":"san-jose-de-maipo","name":"Playa Central","category":"playa","lat":-33.64239436173756,"lng":-70.34873774376112,"avgVisitMinutes":34,"estimatedCostEur":1,"score":4.075344458562519},{"id":"san-javier_7301","citySlug":"san-javier","name":"Playa Central","category":"playa","lat":-35.587375330457995,"lng":-71.73460307331614,"avgVisitMinutes":23,"estimatedCostEur":13,"score":1.5176277645471963},{"id":"san-javier_2030","citySlug":"san-javier","name":"Mercado Gastronómico","category":"gastronomia","lat":-35.591788991291736,"lng":-71.72787748607807,"avgVisitMinutes":28,"estimatedCostEur":18,"score":3.506198839126753},{"id":"san-javier_4114","citySlug":"san-javier","name":"Playa Central","category":"playa","lat":-35.587165745983036,"lng":-71.71929575788624,"avgVisitMinutes":75,"estimatedCostEur":9,"score":4.331776833352755},{"id":"san-javier_8815","citySlug":"san-javier","name":"Teatro Municipal","category":"cultura","lat":-35.59207304187387,"lng":-71.72886114379193,"avgVisitMinutes":61,"estimatedCostEur":7,"score":2.0181424076194485},{"id":"san-javier_9910","citySlug":"san-javier","name":"Murallas de San Javier","category":"historia","lat":-35.5865064587519,"lng":-71.73080281939559,"avgVisitMinutes":59,"estimatedCostEur":11,"score":4.329340024022228},{"id":"san-javier_5137","citySlug":"san-javier","name":"Vista Alta de San Javier","category":"mirador","lat":-35.60257717426076,"lng":-71.7206143181899,"avgVisitMinutes":57,"estimatedCostEur":23,"score":0.7293858483850477},{"id":"san-javier_3404","citySlug":"san-javier","name":"Mercado Gastronómico","category":"gastronomia","lat":-35.598542152603244,"lng":-71.73176471726003,"avgVisitMinutes":34,"estimatedCostEur":1,"score":2.2112012814354074},{"id":"san-javier_3860","citySlug":"san-javier","name":"Museo Cultural de San Javier","category":"cultura","lat":-35.59676823079038,"lng":-71.73587475258238,"avgVisitMinutes":46,"estimatedCostEur":8,"score":2.806154165930273},{"id":"san-javier_3719","citySlug":"san-javier","name":"Paseo Principal","category":"ocio","lat":-35.59897204280347,"lng":-71.73046849653025,"avgVisitMinutes":21,"estimatedCostEur":2,"score":4.020722632322187},{"id":"san-javier_3850","citySlug":"san-javier","name":"Galería de Arte","category":"cultura","lat":-35.597516098489024,"lng":-71.72411190813052,"avgVisitMinutes":76,"estimatedCostEur":12,"score":4.51122105585662},{"id":"san-javier_6343","citySlug":"san-javier","name":"Centro de Arte de San Javier","category":"cultura","lat":-35.5968728315068,"lng":-71.7243252554936,"avgVisitMinutes":33,"estimatedCostEur":10,"score":3.0077754301055712},{"id":"san-javier_1965","citySlug":"san-javier","name":"Paseo Principal","category":"ocio","lat":-35.58953577246883,"lng":-71.72762523639908,"avgVisitMinutes":69,"estimatedCostEur":10,"score":1.8345017098859648},{"id":"san-ignacio_1590","citySlug":"san-ignacio","name":"Centro Histórico","category":"historia","lat":-36.797096747482264,"lng":-72.03814695321883,"avgVisitMinutes":86,"estimatedCostEur":22,"score":0.6070797433732422},{"id":"san-ignacio_6709","citySlug":"san-ignacio","name":"Parque Central","category":"ocio","lat":-36.79569564369974,"lng":-72.03472975539069,"avgVisitMinutes":79,"estimatedCostEur":2,"score":2.8555258948264557},{"id":"san-ignacio_7127","citySlug":"san-ignacio","name":"Punto Panorámico","category":"mirador","lat":-36.80727895574556,"lng":-72.0341076519591,"avgVisitMinutes":73,"estimatedCostEur":16,"score":3.576088842430984},{"id":"san-ignacio_8425","citySlug":"san-ignacio","name":"Zona Comercial","category":"ocio","lat":-36.79839117719221,"lng":-72.03108077668443,"avgVisitMinutes":36,"estimatedCostEur":7,"score":1.8565769287433798},{"id":"san-ignacio_3143","citySlug":"san-ignacio","name":"Centro de Arte de San Ignacio","category":"cultura","lat":-36.794272061244,"lng":-72.03315316438825,"avgVisitMinutes":22,"estimatedCostEur":15,"score":3.3310919590753874},{"id":"san-ignacio_2047","citySlug":"san-ignacio","name":"Murallas de San Ignacio","category":"historia","lat":-36.800674416606725,"lng":-72.02625727214833,"avgVisitMinutes":75,"estimatedCostEur":14,"score":2.794157420481744},{"id":"san-ignacio_5951","citySlug":"san-ignacio","name":"Parque Central","category":"ocio","lat":-36.80314871634329,"lng":-72.03465104782121,"avgVisitMinutes":82,"estimatedCostEur":4,"score":0.702677847503786},{"id":"san-ignacio_5070","citySlug":"san-ignacio","name":"Zona Comercial","category":"ocio","lat":-36.7939052944885,"lng":-72.0262237353254,"avgVisitMinutes":74,"estimatedCostEur":2,"score":4.774238849173779},{"id":"san-ignacio_4966","citySlug":"san-ignacio","name":"Ruta de Tapas","category":"gastronomia","lat":-36.79792888041052,"lng":-72.02505958333708,"avgVisitMinutes":26,"estimatedCostEur":9,"score":4.451561568075122},{"id":"san-ignacio_9313","citySlug":"san-ignacio","name":"Murallas de San Ignacio","category":"historia","lat":-36.7930491812376,"lng":-72.02214031992662,"avgVisitMinutes":79,"estimatedCostEur":21,"score":3.939277257909798},{"id":"san-francisco-de-mostazal_2557","citySlug":"san-francisco-de-mostazal","name":"Ruta de Tapas","category":"gastronomia","lat":-33.98118740066682,"lng":-70.70786003290888,"avgVisitMinutes":75,"estimatedCostEur":20,"score":4.66076450753596},{"id":"san-francisco-de-mostazal_1359","citySlug":"san-francisco-de-mostazal","name":"Murallas de San Francisco de Mostazal","category":"historia","lat":-33.973725368574875,"lng":-70.71964607856933,"avgVisitMinutes":86,"estimatedCostEur":4,"score":1.5576114476153713},{"id":"san-francisco-de-mostazal_1556","citySlug":"san-francisco-de-mostazal","name":"Parque Central","category":"ocio","lat":-33.97965110015774,"lng":-70.70970527228467,"avgVisitMinutes":24,"estimatedCostEur":1,"score":1.3865641368055073},{"id":"san-francisco-de-mostazal_2419","citySlug":"san-francisco-de-mostazal","name":"Zona Comercial","category":"ocio","lat":-33.97335381998862,"lng":-70.71944198197207,"avgVisitMinutes":70,"estimatedCostEur":25,"score":1.4388997099323884},{"id":"san-francisco-de-mostazal_8360","citySlug":"san-francisco-de-mostazal","name":"Vista Alta de San Francisco de Mostazal","category":"mirador","lat":-33.98111730243909,"lng":-70.72029883548954,"avgVisitMinutes":88,"estimatedCostEur":11,"score":1.92684301072784},{"id":"san-francisco-de-mostazal_5523","citySlug":"san-francisco-de-mostazal","name":"Mercado Gastronómico","category":"gastronomia","lat":-33.98110617371182,"lng":-70.71430085054276,"avgVisitMinutes":55,"estimatedCostEur":14,"score":3.674526914250421},{"id":"san-francisco-de-mostazal_5865","citySlug":"san-francisco-de-mostazal","name":"Punto Panorámico","category":"mirador","lat":-33.98899787228551,"lng":-70.70701787355291,"avgVisitMinutes":24,"estimatedCostEur":15,"score":3.4508073857252857},{"id":"san-felipe_9912","citySlug":"san-felipe","name":"Mercado Gastronómico","category":"gastronomia","lat":-32.74392620547544,"lng":-70.73420918254293,"avgVisitMinutes":47,"estimatedCostEur":0,"score":1.6413078697586096},{"id":"san-felipe_1499","citySlug":"san-felipe","name":"Playa Sur","category":"playa","lat":-32.74797700528513,"lng":-70.72051331678887,"avgVisitMinutes":49,"estimatedCostEur":23,"score":4.882026091311864},{"id":"san-felipe_3153","citySlug":"san-felipe","name":"Vista Alta de San Felipe","category":"mirador","lat":-32.7435095572952,"lng":-70.73285914768259,"avgVisitMinutes":33,"estimatedCostEur":0,"score":0.6141114534954297},{"id":"san-felipe_2550","citySlug":"san-felipe","name":"Playa Sur","category":"playa","lat":-32.74786343615562,"lng":-70.71869906958054,"avgVisitMinutes":24,"estimatedCostEur":19,"score":1.204291467988381},{"id":"san-felipe_2112","citySlug":"san-felipe","name":"Museo Local de San Felipe","category":"historia","lat":-32.74142933785144,"lng":-70.72276318603315,"avgVisitMinutes":32,"estimatedCostEur":13,"score":4.337189186413939},{"id":"san-felipe_5564","citySlug":"san-felipe","name":"Mirador de San Felipe","category":"mirador","lat":-32.74863482073958,"lng":-70.72644274393036,"avgVisitMinutes":73,"estimatedCostEur":23,"score":0.697817686790029},{"id":"san-felipe_5643","citySlug":"san-felipe","name":"Mercado Gastronómico","category":"gastronomia","lat":-32.7468397652203,"lng":-70.71818650671526,"avgVisitMinutes":77,"estimatedCostEur":23,"score":2.790581669393582},{"id":"san-felipe_6517","citySlug":"san-felipe","name":"Museo Local de San Felipe","category":"historia","lat":-32.75747370992938,"lng":-70.73454076219626,"avgVisitMinutes":21,"estimatedCostEur":22,"score":3.9504764910489563},{"id":"san-felipe_1321","citySlug":"san-felipe","name":"Zona Comercial","category":"ocio","lat":-32.74499419284259,"lng":-70.72479512904206,"avgVisitMinutes":85,"estimatedCostEur":4,"score":4.14599376514672},{"id":"san-felipe_9805","citySlug":"san-felipe","name":"Restaurante Típico de San Felipe","category":"gastronomia","lat":-32.75662776665654,"lng":-70.72092929552029,"avgVisitMinutes":23,"estimatedCostEur":10,"score":1.3866461506996093},{"id":"san-esteban_1231","citySlug":"san-esteban","name":"Playa Norte","category":"playa","lat":-32.79603716560742,"lng":-70.58645695673987,"avgVisitMinutes":85,"estimatedCostEur":8,"score":1.9250485864268103},{"id":"san-esteban_1538","citySlug":"san-esteban","name":"Playa Central","category":"playa","lat":-32.80693246201444,"lng":-70.57982359319651,"avgVisitMinutes":86,"estimatedCostEur":23,"score":1.9144946766695066},{"id":"san-esteban_9334","citySlug":"san-esteban","name":"Castillo de San Esteban","category":"historia","lat":-32.80357783358615,"lng":-70.58195192620165,"avgVisitMinutes":72,"estimatedCostEur":1,"score":3.7774738746326335},{"id":"san-esteban_3416","citySlug":"san-esteban","name":"Iglesia de San Esteban","category":"historia","lat":-32.80614315524414,"lng":-70.59013562043906,"avgVisitMinutes":73,"estimatedCostEur":22,"score":2.6209438991287803},{"id":"san-esteban_5807","citySlug":"san-esteban","name":"Galería de Arte","category":"cultura","lat":-32.792082801409826,"lng":-70.58473221453954,"avgVisitMinutes":37,"estimatedCostEur":4,"score":4.396912848274283},{"id":"san-clemente_4495","citySlug":"san-clemente","name":"Paseo Principal","category":"ocio","lat":-35.540314125793024,"lng":-71.49206773414518,"avgVisitMinutes":82,"estimatedCostEur":19,"score":4.044078561155551},{"id":"san-clemente_5371","citySlug":"san-clemente","name":"Parque Central","category":"ocio","lat":-35.53890114992102,"lng":-71.4801025068518,"avgVisitMinutes":45,"estimatedCostEur":11,"score":2.1380913021286156},{"id":"san-clemente_8867","citySlug":"san-clemente","name":"Castillo de San Clemente","category":"historia","lat":-35.531252177632815,"lng":-71.49236639200838,"avgVisitMinutes":29,"estimatedCostEur":20,"score":4.21401394345185},{"id":"san-clemente_4928","citySlug":"san-clemente","name":"Ruta de Tapas","category":"gastronomia","lat":-35.544735189954906,"lng":-71.4824662223083,"avgVisitMinutes":62,"estimatedCostEur":15,"score":1.2255839205725727},{"id":"san-clemente_2789","citySlug":"san-clemente","name":"Museo Local de San Clemente","category":"historia","lat":-35.532487650420116,"lng":-71.48460769532001,"avgVisitMinutes":83,"estimatedCostEur":24,"score":4.540872535689295},{"id":"san-clemente_1831","citySlug":"san-clemente","name":"Punto Panorámico","category":"mirador","lat":-35.543826311613515,"lng":-71.48628569778742,"avgVisitMinutes":46,"estimatedCostEur":15,"score":4.541727950788163},{"id":"san-clemente_4663","citySlug":"san-clemente","name":"Centro de Arte de San Clemente","category":"cultura","lat":-35.537102989563216,"lng":-71.477903994922,"avgVisitMinutes":71,"estimatedCostEur":14,"score":3.3907090569250817},{"id":"san-carlos_4212","citySlug":"san-carlos","name":"Centro de Arte de San Carlos","category":"cultura","lat":-36.42097486413351,"lng":-71.95299117479232,"avgVisitMinutes":32,"estimatedCostEur":8,"score":3.6574886967360523},{"id":"san-carlos_1052","citySlug":"san-carlos","name":"Playa Norte","category":"playa","lat":-36.42623780067659,"lng":-71.95292024779232,"avgVisitMinutes":45,"estimatedCostEur":25,"score":4.4966631848120535},{"id":"san-carlos_9947","citySlug":"san-carlos","name":"Punto Panorámico","category":"mirador","lat":-36.417400659898796,"lng":-71.96026335860084,"avgVisitMinutes":45,"estimatedCostEur":17,"score":4.70646112958457},{"id":"san-carlos_7085","citySlug":"san-carlos","name":"Playa Sur","category":"playa","lat":-36.42002058849665,"lng":-71.95840903748778,"avgVisitMinutes":39,"estimatedCostEur":10,"score":2.04817056565726},{"id":"san-carlos_8933","citySlug":"san-carlos","name":"Centro Histórico","category":"historia","lat":-36.43373638312052,"lng":-71.95707222209185,"avgVisitMinutes":66,"estimatedCostEur":14,"score":3.7181244647717557},{"id":"san-carlos_9333","citySlug":"san-carlos","name":"Murallas de San Carlos","category":"historia","lat":-36.42241763189656,"lng":-71.96088046769307,"avgVisitMinutes":27,"estimatedCostEur":3,"score":1.9685600679968802},{"id":"san-carlos_5352","citySlug":"san-carlos","name":"Teatro Municipal","category":"cultura","lat":-36.41659712470561,"lng":-71.9667486619665,"avgVisitMinutes":42,"estimatedCostEur":12,"score":2.9530747313551275},{"id":"san-carlos_1529","citySlug":"san-carlos","name":"Zona Comercial","category":"ocio","lat":-36.43225709497202,"lng":-71.96450753791046,"avgVisitMinutes":83,"estimatedCostEur":21,"score":1.045607434091006},{"id":"san-bernardo_8135","citySlug":"san-bernardo","name":"Museo Cultural de San Bernardo","category":"cultura","lat":-33.59718388163448,"lng":-70.6924689793069,"avgVisitMinutes":23,"estimatedCostEur":22,"score":2.311990578095534},{"id":"san-bernardo_1952","citySlug":"san-bernardo","name":"Galería de Arte","category":"cultura","lat":-33.6008452154285,"lng":-70.70274700835684,"avgVisitMinutes":40,"estimatedCostEur":15,"score":3.877252879079299},{"id":"san-bernardo_6638","citySlug":"san-bernardo","name":"Teatro Municipal","category":"cultura","lat":-33.59439492080375,"lng":-70.6927509903933,"avgVisitMinutes":87,"estimatedCostEur":2,"score":3.907259329291832},{"id":"san-bernardo_9480","citySlug":"san-bernardo","name":"Teatro Municipal","category":"cultura","lat":-33.59052707905806,"lng":-70.697098052443,"avgVisitMinutes":22,"estimatedCostEur":11,"score":4.0021626641802746},{"id":"san-bernardo_8080","citySlug":"san-bernardo","name":"Zona Comercial","category":"ocio","lat":-33.60215154710046,"lng":-70.70088374697582,"avgVisitMinutes":88,"estimatedCostEur":25,"score":2.8378116475505246},{"id":"san-antonio_6733","citySlug":"san-antonio","name":"Museo Local de San Antonio","category":"historia","lat":-33.600190143242585,"lng":-71.60208825745802,"avgVisitMinutes":62,"estimatedCostEur":1,"score":0.853924721119301},{"id":"san-antonio_6811","citySlug":"san-antonio","name":"Mirador de San Antonio","category":"mirador","lat":-33.601973519644574,"lng":-71.61244456160163,"avgVisitMinutes":47,"estimatedCostEur":20,"score":2.9737780799352804},{"id":"san-antonio_4273","citySlug":"san-antonio","name":"Mirador de San Antonio","category":"mirador","lat":-33.604537161643364,"lng":-71.60291228759293,"avgVisitMinutes":83,"estimatedCostEur":12,"score":2.9589597453272343},{"id":"san-antonio_3987","citySlug":"san-antonio","name":"Restaurante Típico de San Antonio","category":"gastronomia","lat":-33.59600331375784,"lng":-71.60182168523185,"avgVisitMinutes":85,"estimatedCostEur":9,"score":4.687971973105679},{"id":"san-antonio_2812","citySlug":"san-antonio","name":"Ruta de Tapas","category":"gastronomia","lat":-33.6031131473109,"lng":-71.60250933983087,"avgVisitMinutes":73,"estimatedCostEur":19,"score":2.4207100098215086},{"id":"san-antonio_7161","citySlug":"san-antonio","name":"Playa Central","category":"playa","lat":-33.594565861301966,"lng":-71.60687292460308,"avgVisitMinutes":27,"estimatedCostEur":14,"score":2.945873501116444},{"id":"san-antonio_4826","citySlug":"san-antonio","name":"Zona Comercial","category":"ocio","lat":-33.60197728114812,"lng":-71.6039504480085,"avgVisitMinutes":85,"estimatedCostEur":11,"score":0.6354089808577742},{"id":"salamanca_9311","citySlug":"salamanca","name":"Playa Norte","category":"playa","lat":-31.78818467203077,"lng":-70.95961194028628,"avgVisitMinutes":84,"estimatedCostEur":19,"score":3.208649343772104},{"id":"salamanca_5160","citySlug":"salamanca","name":"Iglesia de Salamanca","category":"historia","lat":-31.774759114779677,"lng":-70.96998183140849,"avgVisitMinutes":67,"estimatedCostEur":3,"score":3.0584098465816596},{"id":"salamanca_5048","citySlug":"salamanca","name":"Iglesia de Salamanca","category":"historia","lat":-31.78130213953461,"lng":-70.96314291878329,"avgVisitMinutes":41,"estimatedCostEur":11,"score":3.812773062113284},{"id":"salamanca_1304","citySlug":"salamanca","name":"Mercado Gastronómico","category":"gastronomia","lat":-31.77657679080772,"lng":-70.96075389227497,"avgVisitMinutes":63,"estimatedCostEur":6,"score":2.7522383323955935},{"id":"salamanca_8242","citySlug":"salamanca","name":"Parque Central","category":"ocio","lat":-31.778913077618952,"lng":-70.95724989366865,"avgVisitMinutes":31,"estimatedCostEur":20,"score":2.7527052245980728},{"id":"salamanca_4700","citySlug":"salamanca","name":"Punto Panorámico","category":"mirador","lat":-31.771056605237046,"lng":-70.97118084271438,"avgVisitMinutes":62,"estimatedCostEur":9,"score":4.127163439267095},{"id":"salamanca_6197","citySlug":"salamanca","name":"Mirador de Salamanca","category":"mirador","lat":-31.779878497801107,"lng":-70.97251543127118,"avgVisitMinutes":30,"estimatedCostEur":21,"score":1.5506487606487593},{"id":"salamanca_9660","citySlug":"salamanca","name":"Playa Norte","category":"playa","lat":-31.771208866133964,"lng":-70.96258110500294,"avgVisitMinutes":49,"estimatedCostEur":19,"score":1.0825472359739714},{"id":"salamanca_8290","citySlug":"salamanca","name":"Iglesia de Salamanca","category":"historia","lat":-31.77618476848978,"lng":-70.95469562700332,"avgVisitMinutes":56,"estimatedCostEur":9,"score":3.319544944985993},{"id":"salamanca_6727","citySlug":"salamanca","name":"Centro de Arte de Salamanca","category":"cultura","lat":-31.77296417395648,"lng":-70.95560398297877,"avgVisitMinutes":41,"estimatedCostEur":4,"score":4.517349621772713},{"id":"sagrada-familia_8265","citySlug":"sagrada-familia","name":"Zona Comercial","category":"ocio","lat":-34.99538552031663,"lng":-71.3768651767277,"avgVisitMinutes":84,"estimatedCostEur":16,"score":4.974819869952063},{"id":"sagrada-familia_4459","citySlug":"sagrada-familia","name":"Centro Histórico","category":"historia","lat":-35.00743066980402,"lng":-71.37662604259437,"avgVisitMinutes":65,"estimatedCostEur":12,"score":0.6095464663521084},{"id":"sagrada-familia_7845","citySlug":"sagrada-familia","name":"Teatro Municipal","category":"cultura","lat":-35.00612747142562,"lng":-71.39324781082347,"avgVisitMinutes":70,"estimatedCostEur":12,"score":1.4414853326788648},{"id":"sagrada-familia_8635","citySlug":"sagrada-familia","name":"Parque Central","category":"ocio","lat":-35.00144529647733,"lng":-71.3866676496994,"avgVisitMinutes":81,"estimatedCostEur":20,"score":1.0093086809752458},{"id":"sagrada-familia_5707","citySlug":"sagrada-familia","name":"Punto Panorámico","category":"mirador","lat":-34.99224445017559,"lng":-71.37813333579685,"avgVisitMinutes":33,"estimatedCostEur":1,"score":4.1440623237120215},{"id":"sagrada-familia_2729","citySlug":"sagrada-familia","name":"Paseo Principal","category":"ocio","lat":-34.99340941685242,"lng":-71.37747920201166,"avgVisitMinutes":26,"estimatedCostEur":11,"score":0.7563133780639035},{"id":"sagrada-familia_2891","citySlug":"sagrada-familia","name":"Mirador de Sagrada Familia","category":"mirador","lat":-35.00738568063798,"lng":-71.3846073079967,"avgVisitMinutes":67,"estimatedCostEur":17,"score":0.8030681169465943},{"id":"sagrada-familia_2413","citySlug":"sagrada-familia","name":"Punto Panorámico","category":"mirador","lat":-34.99604848729637,"lng":-71.37451599396134,"avgVisitMinutes":47,"estimatedCostEur":17,"score":4.8106480269129515},{"id":"sagrada-familia_8979","citySlug":"sagrada-familia","name":"Iglesia de Sagrada Familia","category":"historia","lat":-35.005494591963554,"lng":-71.38444514757002,"avgVisitMinutes":61,"estimatedCostEur":18,"score":1.4602111829695095},{"id":"sagrada-familia_4418","citySlug":"sagrada-familia","name":"Ruta de Tapas","category":"gastronomia","lat":-35.000166497120155,"lng":-71.38186883452484,"avgVisitMinutes":90,"estimatedCostEur":12,"score":3.2233199757268087},{"id":"sagrada-familia_9604","citySlug":"sagrada-familia","name":"Castillo de Sagrada Familia","category":"historia","lat":-34.9951642957305,"lng":-71.3851017111979,"avgVisitMinutes":82,"estimatedCostEur":15,"score":1.1695708793110149},{"id":"sagrada-familia_3164","citySlug":"sagrada-familia","name":"Mercado Gastronómico","category":"gastronomia","lat":-35.00306233441298,"lng":-71.38583902358646,"avgVisitMinutes":25,"estimatedCostEur":4,"score":3.3190661425820025},{"id":"romeral_7849","citySlug":"romeral","name":"Castillo de Romeral","category":"historia","lat":-34.95566927663055,"lng":-71.11566840847695,"avgVisitMinutes":54,"estimatedCostEur":16,"score":3.546862885400343},{"id":"romeral_3706","citySlug":"romeral","name":"Centro de Arte de Romeral","category":"cultura","lat":-34.9603997080288,"lng":-71.13298876410681,"avgVisitMinutes":25,"estimatedCostEur":13,"score":2.7259623623103346},{"id":"romeral_5397","citySlug":"romeral","name":"Playa Sur","category":"playa","lat":-34.970654174785196,"lng":-71.11886103397485,"avgVisitMinutes":33,"estimatedCostEur":12,"score":2.8455736017045017},{"id":"romeral_2364","citySlug":"romeral","name":"Castillo de Romeral","category":"historia","lat":-34.96306595491692,"lng":-71.11608999456776,"avgVisitMinutes":60,"estimatedCostEur":14,"score":4.231241864033883},{"id":"romeral_4394","citySlug":"romeral","name":"Restaurante Típico de Romeral","category":"gastronomia","lat":-34.95764458904667,"lng":-71.12743692396451,"avgVisitMinutes":72,"estimatedCostEur":23,"score":3.6258480478944697},{"id":"romeral_7600","citySlug":"romeral","name":"Castillo de Romeral","category":"historia","lat":-34.95268904378544,"lng":-71.12300248763214,"avgVisitMinutes":77,"estimatedCostEur":2,"score":2.4829337948167156},{"id":"romeral_2806","citySlug":"romeral","name":"Parque Central","category":"ocio","lat":-34.97009493102501,"lng":-71.12416906593602,"avgVisitMinutes":21,"estimatedCostEur":3,"score":1.9231070564821526},{"id":"romeral_9129","citySlug":"romeral","name":"Playa Central","category":"playa","lat":-34.95642380971848,"lng":-71.12351984368989,"avgVisitMinutes":38,"estimatedCostEur":21,"score":1.9537655824468738},{"id":"santo-domingo_4734","citySlug":"santo-domingo","name":"Museo Local de Santo Domingo","category":"historia","lat":-33.63052974284815,"lng":-71.61777049228033,"avgVisitMinutes":71,"estimatedCostEur":24,"score":3.4070596192820846},{"id":"santo-domingo_6794","citySlug":"santo-domingo","name":"Playa Norte","category":"playa","lat":-33.633004039024335,"lng":-71.62241008133621,"avgVisitMinutes":77,"estimatedCostEur":22,"score":2.6366370892220825},{"id":"santo-domingo_5010","citySlug":"santo-domingo","name":"Galería de Arte","category":"cultura","lat":-33.6394871497466,"lng":-71.6246821357307,"avgVisitMinutes":81,"estimatedCostEur":8,"score":4.404336425955579},{"id":"santo-domingo_6934","citySlug":"santo-domingo","name":"Museo Cultural de Santo Domingo","category":"cultura","lat":-33.639268954634666,"lng":-71.6265388735766,"avgVisitMinutes":83,"estimatedCostEur":19,"score":0.638571399763098},{"id":"santo-domingo_1051","citySlug":"santo-domingo","name":"Museo Cultural de Santo Domingo","category":"cultura","lat":-33.63926037085805,"lng":-71.63070937224181,"avgVisitMinutes":35,"estimatedCostEur":24,"score":4.370090910194101},{"id":"santo-domingo_4970","citySlug":"santo-domingo","name":"Ruta de Tapas","category":"gastronomia","lat":-33.64191064572914,"lng":-71.63383807894564,"avgVisitMinutes":21,"estimatedCostEur":7,"score":3.375357492128331},{"id":"santo-domingo_6106","citySlug":"santo-domingo","name":"Centro de Arte de Santo Domingo","category":"cultura","lat":-33.6289843231551,"lng":-71.62250207176689,"avgVisitMinutes":25,"estimatedCostEur":17,"score":3.1155003331122058},{"id":"rio-negro_4004","citySlug":"rio-negro","name":"Mirador de Río Negro","category":"mirador","lat":-40.79621478291904,"lng":-73.22002243644248,"avgVisitMinutes":54,"estimatedCostEur":7,"score":1.0498751037231204},{"id":"rio-negro_6849","citySlug":"rio-negro","name":"Ruta de Tapas","category":"gastronomia","lat":-40.79757350290275,"lng":-73.21074039563109,"avgVisitMinutes":60,"estimatedCostEur":13,"score":1.5392338399403664},{"id":"rio-negro_8969","citySlug":"rio-negro","name":"Mercado Gastronómico","category":"gastronomia","lat":-40.80461280641476,"lng":-73.21001298433467,"avgVisitMinutes":36,"estimatedCostEur":13,"score":3.7606630146557234},{"id":"rio-negro_4540","citySlug":"rio-negro","name":"Centro Histórico","category":"historia","lat":-40.7907278081884,"lng":-73.22336693779856,"avgVisitMinutes":26,"estimatedCostEur":8,"score":2.8537024440814704},{"id":"rio-negro_7013","citySlug":"rio-negro","name":"Galería de Arte","category":"cultura","lat":-40.798281691580385,"lng":-73.21571043120868,"avgVisitMinutes":23,"estimatedCostEur":25,"score":4.249514849467792},{"id":"rio-negro_8451","citySlug":"rio-negro","name":"Playa Norte","category":"playa","lat":-40.79619644796817,"lng":-73.21351714947973,"avgVisitMinutes":90,"estimatedCostEur":1,"score":3.0470844795832415},{"id":"rio-negro_1972","citySlug":"rio-negro","name":"Mirador de Río Negro","category":"mirador","lat":-40.791078770075266,"lng":-73.20883069262443,"avgVisitMinutes":48,"estimatedCostEur":5,"score":2.3606304206114657},{"id":"rio-negro_8463","citySlug":"rio-negro","name":"Playa Norte","category":"playa","lat":-40.80485599649151,"lng":-73.2254202087228,"avgVisitMinutes":78,"estimatedCostEur":23,"score":3.4295120354692283},{"id":"rio-negro_9773","citySlug":"rio-negro","name":"Mirador de Río Negro","category":"mirador","lat":-40.80102741400856,"lng":-73.21617345098942,"avgVisitMinutes":31,"estimatedCostEur":16,"score":4.338503816819044},{"id":"rio-negro_9570","citySlug":"rio-negro","name":"Restaurante Típico de Río Negro","category":"gastronomia","lat":-40.7984189568597,"lng":-73.21524258379952,"avgVisitMinutes":78,"estimatedCostEur":23,"score":4.88707627681138},{"id":"rio-bueno_3108","citySlug":"rio-bueno","name":"Mirador de Río Bueno","category":"mirador","lat":-40.344430956066546,"lng":-72.95538098924895,"avgVisitMinutes":62,"estimatedCostEur":25,"score":4.698767051792246},