{"country":"CN","pois":[{"id":"zangguy_1852","citySlug":"zangguy","name":"Zona Comercial","category":"ocio","lat":37.27539242048117,"lng":78.76156267152177,"avgVisitMinutes":44,"estimatedCostEur":13,"score":2.6214473335083106},{"id":"zangguy_8470","citySlug":"zangguy","name":"Mercado Gastronómico","category":"gastronomia","lat":37.279133057480635,"lng":78.76412490399005,"avgVisitMinutes":83,"estimatedCostEur":0,"score":4.301830848994406},{"id":"zangguy_8600","citySlug":"zangguy","name":"Parque Central","category":"ocio","lat":37.28508854632677,"lng":78.77131996384209,"avgVisitMinutes":69,"estimatedCostEur":20,"score":2.4005558593084215},{"id":"zangguy_2945","citySlug":"zangguy","name":"Playa Central","category":"playa","lat":37.292013754072265,"lng":78.76664794697386,"avgVisitMinutes":84,"estimatedCostEur":21,"score":4.535598948453405},{"id":"zangguy_2102","citySlug":"zangguy","name":"Mirador de Zangguy","category":"mirador","lat":37.289581527664005,"lng":78.75725050474097,"avgVisitMinutes":50,"estimatedCostEur":24,"score":3.937311232495621},{"id":"zangguy_7639","citySlug":"zangguy","name":"Mercado Gastronómico","category":"gastronomia","lat":37.285341466096824,"lng":78.77383697857834,"avgVisitMinutes":89,"estimatedCostEur":18,"score":3.8401884213463435},{"id":"zangguy_8694","citySlug":"zangguy","name":"Murallas de Zangguy","category":"historia","lat":37.280242735257886,"lng":78.76218625271827,"avgVisitMinutes":67,"estimatedCostEur":19,"score":2.8407011555640724},{"id":"yingpan_8726","citySlug":"yingpan","name":"Playa Central","category":"playa","lat":26.457693151854762,"lng":99.15863631988472,"avgVisitMinutes":87,"estimatedCostEur":24,"score":4.731208176463104},{"id":"yingpan_5451","citySlug":"yingpan","name":"Murallas de Yingpan","category":"historia","lat":26.45182994053727,"lng":99.14449617618943,"avgVisitMinutes":49,"estimatedCostEur":3,"score":0.6856404084094234},{"id":"yingpan_6192","citySlug":"yingpan","name":"Mirador de Yingpan","category":"mirador","lat":26.441036608563213,"lng":99.148552799724,"avgVisitMinutes":73,"estimatedCostEur":20,"score":0.7240496835511459},{"id":"yingpan_5380","citySlug":"yingpan","name":"Playa Sur","category":"playa","lat":26.455148254636658,"lng":99.14920142639002,"avgVisitMinutes":88,"estimatedCostEur":7,"score":3.2911989298569466},{"id":"yingpan_5717","citySlug":"yingpan","name":"Mercado Gastronómico","category":"gastronomia","lat":26.443947395448973,"lng":99.1432381620741,"avgVisitMinutes":43,"estimatedCostEur":9,"score":1.986283131464423},{"id":"yingpan_8597","citySlug":"yingpan","name":"Ruta de Tapas","category":"gastronomia","lat":26.455654266409898,"lng":99.15604391078293,"avgVisitMinutes":24,"estimatedCostEur":15,"score":1.2194275249365738},{"id":"yingpan_7045","citySlug":"yingpan","name":"Playa Norte","category":"playa","lat":26.453661132423886,"lng":99.14656036679436,"avgVisitMinutes":72,"estimatedCostEur":20,"score":0.5685269810489706},{"id":"yingpan_8382","citySlug":"yingpan","name":"Ruta de Tapas","category":"gastronomia","lat":26.44964229793455,"lng":99.14415933193511,"avgVisitMinutes":24,"estimatedCostEur":14,"score":3.747210943496107},{"id":"yingpan_8898","citySlug":"yingpan","name":"Restaurante Típico de Yingpan","category":"gastronomia","lat":26.44021572385151,"lng":99.14382119974358,"avgVisitMinutes":66,"estimatedCostEur":19,"score":1.7557351992238002},{"id":"yingpan_9217","citySlug":"yingpan","name":"Ruta de Tapas","category":"gastronomia","lat":26.45981998618907,"lng":99.15876437326652,"avgVisitMinutes":58,"estimatedCostEur":16,"score":3.7904111816005437},{"id":"yingpan_1952","citySlug":"yingpan","name":"Castillo de Yingpan","category":"historia","lat":26.44462435486335,"lng":99.14460936513241,"avgVisitMinutes":87,"estimatedCostEur":7,"score":3.1071054165824425},{"id":"yingpan_9385","citySlug":"yingpan","name":"Museo Local de Yingpan","category":"historia","lat":26.455079527540054,"lng":99.15991413142918,"avgVisitMinutes":33,"estimatedCostEur":20,"score":4.078482671963444},{"id":"yengisar_6410","citySlug":"yengisar","name":"Mirador de Yengisar","category":"mirador","lat":38.92624627639522,"lng":76.17721782629856,"avgVisitMinutes":70,"estimatedCostEur":6,"score":1.3532570623203837},{"id":"yengisar_2614","citySlug":"yengisar","name":"Murallas de Yengisar","category":"historia","lat":38.920624102669144,"lng":76.17402629370106,"avgVisitMinutes":28,"estimatedCostEur":14,"score":2.9413896331041927},{"id":"yengisar_9821","citySlug":"yengisar","name":"Mercado Gastronómico","category":"gastronomia","lat":38.91742751220604,"lng":76.17940140899837,"avgVisitMinutes":23,"estimatedCostEur":4,"score":1.7749813094484979},{"id":"yengisar_7340","citySlug":"yengisar","name":"Restaurante Típico de Yengisar","category":"gastronomia","lat":38.9199521302686,"lng":76.16298350609183,"avgVisitMinutes":38,"estimatedCostEur":14,"score":4.285043679165985},{"id":"yengisar_2189","citySlug":"yengisar","name":"Punto Panorámico","category":"mirador","lat":38.92434637542441,"lng":76.16861799576135,"avgVisitMinutes":66,"estimatedCostEur":22,"score":0.6531475594449465},{"id":"yengisar_1035","citySlug":"yengisar","name":"Playa Central","category":"playa","lat":38.93201252190746,"lng":76.16734885820553,"avgVisitMinutes":38,"estimatedCostEur":21,"score":3.9756426563759915},{"id":"yengisar_9417","citySlug":"yengisar","name":"Castillo de Yengisar","category":"historia","lat":38.91883223948242,"lng":76.17003670244483,"avgVisitMinutes":37,"estimatedCostEur":14,"score":1.5941457410343367},{"id":"xuelin_1877","citySlug":"xuelin","name":"Mercado Gastronómico","category":"gastronomia","lat":23.022313711885918,"lng":99.56104227868039,"avgVisitMinutes":40,"estimatedCostEur":19,"score":4.684104018366549},{"id":"xuelin_8780","citySlug":"xuelin","name":"Mercado Gastronómico","category":"gastronomia","lat":23.024526966682235,"lng":99.55108991025566,"avgVisitMinutes":87,"estimatedCostEur":19,"score":4.04093331267573},{"id":"xuelin_2891","citySlug":"xuelin","name":"Centro de Arte de Xuelin","category":"cultura","lat":23.025251740752974,"lng":99.55458135545426,"avgVisitMinutes":27,"estimatedCostEur":0,"score":4.217190875001366},{"id":"xuelin_7187","citySlug":"xuelin","name":"Parque Central","category":"ocio","lat":23.02583527924878,"lng":99.56276913639438,"avgVisitMinutes":62,"estimatedCostEur":13,"score":2.0176444188672624},{"id":"xuelin_6413","citySlug":"xuelin","name":"Galería de Arte","category":"cultura","lat":23.02877946022278,"lng":99.56170635005584,"avgVisitMinutes":88,"estimatedCostEur":25,"score":4.257385331662084},{"id":"xuelin_1659","citySlug":"xuelin","name":"Museo Local de Xuelin","category":"historia","lat":23.01283701361748,"lng":99.56578004909085,"avgVisitMinutes":42,"estimatedCostEur":17,"score":3.8554848215787407},{"id":"xuelin_8495","citySlug":"xuelin","name":"Castillo de Xuelin","category":"historia","lat":23.018314570728805,"lng":99.56165068019556,"avgVisitMinutes":75,"estimatedCostEur":19,"score":2.2742422238676845},{"id":"xuelin_2527","citySlug":"xuelin","name":"Punto Panorámico","category":"mirador","lat":23.01304104164274,"lng":99.55535961280725,"avgVisitMinutes":81,"estimatedCostEur":11,"score":0.783637530702677},{"id":"xuelin_7568","citySlug":"xuelin","name":"Playa Norte","category":"playa","lat":23.0300749354097,"lng":99.56589609758106,"avgVisitMinutes":29,"estimatedCostEur":21,"score":4.065042489301682},{"id":"xuelin_3280","citySlug":"xuelin","name":"Zona Comercial","category":"ocio","lat":23.020958250841606,"lng":99.56226844025596,"avgVisitMinutes":64,"estimatedCostEur":17,"score":2.4451858134366264},{"id":"quxu_2379","citySlug":"quxu","name":"Zona Comercial","category":"ocio","lat":29.358414232505343,"lng":90.72589551726564,"avgVisitMinutes":31,"estimatedCostEur":14,"score":1.2945268246213277},{"id":"quxu_4949","citySlug":"quxu","name":"Paseo Principal","category":"ocio","lat":29.356001782551356,"lng":90.73546154339975,"avgVisitMinutes":88,"estimatedCostEur":8,"score":1.8417463366316769},{"id":"quxu_6954","citySlug":"quxu","name":"Iglesia de Quxu","category":"historia","lat":29.364947955293708,"lng":90.73099411133938,"avgVisitMinutes":55,"estimatedCostEur":4,"score":1.4735049628012367},{"id":"quxu_2872","citySlug":"quxu","name":"Ruta de Tapas","category":"gastronomia","lat":29.358095719928134,"lng":90.72828507674613,"avgVisitMinutes":47,"estimatedCostEur":7,"score":4.351419805233306},{"id":"quxu_7793","citySlug":"quxu","name":"Playa Central","category":"playa","lat":29.35105590871534,"lng":90.73072484095962,"avgVisitMinutes":27,"estimatedCostEur":4,"score":2.1340899124143062},{"id":"quxu_3403","citySlug":"quxu","name":"Museo Cultural de Quxu","category":"cultura","lat":29.351030611537663,"lng":90.72771759947379,"avgVisitMinutes":85,"estimatedCostEur":19,"score":1.7300886321461233},{"id":"quxu_6641","citySlug":"quxu","name":"Teatro Municipal","category":"cultura","lat":29.356330495334625,"lng":90.73640229725409,"avgVisitMinutes":38,"estimatedCostEur":20,"score":4.04875735241464},{"id":"quxu_4201","citySlug":"quxu","name":"Playa Norte","category":"playa","lat":29.350642781558992,"lng":90.73953493849096,"avgVisitMinutes":81,"estimatedCostEur":21,"score":4.202354976722928},{"id":"quxu_2950","citySlug":"quxu","name":"Centro de Arte de Quxu","category":"cultura","lat":29.364550697512414,"lng":90.7233505303791,"avgVisitMinutes":50,"estimatedCostEur":6,"score":3.3946158166598335},{"id":"quxu_8404","citySlug":"quxu","name":"Paseo Principal","category":"ocio","lat":29.362884812110572,"lng":90.73459954037132,"avgVisitMinutes":31,"estimatedCostEur":16,"score":0.7397515621427255},{"id":"quxu_4116","citySlug":"quxu","name":"Galería de Arte","category":"cultura","lat":29.34583264651964,"lng":90.72259736029733,"avgVisitMinutes":51,"estimatedCostEur":3,"score":2.9548684307947672},{"id":"quxu_5283","citySlug":"quxu","name":"Mercado Gastronómico","category":"gastronomia","lat":29.355208546665622,"lng":90.73970238934962,"avgVisitMinutes":76,"estimatedCostEur":3,"score":4.058733793124448},{"id":"mengka_3401","citySlug":"mengka","name":"Centro Histórico","category":"historia","lat":22.749706583785787,"lng":99.4882568047819,"avgVisitMinutes":36,"estimatedCostEur":18,"score":3.5405690033522066},{"id":"mengka_6754","citySlug":"mengka","name":"Playa Central","category":"playa","lat":22.74903583313145,"lng":99.47903091291577,"avgVisitMinutes":58,"estimatedCostEur":1,"score":2.049017396617695},{"id":"mengka_7821","citySlug":"mengka","name":"Punto Panorámico","category":"mirador","lat":22.74225318460687,"lng":99.4817483603751,"avgVisitMinutes":80,"estimatedCostEur":1,"score":1.3158825880693876},{"id":"mengka_4410","citySlug":"mengka","name":"Punto Panorámico","category":"mirador","lat":22.74786446703651,"lng":99.49079261362107,"avgVisitMinutes":37,"estimatedCostEur":6,"score":1.156102450638959},{"id":"mengka_7700","citySlug":"mengka","name":"Playa Central","category":"playa","lat":22.759589499318253,"lng":99.48588830457217,"avgVisitMinutes":83,"estimatedCostEur":24,"score":1.7172411053886973},{"id":"mengka_2471","citySlug":"mengka","name":"Playa Norte","category":"playa","lat":22.748452644976282,"lng":99.4796095312602,"avgVisitMinutes":76,"estimatedCostEur":13,"score":1.3613589605065102},{"id":"mengka_3356","citySlug":"mengka","name":"Galería de Arte","category":"cultura","lat":22.755463068303616,"lng":99.48537871739238,"avgVisitMinutes":61,"estimatedCostEur":18,"score":0.871605154020817},{"id":"rikaze_7735","citySlug":"rikaze","name":"Paseo Principal","category":"ocio","lat":29.25108045360594,"lng":88.88790659986535,"avgVisitMinutes":48,"estimatedCostEur":14,"score":3.1469305049245584},{"id":"rikaze_4855","citySlug":"rikaze","name":"Paseo Principal","category":"ocio","lat":29.24384170063328,"lng":88.88557549010761,"avgVisitMinutes":50,"estimatedCostEur":14,"score":2.711378161505611},{"id":"rikaze_7440","citySlug":"rikaze","name":"Galería de Arte","category":"cultura","lat":29.253444662309523,"lng":88.89006492809548,"avgVisitMinutes":86,"estimatedCostEur":8,"score":3.6740762735496624},{"id":"rikaze_9445","citySlug":"rikaze","name":"Teatro Municipal","category":"cultura","lat":29.247796974315865,"lng":88.87694967021615,"avgVisitMinutes":76,"estimatedCostEur":15,"score":4.010475671423969},{"id":"rikaze_2762","citySlug":"rikaze","name":"Museo Cultural de Rikaze","category":"cultura","lat":29.247912460658398,"lng":88.87928569550986,"avgVisitMinutes":49,"estimatedCostEur":11,"score":3.0268737756069277},{"id":"rikaze_9324","citySlug":"rikaze","name":"Vista Alta de Rikaze","category":"mirador","lat":29.247005937063875,"lng":88.87978900868254,"avgVisitMinutes":77,"estimatedCostEur":1,"score":1.6630990630029014},{"id":"rikaze_2338","citySlug":"rikaze","name":"Punto Panorámico","category":"mirador","lat":29.241817830017244,"lng":88.87362473903484,"avgVisitMinutes":73,"estimatedCostEur":6,"score":1.8442350451314335},{"id":"rikaze_7322","citySlug":"rikaze","name":"Galería de Arte","category":"cultura","lat":29.24544022621057,"lng":88.89151840281586,"avgVisitMinutes":36,"estimatedCostEur":5,"score":3.823642201417416},{"id":"rikaze_8337","citySlug":"rikaze","name":"Centro Histórico","category":"historia","lat":29.249063082469558,"lng":88.88771908604068,"avgVisitMinutes":67,"estimatedCostEur":16,"score":3.8244184277993902},{"id":"rikaze_3700","citySlug":"rikaze","name":"Mercado Gastronómico","category":"gastronomia","lat":29.24432032497331,"lng":88.88783028847341,"avgVisitMinutes":34,"estimatedCostEur":20,"score":2.2114382812775686},{"id":"rikaze_3661","citySlug":"rikaze","name":"Iglesia de Rikaze","category":"historia","lat":29.243076738704143,"lng":88.89060465178497,"avgVisitMinutes":89,"estimatedCostEur":9,"score":4.586544642008476},{"id":"wendong_7810","citySlug":"wendong","name":"Castillo de Wendong","category":"historia","lat":23.169641341340803,"lng":99.90284136173382,"avgVisitMinutes":72,"estimatedCostEur":2,"score":1.7250804600718312},{"id":"wendong_5625","citySlug":"wendong","name":"Restaurante Típico de Wendong","category":"gastronomia","lat":23.170151476157205,"lng":99.90852691020655,"avgVisitMinutes":77,"estimatedCostEur":13,"score":3.036975446915199},{"id":"wendong_2578","citySlug":"wendong","name":"Zona Comercial","category":"ocio","lat":23.167471471292654,"lng":99.89679364561387,"avgVisitMinutes":37,"estimatedCostEur":8,"score":4.718077178082176},{"id":"wendong_3279","citySlug":"wendong","name":"Mercado Gastronómico","category":"gastronomia","lat":23.16637370953367,"lng":99.89429387407432,"avgVisitMinutes":88,"estimatedCostEur":20,"score":3.736181753464595},{"id":"wendong_8887","citySlug":"wendong","name":"Galería de Arte","category":"cultura","lat":23.158088966177857,"lng":99.89424683060795,"avgVisitMinutes":38,"estimatedCostEur":11,"score":0.7817253312807824},{"id":"wendong_9211","citySlug":"wendong","name":"Playa Norte","category":"playa","lat":23.176545311578,"lng":99.90871005120896,"avgVisitMinutes":90,"estimatedCostEur":20,"score":4.182459999541381},{"id":"jiuquan_1196","citySlug":"jiuquan","name":"Mirador de Jiuquan","category":"mirador","lat":39.746177742950124,"lng":98.52569463153837,"avgVisitMinutes":48,"estimatedCostEur":13,"score":3.4576524541585276},{"id":"jiuquan_3609","citySlug":"jiuquan","name":"Centro de Arte de Jiuquan","category":"cultura","lat":39.736921506281995,"lng":98.52385077084865,"avgVisitMinutes":31,"estimatedCostEur":14,"score":1.9591712024739159},{"id":"jiuquan_4206","citySlug":"jiuquan","name":"Murallas de Jiuquan","category":"historia","lat":39.74422647549825,"lng":98.51690924940563,"avgVisitMinutes":41,"estimatedCostEur":19,"score":0.7002180617336158},{"id":"jiuquan_4417","citySlug":"jiuquan","name":"Mirador de Jiuquan","category":"mirador","lat":39.74931577750456,"lng":98.52224426876994,"avgVisitMinutes":23,"estimatedCostEur":4,"score":4.0494012634353425},{"id":"jiuquan_4428","citySlug":"jiuquan","name":"Playa Norte","category":"playa","lat":39.74572135449378,"lng":98.5217465992917,"avgVisitMinutes":72,"estimatedCostEur":5,"score":4.638272805914029},{"id":"jiuquan_2013","citySlug":"jiuquan","name":"Ruta de Tapas","category":"gastronomia","lat":39.74224562321337,"lng":98.52189414635694,"avgVisitMinutes":43,"estimatedCostEur":6,"score":2.6934818237071583},{"id":"jiuquan_4864","citySlug":"jiuquan","name":"Galería de Arte","category":"cultura","lat":39.7407616873554,"lng":98.51887329535013,"avgVisitMinutes":90,"estimatedCostEur":10,"score":4.124259516785456},{"id":"jiuquan_6668","citySlug":"jiuquan","name":"Restaurante Típico de Jiuquan","category":"gastronomia","lat":39.751388757106,"lng":98.51391574700664,"avgVisitMinutes":57,"estimatedCostEur":11,"score":3.3055082479693105},{"id":"jiuquan_1458","citySlug":"jiuquan","name":"Vista Alta de Jiuquan","category":"mirador","lat":39.74764843113978,"lng":98.52685740556215,"avgVisitMinutes":83,"estimatedCostEur":4,"score":0.6038637824880992},{"id":"jiuquan_6749","citySlug":"jiuquan","name":"Teatro Municipal","category":"cultura","lat":39.737872698660546,"lng":98.51128978284946,"avgVisitMinutes":79,"estimatedCostEur":18,"score":2.4063079505665406},{"id":"jiuquan_9645","citySlug":"jiuquan","name":"Mirador de Jiuquan","category":"mirador","lat":39.74555590747932,"lng":98.51763378066006,"avgVisitMinutes":68,"estimatedCostEur":20,"score":2.624144150285603},{"id":"jiuquan_5686","citySlug":"jiuquan","name":"Parque Central","category":"ocio","lat":39.74486084703667,"lng":98.5226528044244,"avgVisitMinutes":81,"estimatedCostEur":25,"score":3.6629366934016527},{"id":"gar_8124","citySlug":"gar","name":"Mirador de Gar","category":"mirador","lat":32.50943621233535,"lng":80.098693700452,"avgVisitMinutes":31,"estimatedCostEur":23,"score":2.071754447841341},{"id":"gar_1135","citySlug":"gar","name":"Mirador de Gar","category":"mirador","lat":32.50493212057531,"lng":80.09860287741262,"avgVisitMinutes":37,"estimatedCostEur":19,"score":2.6759206649981824},{"id":"gar_5764","citySlug":"gar","name":"Playa Central","category":"playa","lat":32.49152566174224,"lng":80.08933875191126,"avgVisitMinutes":72,"estimatedCostEur":1,"score":0.8661987674000773},{"id":"gar_1918","citySlug":"gar","name":"Teatro Municipal","category":"cultura","lat":32.51034366780983,"lng":80.09332107910662,"avgVisitMinutes":51,"estimatedCostEur":24,"score":3.8584086267026465},{"id":"gar_4988","citySlug":"gar","name":"Ruta de Tapas","category":"gastronomia","lat":32.506281788789735,"lng":80.10621873735795,"avgVisitMinutes":39,"estimatedCostEur":8,"score":1.346595512583081},{"id":"gar_9471","citySlug":"gar","name":"Mercado Gastronómico","category":"gastronomia","lat":32.491920536153444,"lng":80.09924227910203,"avgVisitMinutes":76,"estimatedCostEur":9,"score":4.539633981880989},{"id":"gar_6489","citySlug":"gar","name":"Playa Norte","category":"playa","lat":32.4976338721254,"lng":80.09653863493884,"avgVisitMinutes":75,"estimatedCostEur":4,"score":2.634961780206263},{"id":"gar_2375","citySlug":"gar","name":"Mirador de Gar","category":"mirador","lat":32.50565658524675,"lng":80.09154555871417,"avgVisitMinutes":56,"estimatedCostEur":18,"score":1.7285736861944159},{"id":"gar_4403","citySlug":"gar","name":"Restaurante Típico de Gar","category":"gastronomia","lat":32.510517939318405,"lng":80.09217700772011,"avgVisitMinutes":86,"estimatedCostEur":3,"score":3.9414775909644844},{"id":"shigu_9264","citySlug":"shigu","name":"Playa Central","category":"playa","lat":26.86606838944094,"lng":99.96298913971958,"avgVisitMinutes":53,"estimatedCostEur":18,"score":0.9035113066976936},{"id":"shigu_6338","citySlug":"shigu","name":"Vista Alta de Shigu","category":"mirador","lat":26.875106739561232,"lng":99.95024028148852,"avgVisitMinutes":62,"estimatedCostEur":11,"score":2.1459526230401265},{"id":"shigu_5350","citySlug":"shigu","name":"Centro de Arte de Shigu","category":"cultura","lat":26.866696806012687,"lng":99.95077515206587,"avgVisitMinutes":46,"estimatedCostEur":23,"score":3.9455594732787747},{"id":"shigu_6482","citySlug":"shigu","name":"Restaurante Típico de Shigu","category":"gastronomia","lat":26.875616894678327,"lng":99.94845849302557,"avgVisitMinutes":40,"estimatedCostEur":9,"score":1.166622856657281},{"id":"shigu_5297","citySlug":"shigu","name":"Parque Central","category":"ocio","lat":26.87388289596286,"lng":99.95321728716587,"avgVisitMinutes":35,"estimatedCostEur":17,"score":1.1413788513365888},{"id":"shigu_3407","citySlug":"shigu","name":"Zona Comercial","category":"ocio","lat":26.860813865586028,"lng":99.95787944225322,"avgVisitMinutes":28,"estimatedCostEur":18,"score":0.7268365885020052},{"id":"shigu_4690","citySlug":"shigu","name":"Zona Comercial","category":"ocio","lat":26.862326900804316,"lng":99.96613073680649,"avgVisitMinutes":74,"estimatedCostEur":22,"score":4.886040915588702},{"id":"shangyun_4199","citySlug":"shangyun","name":"Vista Alta de Shangyun","category":"mirador","lat":23.044416993582548,"lng":99.83583054831722,"avgVisitMinutes":35,"estimatedCostEur":7,"score":0.5426643496965446},{"id":"shangyun_4141","citySlug":"shangyun","name":"Vista Alta de Shangyun","category":"mirador","lat":23.057809901158333,"lng":99.81880221485699,"avgVisitMinutes":54,"estimatedCostEur":10,"score":1.6678602398521827},{"id":"shangyun_6941","citySlug":"shangyun","name":"Paseo Principal","category":"ocio","lat":23.052026156820435,"lng":99.8323029646998,"avgVisitMinutes":80,"estimatedCostEur":1,"score":3.246567263664604},{"id":"shangyun_7993","citySlug":"shangyun","name":"Mercado Gastronómico","category":"gastronomia","lat":23.047183551018776,"lng":99.82023547151411,"avgVisitMinutes":50,"estimatedCostEur":11,"score":2.3267411018372113},{"id":"shangyun_2384","citySlug":"shangyun","name":"Museo Local de Shangyun","category":"historia","lat":23.04300307906701,"lng":99.82307886592575,"avgVisitMinutes":82,"estimatedCostEur":6,"score":3.6107949063813036},{"id":"shangyun_3893","citySlug":"shangyun","name":"Mirador de Shangyun","category":"mirador","lat":23.055444678858873,"lng":99.82598471638778,"avgVisitMinutes":48,"estimatedCostEur":4,"score":1.1395209482789168},{"id":"shangyun_6334","citySlug":"shangyun","name":"Mercado Gastronómico","category":"gastronomia","lat":23.05333321265586,"lng":99.8263951078052,"avgVisitMinutes":69,"estimatedCostEur":21,"score":3.2480329509686525},{"id":"shangyun_2867","citySlug":"shangyun","name":"Punto Panorámico","category":"mirador","lat":23.04731433418446,"lng":99.82645619312792,"avgVisitMinutes":50,"estimatedCostEur":5,"score":2.6131482824256884},{"id":"shangyun_3013","citySlug":"shangyun","name":"Paseo Principal","category":"ocio","lat":23.050498633597446,"lng":99.83480293337324,"avgVisitMinutes":90,"estimatedCostEur":16,"score":3.521275178642365},{"id":"shangyun_4987","citySlug":"shangyun","name":"Playa Central","category":"playa","lat":23.0536438075287,"lng":99.820320582696,"avgVisitMinutes":48,"estimatedCostEur":11,"score":4.587511644725047},{"id":"shache_3530","citySlug":"shache","name":"Paseo Principal","category":"ocio","lat":38.41775252435035,"lng":77.23895726579347,"avgVisitMinutes":79,"estimatedCostEur":24,"score":1.9373149569880832},{"id":"shache_1175","citySlug":"shache","name":"Zona Comercial","category":"ocio","lat":38.419960096865225,"lng":77.23832131676707,"avgVisitMinutes":86,"estimatedCostEur":14,"score":3.6997602946285846},{"id":"shache_6029","citySlug":"shache","name":"Museo Local de Shache","category":"historia","lat":38.41981142835606,"lng":77.23418927007053,"avgVisitMinutes":44,"estimatedCostEur":13,"score":4.666366204060343},{"id":"shache_8018","citySlug":"shache","name":"Zona Comercial","category":"ocio","lat":38.414782111117106,"lng":77.23744210317096,"avgVisitMinutes":33,"estimatedCostEur":8,"score":3.7122888409344097},{"id":"shache_9631","citySlug":"shache","name":"Playa Central","category":"playa","lat":38.425784902229225,"lng":77.2342326303524,"avgVisitMinutes":28,"estimatedCostEur":11,"score":4.428690583206317},{"id":"shache_7162","citySlug":"shache","name":"Restaurante Típico de Shache","category":"gastronomia","lat":38.4125159429411,"lng":77.23609649533306,"avgVisitMinutes":82,"estimatedCostEur":2,"score":2.6213580773331064},{"id":"shache_8498","citySlug":"shache","name":"Murallas de Shache","category":"historia","lat":38.41207673701123,"lng":77.23680493564872,"avgVisitMinutes":29,"estimatedCostEur":12,"score":1.6342644808344966},{"id":"ruidian_5409","citySlug":"ruidian","name":"Playa Norte","category":"playa","lat":25.537988845545975,"lng":98.40292775795405,"avgVisitMinutes":46,"estimatedCostEur":22,"score":2.347041534212992},{"id":"ruidian_1144","citySlug":"ruidian","name":"Murallas de Ruidian","category":"historia","lat":25.5391012148238,"lng":98.4155529086244,"avgVisitMinutes":63,"estimatedCostEur":5,"score":1.429706444523426},{"id":"ruidian_9027","citySlug":"ruidian","name":"Zona Comercial","category":"ocio","lat":25.527071126785515,"lng":98.40998775791292,"avgVisitMinutes":61,"estimatedCostEur":16,"score":4.264423971046813},{"id":"ruidian_5538","citySlug":"ruidian","name":"Galería de Arte","category":"cultura","lat":25.526446187022547,"lng":98.4109020699755,"avgVisitMinutes":60,"estimatedCostEur":4,"score":3.146920655123037},{"id":"ruidian_7232","citySlug":"ruidian","name":"Centro Histórico","category":"historia","lat":25.52871912386753,"lng":98.40278566748117,"avgVisitMinutes":76,"estimatedCostEur":7,"score":4.117932098599235},{"id":"ruidian_4083","citySlug":"ruidian","name":"Zona Comercial","category":"ocio","lat":25.52501337315905,"lng":98.40434866211922,"avgVisitMinutes":47,"estimatedCostEur":20,"score":2.4062404762289376},{"id":"ruidian_3384","citySlug":"ruidian","name":"Restaurante Típico de Ruidian","category":"gastronomia","lat":25.533266713092505,"lng":98.41550523701812,"avgVisitMinutes":51,"estimatedCostEur":25,"score":4.001355400970631},{"id":"ruidian_8205","citySlug":"ruidian","name":"Vista Alta de Ruidian","category":"mirador","lat":25.531451274527857,"lng":98.40730671211979,"avgVisitMinutes":75,"estimatedCostEur":11,"score":3.1619284834691115},{"id":"ruidian_6627","citySlug":"ruidian","name":"Centro de Arte de Ruidian","category":"cultura","lat":25.53277415688917,"lng":98.39954959817368,"avgVisitMinutes":67,"estimatedCostEur":20,"score":4.141961319170274},{"id":"qushi_4132","citySlug":"qushi","name":"Murallas de Qushi","category":"historia","lat":25.220344335825434,"lng":98.59394953572827,"avgVisitMinutes":83,"estimatedCostEur":10,"score":3.3671296046271917},{"id":"qushi_6167","citySlug":"qushi","name":"Castillo de Qushi","category":"historia","lat":25.20898327937531,"lng":98.59640531744446,"avgVisitMinutes":70,"estimatedCostEur":23,"score":0.7032588649256546},{"id":"qushi_3769","citySlug":"qushi","name":"Centro Histórico","category":"historia","lat":25.22372123185793,"lng":98.60588481642843,"avgVisitMinutes":39,"estimatedCostEur":9,"score":2.7160237130921407},{"id":"qushi_4232","citySlug":"qushi","name":"Museo Cultural de Qushi","category":"cultura","lat":25.215857319438463,"lng":98.59331991391063,"avgVisitMinutes":23,"estimatedCostEur":12,"score":4.925076508775509},{"id":"qushi_9228","citySlug":"qushi","name":"Iglesia de Qushi","category":"historia","lat":25.224247072434984,"lng":98.59387678775845,"avgVisitMinutes":81,"estimatedCostEur":1,"score":4.687335742695921},{"id":"qushi_4752","citySlug":"qushi","name":"Playa Central","category":"playa","lat":25.22107410470325,"lng":98.60694677441496,"avgVisitMinutes":67,"estimatedCostEur":17,"score":1.364354684554917},{"id":"qushi_8234","citySlug":"qushi","name":"Playa Central","category":"playa","lat":25.216228095719984,"lng":98.59842561747166,"avgVisitMinutes":82,"estimatedCostEur":10,"score":4.8392851115828925},{"id":"qushi_4103","citySlug":"qushi","name":"Playa Central","category":"playa","lat":25.213388599338156,"lng":98.59600975738724,"avgVisitMinutes":32,"estimatedCostEur":15,"score":0.7133242178675834},{"id":"qushi_7545","citySlug":"qushi","name":"Ruta de Tapas","category":"gastronomia","lat":25.222353674551147,"lng":98.59121127712872,"avgVisitMinutes":89,"estimatedCostEur":15,"score":2.079685286034836},{"id":"qamdo_1063","citySlug":"qamdo","name":"Punto Panorámico","category":"mirador","lat":31.130568189236854,"lng":97.17500467415142,"avgVisitMinutes":82,"estimatedCostEur":12,"score":4.469931947556491},{"id":"qamdo_5267","citySlug":"qamdo","name":"Playa Norte","category":"playa","lat":31.14010300813043,"lng":97.18550625676552,"avgVisitMinutes":20,"estimatedCostEur":20,"score":4.160653637195578},{"id":"qamdo_9628","citySlug":"qamdo","name":"Centro Histórico","category":"historia","lat":31.125385801490065,"lng":97.1894262569866,"avgVisitMinutes":23,"estimatedCostEur":17,"score":1.2387647074373365},{"id":"qamdo_6206","citySlug":"qamdo","name":"Museo Local de Qamdo","category":"historia","lat":31.121306790265344,"lng":97.17636509323884,"avgVisitMinutes":38,"estimatedCostEur":19,"score":3.4105488553528027},{"id":"qamdo_5417","citySlug":"qamdo","name":"Playa Sur","category":"playa","lat":31.134623210340994,"lng":97.18277166182831,"avgVisitMinutes":69,"estimatedCostEur":6,"score":0.8937872248572573},{"id":"qamdo_8094","citySlug":"qamdo","name":"Playa Sur","category":"playa","lat":31.13456828373489,"lng":97.18967810272852,"avgVisitMinutes":30,"estimatedCostEur":2,"score":3.9883114686876073},{"id":"qamdo_6947","citySlug":"qamdo","name":"Mirador de Qamdo","category":"mirador","lat":31.138721863613014,"lng":97.17706531089713,"avgVisitMinutes":62,"estimatedCostEur":16,"score":4.554773923303188},{"id":"qamdo_4286","citySlug":"qamdo","name":"Museo Cultural de Qamdo","category":"cultura","lat":31.138676264128588,"lng":97.18600873900834,"avgVisitMinutes":58,"estimatedCostEur":22,"score":2.038118846602093},{"id":"qamdo_3922","citySlug":"qamdo","name":"Parque Central","category":"ocio","lat":31.12628497293315,"lng":97.18596327990393,"avgVisitMinutes":58,"estimatedCostEur":10,"score":4.471620582713906},{"id":"nyemo_9594","citySlug":"nyemo","name":"Museo Cultural de Nyêmo","category":"cultura","lat":29.43076020480067,"lng":90.15772138300908,"avgVisitMinutes":40,"estimatedCostEur":5,"score":4.770096245554301},{"id":"nyemo_6616","citySlug":"nyemo","name":"Restaurante Típico de Nyêmo","category":"gastronomia","lat":29.44615143362027,"lng":90.14020996355093,"avgVisitMinutes":54,"estimatedCostEur":21,"score":1.6233230559765073},{"id":"nyemo_4039","citySlug":"nyemo","name":"Zona Comercial","category":"ocio","lat":29.443239688667756,"lng":90.15071216412879,"avgVisitMinutes":29,"estimatedCostEur":14,"score":3.795707214509698},{"id":"nyemo_1062","citySlug":"nyemo","name":"Parque Central","category":"ocio","lat":29.440177745237133,"lng":90.14847081297142,"avgVisitMinutes":75,"estimatedCostEur":23,"score":4.2060797059817245},{"id":"nyemo_1238","citySlug":"nyemo","name":"Playa Central","category":"playa","lat":29.432532728040744,"lng":90.1519602655319,"avgVisitMinutes":89,"estimatedCostEur":14,"score":3.9073945844315157},{"id":"nyemo_2297","citySlug":"nyemo","name":"Centro Histórico","category":"historia","lat":29.44336722509229,"lng":90.14092368183279,"avgVisitMinutes":25,"estimatedCostEur":10,"score":4.585301016054165},{"id":"nyemo_4393","citySlug":"nyemo","name":"Playa Sur","category":"playa","lat":29.43258578966115,"lng":90.14991006550052,"avgVisitMinutes":20,"estimatedCostEur":25,"score":2.1245413827263606},{"id":"nagqu_3981","citySlug":"nagqu","name":"Zona Comercial","category":"ocio","lat":31.484028076375246,"lng":92.05884569070363,"avgVisitMinutes":65,"estimatedCostEur":12,"score":2.346628736938399},{"id":"nagqu_4923","citySlug":"nagqu","name":"Playa Central","category":"playa","lat":31.48040587448119,"lng":92.0619751981674,"avgVisitMinutes":57,"estimatedCostEur":22,"score":4.942110033484873},{"id":"nagqu_2672","citySlug":"nagqu","name":"Ruta de Tapas","category":"gastronomia","lat":31.48639466176686,"lng":92.06156375085565,"avgVisitMinutes":76,"estimatedCostEur":12,"score":3.63703877924856},{"id":"nagqu_8674","citySlug":"nagqu","name":"Mercado Gastronómico","category":"gastronomia","lat":31.471351024270472,"lng":92.06167044496617,"avgVisitMinutes":84,"estimatedCostEur":10,"score":1.2840545059788442},{"id":"nagqu_5381","citySlug":"nagqu","name":"Ruta de Tapas","category":"gastronomia","lat":31.470857527882007,"lng":92.05430091467657,"avgVisitMinutes":90,"estimatedCostEur":19,"score":2.4856893717493325},{"id":"nagqu_9146","citySlug":"nagqu","name":"Galería de Arte","category":"cultura","lat":31.485364919681636,"lng":92.05836101771196,"avgVisitMinutes":21,"estimatedCostEur":0,"score":3.181655818171192},{"id":"nagqu_3169","citySlug":"nagqu","name":"Mercado Gastronómico","category":"gastronomia","lat":31.4750596147012,"lng":92.04840888649123,"avgVisitMinutes":46,"estimatedCostEur":13,"score":3.5778083727242906},{"id":"nagqu_5997","citySlug":"nagqu","name":"Punto Panorámico","category":"mirador","lat":31.480565378965906,"lng":92.06325944309204,"avgVisitMinutes":25,"estimatedCostEur":11,"score":4.5079104901112865},{"id":"mangnai-zhen_4205","citySlug":"mangnai-zhen","name":"Playa Norte","category":"playa","lat":38.37732156382149,"lng":90.14985692567662,"avgVisitMinutes":39,"estimatedCostEur":8,"score":0.8761095184805906},{"id":"mangnai-zhen_9275","citySlug":"mangnai-zhen","name":"Ruta de Tapas","category":"gastronomia","lat":38.392957393803464,"lng":90.14743325290355,"avgVisitMinutes":47,"estimatedCostEur":11,"score":3.1452590498887254},{"id":"mangnai-zhen_6544","citySlug":"mangnai-zhen","name":"Ruta de Tapas","category":"gastronomia","lat":38.38518187036473,"lng":90.16550092743141,"avgVisitMinutes":26,"estimatedCostEur":1,"score":2.4228777016794383},{"id":"mangnai-zhen_9736","citySlug":"mangnai-zhen","name":"Punto Panorámico","category":"mirador","lat":38.39164905623329,"lng":90.14723656424638,"avgVisitMinutes":21,"estimatedCostEur":8,"score":4.136731938623885},{"id":"mangnai-zhen_5116","citySlug":"mangnai-zhen","name":"Playa Sur","category":"playa","lat":38.38838068085048,"lng":90.1469304950248,"avgVisitMinutes":23,"estimatedCostEur":19,"score":1.0900737365323667},{"id":"mangnai-zhen_5574","citySlug":"mangnai-zhen","name":"Centro de Arte de Mangnai Zhen","category":"cultura","lat":38.38044683706457,"lng":90.1592561276263,"avgVisitMinutes":85,"estimatedCostEur":11,"score":0.7592796568117797},{"id":"mangnai-zhen_7545","citySlug":"mangnai-zhen","name":"Punto Panorámico","category":"mirador","lat":38.391482658388654,"lng":90.14852473955324,"avgVisitMinutes":83,"estimatedCostEur":11,"score":0.5701715692190812},{"id":"mangnai-zhen_5838","citySlug":"mangnai-zhen","name":"Zona Comercial","category":"ocio","lat":38.38699633216829,"lng":90.15189136150718,"avgVisitMinutes":85,"estimatedCostEur":1,"score":2.7016604871217194},{"id":"lhasa_3474","citySlug":"lhasa","name":"Zona Comercial","category":"ocio","lat":29.653969182600893,"lng":91.10347298281829,"avgVisitMinutes":83,"estimatedCostEur":13,"score":4.096012960668634},{"id":"lhasa_9922","citySlug":"lhasa","name":"Parque Central","category":"ocio","lat":29.64518621037074,"lng":91.09417412142534,"avgVisitMinutes":26,"estimatedCostEur":13,"score":4.3876628693340685},{"id":"lhasa_6724","citySlug":"lhasa","name":"Castillo de Lhasa","category":"historia","lat":29.65980255129284,"lng":91.10781937063649,"avgVisitMinutes":82,"estimatedCostEur":16,"score":3.0421444929249666},{"id":"lhasa_9109","citySlug":"lhasa","name":"Playa Central","category":"playa","lat":29.64830528476006,"lng":91.10177304466617,"avgVisitMinutes":74,"estimatedCostEur":8,"score":1.0101100012293736},{"id":"lhasa_5948","citySlug":"lhasa","name":"Parque Central","category":"ocio","lat":29.65788328210407,"lng":91.10971580346013,"avgVisitMinutes":33,"estimatedCostEur":13,"score":4.731547915268185},{"id":"lhasa_5889","citySlug":"lhasa","name":"Castillo de Lhasa","category":"historia","lat":29.65465301249203,"lng":91.10446882238462,"avgVisitMinutes":27,"estimatedCostEur":0,"score":4.138503092196643},{"id":"lhasa_6381","citySlug":"lhasa","name":"Playa Norte","category":"playa","lat":29.650767236135117,"lng":91.09670861452642,"avgVisitMinutes":71,"estimatedCostEur":24,"score":4.37697056752515},{"id":"lhasa_6658","citySlug":"lhasa","name":"Museo Local de Lhasa","category":"historia","lat":29.646174357415934,"lng":91.09473305683274,"avgVisitMinutes":22,"estimatedCostEur":12,"score":1.0402230890956004},{"id":"lhasa_4231","citySlug":"lhasa","name":"Parque Central","category":"ocio","lat":29.643930602048922,"lng":91.09893990400982,"avgVisitMinutes":22,"estimatedCostEur":10,"score":4.913746789009388},{"id":"lhasa_8351","citySlug":"lhasa","name":"Mirador de Lhasa","category":"mirador","lat":29.649209136760383,"lng":91.10779590005508,"avgVisitMinutes":51,"estimatedCostEur":21,"score":4.967874612452185},{"id":"lhasa_8479","citySlug":"lhasa","name":"Paseo Principal","category":"ocio","lat":29.653510123592493,"lng":91.10131449597029,"avgVisitMinutes":24,"estimatedCostEur":2,"score":0.7689378540335737},{"id":"maizhokunggar_3771","citySlug":"maizhokunggar","name":"Murallas de Maizhokunggar","category":"historia","lat":29.841326415590952,"lng":91.72241863266053,"avgVisitMinutes":65,"estimatedCostEur":22,"score":3.572489997915712},{"id":"maizhokunggar_1147","citySlug":"maizhokunggar","name":"Vista Alta de Maizhokunggar","category":"mirador","lat":29.833227974727123,"lng":91.73769368644473,"avgVisitMinutes":84,"estimatedCostEur":18,"score":1.1899995036436144},{"id":"maizhokunggar_9717","citySlug":"maizhokunggar","name":"Mirador de Maizhokunggar","category":"mirador","lat":29.83202325788913,"lng":91.72479489869714,"avgVisitMinutes":23,"estimatedCostEur":25,"score":0.94218309332908},{"id":"maizhokunggar_8952","citySlug":"maizhokunggar","name":"Ruta de Tapas","category":"gastronomia","lat":29.82775797595251,"lng":91.72723581971563,"avgVisitMinutes":57,"estimatedCostEur":22,"score":2.5583916813502063},{"id":"maizhokunggar_4152","citySlug":"maizhokunggar","name":"Murallas de Maizhokunggar","category":"historia","lat":29.84378450070351,"lng":91.72116044176856,"avgVisitMinutes":33,"estimatedCostEur":1,"score":3.774097615075116},{"id":"maizhokunggar_1797","citySlug":"maizhokunggar","name":"Vista Alta de Maizhokunggar","category":"mirador","lat":29.84378003737908,"lng":91.71936327163976,"avgVisitMinutes":32,"estimatedCostEur":0,"score":2.6356804709097252},{"id":"maizhokunggar_4846","citySlug":"maizhokunggar","name":"Museo Cultural de Maizhokunggar","category":"cultura","lat":29.837190255719953,"lng":91.71931869767128,"avgVisitMinutes":47,"estimatedCostEur":15,"score":4.353204795642677},{"id":"maizhokunggar_2145","citySlug":"maizhokunggar","name":"Teatro Municipal","category":"cultura","lat":29.828339648186088,"lng":91.7248117232735,"avgVisitMinutes":24,"estimatedCostEur":3,"score":3.32703319002129},{"id":"maizhokunggar_6931","citySlug":"maizhokunggar","name":"Vista Alta de Maizhokunggar","category":"mirador","lat":29.84462038825332,"lng":91.72337078247871,"avgVisitMinutes":89,"estimatedCostEur":18,"score":1.723615666829214},{"id":"maizhokunggar_1132","citySlug":"maizhokunggar","name":"Playa Sur","category":"playa","lat":29.846684935503625,"lng":91.73823580812441,"avgVisitMinutes":48,"estimatedCostEur":7,"score":3.2924571366296793},{"id":"maizhokunggar_7943","citySlug":"maizhokunggar","name":"Galería de Arte","category":"cultura","lat":29.834951431623992,"lng":91.73571351838929,"avgVisitMinutes":81,"estimatedCostEur":20,"score":2.731047556260731},{"id":"kashgar_8153","citySlug":"kashgar","name":"Ruta de Tapas","category":"gastronomia","lat":39.468998922308224,"lng":75.98178198473859,"avgVisitMinutes":59,"estimatedCostEur":9,"score":4.128599324601806},{"id":"kashgar_2194","citySlug":"kashgar","name":"Centro Histórico","category":"historia","lat":39.473460902149256,"lng":75.99036156976439,"avgVisitMinutes":81,"estimatedCostEur":9,"score":4.801973462226168},{"id":"kashgar_8114","citySlug":"kashgar","name":"Restaurante Típico de Kashgar","category":"gastronomia","lat":39.47147447353401,"lng":75.99582705328643,"avgVisitMinutes":88,"estimatedCostEur":10,"score":2.799136684641592},{"id":"kashgar_1934","citySlug":"kashgar","name":"Parque Central","category":"ocio","lat":39.466980435777,"lng":75.99249403487049,"avgVisitMinutes":61,"estimatedCostEur":11,"score":4.765531116405888},{"id":"kashgar_6395","citySlug":"kashgar","name":"Parque Central","category":"ocio","lat":39.46961652626812,"lng":75.9856589397786,"avgVisitMinutes":86,"estimatedCostEur":22,"score":1.0029045306670883},{"id":"kashgar_8791","citySlug":"kashgar","name":"Vista Alta de Kashgar","category":"mirador","lat":39.46373742165625,"lng":75.98793154984382,"avgVisitMinutes":31,"estimatedCostEur":20,"score":2.980062366277543},{"id":"kashgar_4376","citySlug":"kashgar","name":"Centro de Arte de Kashgar","category":"cultura","lat":39.476361889500794,"lng":75.98312627243716,"avgVisitMinutes":39,"estimatedCostEur":3,"score":1.627499643591194},{"id":"kashgar_7096","citySlug":"kashgar","name":"Playa Central","category":"playa","lat":39.46523660707135,"lng":75.97924528908041,"avgVisitMinutes":87,"estimatedCostEur":14,"score":1.9826626483253165},{"id":"kashgar_5238","citySlug":"kashgar","name":"Playa Central","category":"playa","lat":39.472778146891756,"lng":75.99350670461246,"avgVisitMinutes":28,"estimatedCostEur":8,"score":3.6564030219840604},{"id":"judian_4457","citySlug":"judian","name":"Playa Central","category":"playa","lat":27.303887098969195,"lng":99.65216770924016,"avgVisitMinutes":62,"estimatedCostEur":18,"score":0.6601121126629967},{"id":"judian_9511","citySlug":"judian","name":"Iglesia de Judian","category":"historia","lat":27.30160720880135,"lng":99.65252915309159,"avgVisitMinutes":70,"estimatedCostEur":7,"score":1.5492130798944865},{"id":"judian_6240","citySlug":"judian","name":"Ruta de Tapas","category":"gastronomia","lat":27.297069935526824,"lng":99.64927772435614,"avgVisitMinutes":59,"estimatedCostEur":3,"score":2.0984154042065875},{"id":"judian_3799","citySlug":"judian","name":"Parque Central","category":"ocio","lat":27.311014623646713,"lng":99.64720742124949,"avgVisitMinutes":47,"estimatedCostEur":6,"score":3.330801680044185},{"id":"judian_7747","citySlug":"judian","name":"Playa Sur","category":"playa","lat":27.30056418115893,"lng":99.65623573006127,"avgVisitMinutes":38,"estimatedCostEur":17,"score":0.77978353624952},{"id":"judian_6118","citySlug":"judian","name":"Mercado Gastronómico","category":"gastronomia","lat":27.30210069653897,"lng":99.64685504252624,"avgVisitMinutes":66,"estimatedCostEur":1,"score":1.2853651744480104},{"id":"jietou_4675","citySlug":"jietou","name":"Zona Comercial","category":"ocio","lat":25.426001789856166,"lng":98.65379189673988,"avgVisitMinutes":24,"estimatedCostEur":24,"score":2.1593477140686534},{"id":"jietou_1314","citySlug":"jietou","name":"Playa Sur","category":"playa","lat":25.4231332238262,"lng":98.66281018361185,"avgVisitMinutes":69,"estimatedCostEur":7,"score":4.187370560739316},{"id":"jietou_8086","citySlug":"jietou","name":"Mirador de Jietou","category":"mirador","lat":25.429969572875837,"lng":98.65183282841662,"avgVisitMinutes":85,"estimatedCostEur":8,"score":3.1070823990973655},{"id":"jietou_4948","citySlug":"jietou","name":"Paseo Principal","category":"ocio","lat":25.423619193063143,"lng":98.66123625490116,"avgVisitMinutes":55,"estimatedCostEur":15,"score":1.9859975432719135},{"id":"jietou_7804","citySlug":"jietou","name":"Playa Central","category":"playa","lat":25.423379024929833,"lng":98.65679482882685,"avgVisitMinutes":60,"estimatedCostEur":3,"score":4.372240762913304},{"id":"jietou_1422","citySlug":"jietou","name":"Vista Alta de Jietou","category":"mirador","lat":25.432756858724506,"lng":98.66300406752042,"avgVisitMinutes":39,"estimatedCostEur":6,"score":4.397821566681882},{"id":"jietou_8494","citySlug":"jietou","name":"Mirador de Jietou","category":"mirador","lat":25.42511477692981,"lng":98.64871809274824,"avgVisitMinutes":55,"estimatedCostEur":0,"score":3.2520938441618354},{"id":"jietou_3507","citySlug":"jietou","name":"Playa Sur","category":"playa","lat":25.419774104928106,"lng":98.65065620231388,"avgVisitMinutes":87,"estimatedCostEur":20,"score":1.1438069477282489},{"id":"jiayuguan_5661","citySlug":"jiayuguan","name":"Iglesia de Jiayuguan","category":"historia","lat":39.80401497732308,"lng":98.28385032947088,"avgVisitMinutes":87,"estimatedCostEur":7,"score":4.890221927432708},{"id":"jiayuguan_3641","citySlug":"jiayuguan","name":"Playa Central","category":"playa","lat":39.80477796534956,"lng":98.27668841613915,"avgVisitMinutes":72,"estimatedCostEur":18,"score":4.298821533736755},{"id":"jiayuguan_6324","citySlug":"jiayuguan","name":"Murallas de Jiayuguan","category":"historia","lat":39.808207540512804,"lng":98.2873060548223,"avgVisitMinutes":41,"estimatedCostEur":18,"score":2.2508440976712465},{"id":"jiayuguan_6967","citySlug":"jiayuguan","name":"Teatro Municipal","category":"cultura","lat":39.80839056442699,"lng":98.28023128936866,"avgVisitMinutes":29,"estimatedCostEur":17,"score":3.7183472027755},{"id":"jiayuguan_5771","citySlug":"jiayuguan","name":"Punto Panorámico","category":"mirador","lat":39.81698498887237,"lng":98.28307012945298,"avgVisitMinutes":35,"estimatedCostEur":10,"score":0.9260855411275823},{"id":"jiayuguan_7124","citySlug":"jiayuguan","name":"Museo Local de Jiayuguan","category":"historia","lat":39.8069433260313,"lng":98.28301201412813,"avgVisitMinutes":22,"estimatedCostEur":19,"score":2.961755675871279},{"id":"jiayuguan_1174","citySlug":"jiayuguan","name":"Mirador de Jiayuguan","category":"mirador","lat":39.806079087692815,"lng":98.27789638844472,"avgVisitMinutes":64,"estimatedCostEur":16,"score":2.845271109211572},{"id":"jiayuguan_4031","citySlug":"jiayuguan","name":"Teatro Municipal","category":"cultura","lat":39.80363126446883,"lng":98.27936925238194,"avgVisitMinutes":36,"estimatedCostEur":21,"score":0.660169926295592},{"id":"jiayuguan_6426","citySlug":"jiayuguan","name":"Playa Central","category":"playa","lat":39.803019096420414,"lng":98.28256314246788,"avgVisitMinutes":34,"estimatedCostEur":22,"score":3.131456156804173},{"id":"jiayuguan_5408","citySlug":"jiayuguan","name":"Playa Sur","category":"playa","lat":39.80197543108372,"lng":98.27757069308907,"avgVisitMinutes":21,"estimatedCostEur":19,"score":3.3998403924378233},{"id":"jiayuguan_1607","citySlug":"jiayuguan","name":"Punto Panorámico","category":"mirador","lat":39.81613105548233,"lng":98.28323337229534,"avgVisitMinutes":36,"estimatedCostEur":19,"score":1.2919575920710067},{"id":"huatugou_2515","citySlug":"huatugou","name":"Iglesia de Huatugou","category":"historia","lat":38.25550329194941,"lng":90.87364685955252,"avgVisitMinutes":44,"estimatedCostEur":7,"score":0.5021240114018222},{"id":"huatugou_3900","citySlug":"huatugou","name":"Mirador de Huatugou","category":"mirador","lat":38.253378053194595,"lng":90.86744809617889,"avgVisitMinutes":25,"estimatedCostEur":3,"score":2.0446048003773547},{"id":"huatugou_5457","citySlug":"huatugou","name":"Castillo de Huatugou","category":"historia","lat":38.250050084234296,"lng":90.8653483464953,"avgVisitMinutes":34,"estimatedCostEur":25,"score":1.602699696560887},{"id":"huatugou_3217","citySlug":"huatugou","name":"Ruta de Tapas","category":"gastronomia","lat":38.26254026830206,"lng":90.87699329804369,"avgVisitMinutes":33,"estimatedCostEur":24,"score":2.113291447132144},{"id":"huatugou_5534","citySlug":"huatugou","name":"Museo Cultural de Huatugou","category":"cultura","lat":38.24722141248086,"lng":90.8672720361389,"avgVisitMinutes":56,"estimatedCostEur":4,"score":3.3341297639712515},{"id":"huatugou_4765","citySlug":"huatugou","name":"Playa Norte","category":"playa","lat":38.248337705257704,"lng":90.85857189378096,"avgVisitMinutes":53,"estimatedCostEur":16,"score":4.750505627239148},{"id":"huatugou_3225","citySlug":"huatugou","name":"Ruta de Tapas","category":"gastronomia","lat":38.257722290226866,"lng":90.87637986555592,"avgVisitMinutes":77,"estimatedCostEur":1,"score":1.7876418368978062},{"id":"huatugou_3366","citySlug":"huatugou","name":"Playa Sur","category":"playa","lat":38.251968273773606,"lng":90.86921514373464,"avgVisitMinutes":63,"estimatedCostEur":23,"score":1.6960398317580434},{"id":"huatugou_7570","citySlug":"huatugou","name":"Playa Sur","category":"playa","lat":38.26179445989151,"lng":90.87446889868471,"avgVisitMinutes":55,"estimatedCostEur":8,"score":0.8090388112853265},{"id":"huatugou_6841","citySlug":"huatugou","name":"Mirador de Huatugou","category":"mirador","lat":38.24569036760104,"lng":90.86539177510504,"avgVisitMinutes":90,"estimatedCostEur":22,"score":4.584003476163344},{"id":"huatugou_9179","citySlug":"huatugou","name":"Vista Alta de Huatugou","category":"mirador","lat":38.2623848322065,"lng":90.87050873165953,"avgVisitMinutes":61,"estimatedCostEur":4,"score":2.248857729473886},{"id":"huatugou_1284","citySlug":"huatugou","name":"Iglesia de Huatugou","category":"historia","lat":38.26509176052351,"lng":90.87228911815721,"avgVisitMinutes":25,"estimatedCostEur":23,"score":1.0603250608631203},{"id":"houqiao_4080","citySlug":"houqiao","name":"Paseo Principal","category":"ocio","lat":25.31878908069998,"lng":98.2848306953891,"avgVisitMinutes":43,"estimatedCostEur":8,"score":2.864860826769723},{"id":"houqiao_8351","citySlug":"houqiao","name":"Teatro Municipal","category":"cultura","lat":25.317049701673675,"lng":98.28036131119599,"avgVisitMinutes":33,"estimatedCostEur":19,"score":1.378226586801848},{"id":"houqiao_1047","citySlug":"houqiao","name":"Punto Panorámico","category":"mirador","lat":25.331813594866077,"lng":98.2849628683522,"avgVisitMinutes":57,"estimatedCostEur":21,"score":2.1934827783151754},{"id":"houqiao_3426","citySlug":"houqiao","name":"Parque Central","category":"ocio","lat":25.319060287725392,"lng":98.28599482388124,"avgVisitMinutes":27,"estimatedCostEur":3,"score":1.7029492607312058},{"id":"houqiao_9159","citySlug":"houqiao","name":"Ruta de Tapas","category":"gastronomia","lat":25.31869559083904,"lng":98.285818986422,"avgVisitMinutes":33,"estimatedCostEur":2,"score":4.481310845899538},{"id":"houqiao_7503","citySlug":"houqiao","name":"Restaurante Típico de Houqiao","category":"gastronomia","lat":25.32039506881696,"lng":98.27190025533909,"avgVisitMinutes":64,"estimatedCostEur":20,"score":4.0537635940224614},{"id":"houqiao_7073","citySlug":"houqiao","name":"Parque Central","category":"ocio","lat":25.32069714707478,"lng":98.2825218187319,"avgVisitMinutes":80,"estimatedCostEur":22,"score":2.927522801156495},{"id":"houqiao_2879","citySlug":"houqiao","name":"Playa Sur","category":"playa","lat":25.322479130892887,"lng":98.28637346727227,"avgVisitMinutes":65,"estimatedCostEur":14,"score":3.343915935911061},{"id":"houqiao_3057","citySlug":"houqiao","name":"Paseo Principal","category":"ocio","lat":25.321236633703943,"lng":98.27105821022862,"avgVisitMinutes":48,"estimatedCostEur":0,"score":3.1135184695536022},{"id":"houqiao_3401","citySlug":"houqiao","name":"Zona Comercial","category":"ocio","lat":25.313995654475058,"lng":98.2800227561199,"avgVisitMinutes":53,"estimatedCostEur":3,"score":1.3663298328013802},{"id":"houqiao_5334","citySlug":"houqiao","name":"Castillo de Houqiao","category":"historia","lat":25.333204227033658,"lng":98.27582587571466,"avgVisitMinutes":34,"estimatedCostEur":17,"score":1.710645521142105},{"id":"heshun_7629","citySlug":"heshun","name":"Mirador de Heshun","category":"mirador","lat":25.018066963074926,"lng":98.45975306006164,"avgVisitMinutes":89,"estimatedCostEur":13,"score":1.584177031625586},{"id":"heshun_5986","citySlug":"heshun","name":"Paseo Principal","category":"ocio","lat":25.013404983387698,"lng":98.46354314202246,"avgVisitMinutes":47,"estimatedCostEur":12,"score":2.2279880103406797},{"id":"heshun_5536","citySlug":"heshun","name":"Castillo de Heshun","category":"historia","lat":25.0216807689353,"lng":98.45741100283983,"avgVisitMinutes":40,"estimatedCostEur":0,"score":1.1691160507072562},{"id":"heshun_4219","citySlug":"heshun","name":"Murallas de Heshun","category":"historia","lat":25.00783137798206,"lng":98.47044193403312,"avgVisitMinutes":69,"estimatedCostEur":16,"score":2.690604209152402},{"id":"heshun_4173","citySlug":"heshun","name":"Ruta de Tapas","category":"gastronomia","lat":25.02355405546659,"lng":98.47479362258449,"avgVisitMinutes":61,"estimatedCostEur":3,"score":0.501228419110824},{"id":"heshun_4922","citySlug":"heshun","name":"Ruta de Tapas","category":"gastronomia","lat":25.026258671913887,"lng":98.46651130388801,"avgVisitMinutes":35,"estimatedCostEur":0,"score":0.5482132562042903},{"id":"heshun_7525","citySlug":"heshun","name":"Playa Norte","category":"playa","lat":25.01546401320148,"lng":98.46916447591484,"avgVisitMinutes":25,"estimatedCostEur":4,"score":3.2724439732848416},{"id":"heshun_6505","citySlug":"heshun","name":"Restaurante Típico de Heshun","category":"gastronomia","lat":25.023378967069796,"lng":98.46439853072386,"avgVisitMinutes":80,"estimatedCostEur":23,"score":0.7464988927597257},{"id":"heshun_2660","citySlug":"heshun","name":"Ruta de Tapas","category":"gastronomia","lat":25.01712285711848,"lng":98.46091739082298,"avgVisitMinutes":62,"estimatedCostEur":21,"score":2.52660629003474},{"id":"heshun_1784","citySlug":"heshun","name":"Murallas de Heshun","category":"historia","lat":25.01305776710305,"lng":98.46382984860483,"avgVisitMinutes":76,"estimatedCostEur":11,"score":2.7429822916845517},{"id":"heshun_2184","citySlug":"heshun","name":"Galería de Arte","category":"cultura","lat":25.02477555817205,"lng":98.47638406820867,"avgVisitMinutes":49,"estimatedCostEur":19,"score":2.718901594607614},{"id":"yushu_1024","citySlug":"yushu","name":"Museo Cultural de Yushu","category":"cultura","lat":32.9978707590431,"lng":97.01542901730848,"avgVisitMinutes":29,"estimatedCostEur":15,"score":0.6394327098429498},{"id":"yushu_1931","citySlug":"yushu","name":"Museo Cultural de Yushu","category":"cultura","lat":33.00735447203411,"lng":97.01484340290628,"avgVisitMinutes":25,"estimatedCostEur":11,"score":4.5451420608274065},{"id":"yushu_9486","citySlug":"yushu","name":"Playa Central","category":"playa","lat":33.00086726845883,"lng":97.01571892117302,"avgVisitMinutes":57,"estimatedCostEur":22,"score":1.4032603327876936},{"id":"yushu_9484","citySlug":"yushu","name":"Museo Local de Yushu","category":"historia","lat":33.0042953929149,"lng":97.00449461533967,"avgVisitMinutes":45,"estimatedCostEur":16,"score":2.146962296221025},{"id":"yushu_9925","citySlug":"yushu","name":"Mercado Gastronómico","category":"gastronomia","lat":32.996096745318795,"lng":97.01403166165987,"avgVisitMinutes":23,"estimatedCostEur":3,"score":0.8104730915735188},{"id":"gudong_1658","citySlug":"gudong","name":"Playa Central","category":"playa","lat":25.336134290720285,"lng":98.48786638269337,"avgVisitMinutes":63,"estimatedCostEur":6,"score":3.093733788710045},{"id":"gudong_2026","citySlug":"gudong","name":"Zona Comercial","category":"ocio","lat":25.33444673976037,"lng":98.47611916499699,"avgVisitMinutes":24,"estimatedCostEur":18,"score":4.542907435353459},{"id":"gudong_7000","citySlug":"gudong","name":"Ruta de Tapas","category":"gastronomia","lat":25.349983706474305,"lng":98.4817226475304,"avgVisitMinutes":85,"estimatedCostEur":16,"score":4.365645222323695},{"id":"gudong_1475","citySlug":"gudong","name":"Ruta de Tapas","category":"gastronomia","lat":25.33215413764426,"lng":98.4795432112675,"avgVisitMinutes":30,"estimatedCostEur":15,"score":4.664638242865582},{"id":"gudong_1446","citySlug":"gudong","name":"Mercado Gastronómico","category":"gastronomia","lat":25.338338095277788,"lng":98.47444577241335,"avgVisitMinutes":88,"estimatedCostEur":4,"score":4.087319016816889},{"id":"gudong_5894","citySlug":"gudong","name":"Teatro Municipal","category":"cultura","lat":25.339454524130876,"lng":98.47881649363214,"avgVisitMinutes":74,"estimatedCostEur":2,"score":0.8907223446316801},{"id":"gudong_4469","citySlug":"gudong","name":"Zona Comercial","category":"ocio","lat":25.349924204401525,"lng":98.48254671911215,"avgVisitMinutes":49,"estimatedCostEur":25,"score":0.9764311033730901},{"id":"gudong_5055","citySlug":"gudong","name":"Vista Alta de Gudong","category":"mirador","lat":25.33226312052921,"lng":98.48255314997981,"avgVisitMinutes":58,"estimatedCostEur":24,"score":1.829453031502569},{"id":"elixku_3432","citySlug":"elixku","name":"Museo Local de Elixku","category":"historia","lat":38.71438835626548,"lng":77.37784563293957,"avgVisitMinutes":37,"estimatedCostEur":15,"score":2.154623358444843},{"id":"elixku_2666","citySlug":"elixku","name":"Vista Alta de Elixku","category":"mirador","lat":38.710253851478086,"lng":77.3631672560503,"avgVisitMinutes":59,"estimatedCostEur":23,"score":4.5914448059994655},{"id":"elixku_1416","citySlug":"elixku","name":"Restaurante Típico de Elixku","category":"gastronomia","lat":38.71226111995156,"lng":77.36360530586678,"avgVisitMinutes":58,"estimatedCostEur":5,"score":1.9707159468711086},{"id":"elixku_3056","citySlug":"elixku","name":"Galería de Arte","category":"cultura","lat":38.70197441499007,"lng":77.37997716107843,"avgVisitMinutes":66,"estimatedCostEur":12,"score":4.528903315298812},{"id":"elixku_9521","citySlug":"elixku","name":"Museo Cultural de Elixku","category":"cultura","lat":38.70740636096913,"lng":77.37115030881071,"avgVisitMinutes":23,"estimatedCostEur":8,"score":2.0363652877783434},{"id":"elixku_8485","citySlug":"elixku","name":"Parque Central","category":"ocio","lat":38.71408198337854,"lng":77.36453024475358,"avgVisitMinutes":33,"estimatedCostEur":4,"score":2.570958402688014},{"id":"elixku_9733","citySlug":"elixku","name":"Teatro Municipal","category":"cultura","lat":38.714789613628646,"lng":77.37162780290778,"avgVisitMinutes":77,"estimatedCostEur":2,"score":3.7331639395304697},{"id":"deqen_9216","citySlug":"deqen","name":"Parque Central","category":"ocio","lat":29.959976467940397,"lng":90.70982052218274,"avgVisitMinutes":58,"estimatedCostEur":12,"score":3.7635524098036566},{"id":"deqen_3230","citySlug":"deqen","name":"Castillo de Dêqên","category":"historia","lat":29.95796271764534,"lng":90.72258232228828,"avgVisitMinutes":61,"estimatedCostEur":6,"score":4.927930008650856},{"id":"deqen_2636","citySlug":"deqen","name":"Playa Central","category":"playa","lat":29.963056384698206,"lng":90.71408352520724,"avgVisitMinutes":53,"estimatedCostEur":23,"score":1.051847353207411},{"id":"deqen_6051","citySlug":"deqen","name":"Zona Comercial","category":"ocio","lat":29.961028471468243,"lng":90.71042479836258,"avgVisitMinutes":23,"estimatedCostEur":23,"score":1.5058493459904498},{"id":"deqen_5851","citySlug":"deqen","name":"Ruta de Tapas","category":"gastronomia","lat":29.96318573158506,"lng":90.7212719759592,"avgVisitMinutes":67,"estimatedCostEur":20,"score":1.8234891397125366},{"id":"deqen_2668","citySlug":"deqen","name":"Playa Norte","category":"playa","lat":29.963730323741906,"lng":90.70883614421815,"avgVisitMinutes":56,"estimatedCostEur":10,"score":2.365767331753514},{"id":"deqen_3508","citySlug":"deqen","name":"Mercado Gastronómico","category":"gastronomia","lat":29.970279863936774,"lng":90.71275764284721,"avgVisitMinutes":63,"estimatedCostEur":2,"score":0.8249544452103134},{"id":"dagze_8635","citySlug":"dagze","name":"Playa Central","category":"playa","lat":29.68184498021331,"lng":91.34290265000855,"avgVisitMinutes":53,"estimatedCostEur":11,"score":1.4420442668935518},{"id":"dagze_7121","citySlug":"dagze","name":"Playa Central","category":"playa","lat":29.671317540840146,"lng":91.33881599566585,"avgVisitMinutes":75,"estimatedCostEur":24,"score":2.6572337396034333},{"id":"dagze_9217","citySlug":"dagze","name":"Ruta de Tapas","category":"gastronomia","lat":29.68184333825991,"lng":91.34735481437131,"avgVisitMinutes":71,"estimatedCostEur":22,"score":4.613866900511443},{"id":"dagze_1110","citySlug":"dagze","name":"Paseo Principal","category":"ocio","lat":29.664884679294108,"lng":91.35520298735848,"avgVisitMinutes":67,"estimatedCostEur":11,"score":3.313802112416349},{"id":"dagze_6238","citySlug":"dagze","name":"Mirador de Dagzê","category":"mirador","lat":29.67044616029625,"lng":91.34400295850239,"avgVisitMinutes":51,"estimatedCostEur":23,"score":3.2825169846584012},{"id":"damxung_8384","citySlug":"damxung","name":"Playa Central","category":"playa","lat":30.47126096654722,"lng":91.10610459146744,"avgVisitMinutes":72,"estimatedCostEur":15,"score":2.8307655346474867},{"id":"damxung_1896","citySlug":"damxung","name":"Mirador de Damxung","category":"mirador","lat":30.48420694803842,"lng":91.10915653697101,"avgVisitMinutes":32,"estimatedCostEur":22,"score":3.048688485330512},{"id":"damxung_7641","citySlug":"damxung","name":"Punto Panorámico","category":"mirador","lat":30.47429228805675,"lng":91.11323808663418,"avgVisitMinutes":56,"estimatedCostEur":8,"score":4.728828590783017},{"id":"damxung_2471","citySlug":"damxung","name":"Playa Sur","category":"playa","lat":30.483465093751054,"lng":91.10389614287992,"avgVisitMinutes":71,"estimatedCostEur":11,"score":1.7577245223780293},{"id":"damxung_2779","citySlug":"damxung","name":"Paseo Principal","category":"ocio","lat":30.48048087765871,"lng":91.1153274231492,"avgVisitMinutes":52,"estimatedCostEur":7,"score":1.5123237512683076},{"id":"baoshan_4899","citySlug":"baoshan","name":"Galería de Arte","category":"cultura","lat":25.11884883970758,"lng":99.1561806667271,"avgVisitMinutes":85,"estimatedCostEur":1,"score":4.615897913448558},{"id":"baoshan_2869","citySlug":"baoshan","name":"Playa Central","category":"playa","lat":25.12483573342837,"lng":99.16987427731509,"avgVisitMinutes":68,"estimatedCostEur":14,"score":1.7316211559766659},{"id":"baoshan_9209","citySlug":"baoshan","name":"Mercado Gastronómico","category":"gastronomia","lat":25.123044247922873,"lng":99.15492317728355,"avgVisitMinutes":86,"estimatedCostEur":20,"score":1.4372156157120286},{"id":"baoshan_1416","citySlug":"baoshan","name":"Ruta de Tapas","category":"gastronomia","lat":25.12151071186666,"lng":99.16967339312734,"avgVisitMinutes":50,"estimatedCostEur":19,"score":1.9989668297037673},{"id":"baoshan_6076","citySlug":"baoshan","name":"Restaurante Típico de Baoshan","category":"gastronomia","lat":25.112716043622697,"lng":99.15559864954855,"avgVisitMinutes":43,"estimatedCostEur":6,"score":3.4525122715561425},{"id":"baoshan_2777","citySlug":"baoshan","name":"Castillo de Baoshan","category":"historia","lat":25.117749635396983,"lng":99.15880436645183,"avgVisitMinutes":79,"estimatedCostEur":22,"score":0.6583795153059555},{"id":"baoshan_9562","citySlug":"baoshan","name":"Mercado Gastronómico","category":"gastronomia","lat":25.11236231204006,"lng":99.15803406992516,"avgVisitMinutes":58,"estimatedCostEur":3,"score":3.0998706146156234},{"id":"baoshan_7930","citySlug":"baoshan","name":"Museo Cultural de Baoshan","category":"cultura","lat":25.11790672383027,"lng":99.1623516118091,"avgVisitMinutes":70,"estimatedCostEur":6,"score":4.344692216868659},{"id":"baoshan_7448","citySlug":"baoshan","name":"Centro Histórico","category":"historia","lat":25.1151564209077,"lng":99.16620196024066,"avgVisitMinutes":48,"estimatedCostEur":16,"score":2.9502559215909647},{"id":"baoshan_9832","citySlug":"baoshan","name":"Zona Comercial","category":"ocio","lat":25.123244373086067,"lng":99.16798979153063,"avgVisitMinutes":38,"estimatedCostEur":17,"score":0.7336886985626638},{"id":"baoshan_2079","citySlug":"baoshan","name":"Playa Norte","category":"playa","lat":25.109620886964233,"lng":99.15635048088802,"avgVisitMinutes":84,"estimatedCostEur":6,"score":1.2736163576478747},{"id":"artux_8046","citySlug":"artux","name":"Playa Central","category":"playa","lat":39.702450591421346,"lng":76.18933211765354,"avgVisitMinutes":54,"estimatedCostEur":7,"score":0.8443139088516494},{"id":"artux_1301","citySlug":"artux","name":"Mercado Gastronómico","category":"gastronomia","lat":39.70726632062548,"lng":76.18783619987036,"avgVisitMinutes":38,"estimatedCostEur":20,"score":4.910189728243768},{"id":"artux_9497","citySlug":"artux","name":"Museo Local de Artux","category":"historia","lat":39.71148228170113,"lng":76.18736240836391,"avgVisitMinutes":61,"estimatedCostEur":10,"score":3.735453078381119},{"id":"artux_4863","citySlug":"artux","name":"Iglesia de Artux","category":"historia","lat":39.7072286920557,"lng":76.18498033475157,"avgVisitMinutes":77,"estimatedCostEur":0,"score":2.7990754544031384},{"id":"artux_5054","citySlug":"artux","name":"Museo Cultural de Artux","category":"cultura","lat":39.706526708787294,"lng":76.18704344661398,"avgVisitMinutes":40,"estimatedCostEur":1,"score":0.6703310456536434},{"id":"artux_9350","citySlug":"artux","name":"Museo Cultural de Artux","category":"cultura","lat":39.70503213219859,"lng":76.18919057508138,"avgVisitMinutes":35,"estimatedCostEur":23,"score":1.3278883666703045},{"id":"artux_1347","citySlug":"artux","name":"Zona Comercial","category":"ocio","lat":39.70506220635028,"lng":76.17675549943694,"avgVisitMinutes":69,"estimatedCostEur":3,"score":3.389072520405785},{"id":"artux_6709","citySlug":"artux","name":"Restaurante Típico de Artux","category":"gastronomia","lat":39.706627462495874,"lng":76.17244199763583,"avgVisitMinutes":21,"estimatedCostEur":16,"score":0.802818608067693},{"id":"artux_3165","citySlug":"artux","name":"Iglesia de Artux","category":"historia","lat":39.718263649610144,"lng":76.17424576597459,"avgVisitMinutes":31,"estimatedCostEur":25,"score":3.746646271238798},{"id":"artux_4174","citySlug":"artux","name":"Restaurante Típico de Artux","category":"gastronomia","lat":39.712401817795964,"lng":76.17534162361635,"avgVisitMinutes":81,"estimatedCostEur":11,"score":1.048944846015369},{"id":"wujiaqu_7564","citySlug":"wujiaqu","name":"Mercado Gastronómico","category":"gastronomia","lat":44.16756855681784,"lng":87.51419634072131,"avgVisitMinutes":57,"estimatedCostEur":14,"score":1.2044623381390551},{"id":"wujiaqu_2801","citySlug":"wujiaqu","name":"Zona Comercial","category":"ocio","lat":44.15953223763204,"lng":87.51263887626551,"avgVisitMinutes":62,"estimatedCostEur":20,"score":4.282746110448083},{"id":"wujiaqu_7111","citySlug":"wujiaqu","name":"Punto Panorámico","category":"mirador","lat":44.16852454428144,"lng":87.52618524311251,"avgVisitMinutes":47,"estimatedCostEur":10,"score":1.8433571434454563},{"id":"wujiaqu_5933","citySlug":"wujiaqu","name":"Playa Sur","category":"playa","lat":44.1688631085566,"lng":87.52091847556805,"avgVisitMinutes":39,"estimatedCostEur":6,"score":4.470690916288841},{"id":"wujiaqu_5802","citySlug":"wujiaqu","name":"Playa Sur","category":"playa","lat":44.16704520589014,"lng":87.51855519564634,"avgVisitMinutes":87,"estimatedCostEur":2,"score":4.872435816351419},{"id":"wujiaqu_2565","citySlug":"wujiaqu","name":"Mercado Gastronómico","category":"gastronomia","lat":44.169499563536846,"lng":87.51882126831244,"avgVisitMinutes":39,"estimatedCostEur":5,"score":1.9086129294419865},{"id":"wujiaqu_8278","citySlug":"wujiaqu","name":"Mirador de Wujiaqu","category":"mirador","lat":44.16955883413632,"lng":87.51521646435233,"avgVisitMinutes":22,"estimatedCostEur":15,"score":0.5470063828028014},{"id":"wujiaqu_8493","citySlug":"wujiaqu","name":"Playa Central","category":"playa","lat":44.16827499020224,"lng":87.52112489924139,"avgVisitMinutes":76,"estimatedCostEur":20,"score":1.6439936502470132},{"id":"wujiaqu_3917","citySlug":"wujiaqu","name":"Vista Alta de Wujiaqu","category":"mirador","lat":44.159052583661314,"lng":87.52493591966208,"avgVisitMinutes":56,"estimatedCostEur":21,"score":3.7941550137804216},{"id":"wujiaqu_3938","citySlug":"wujiaqu","name":"Zona Comercial","category":"ocio","lat":44.17050711073634,"lng":87.52800151910407,"avgVisitMinutes":70,"estimatedCostEur":20,"score":4.62323427679288},{"id":"wujiaqu_1726","citySlug":"wujiaqu","name":"Mirador de Wujiaqu","category":"mirador","lat":44.16421749376406,"lng":87.52981934602597,"avgVisitMinutes":85,"estimatedCostEur":1,"score":1.6801920651919273},{"id":"wujiaqu_8877","citySlug":"wujiaqu","name":"Restaurante Típico de Wujiaqu","category":"gastronomia","lat":44.17227178840331,"lng":87.52962429204608,"avgVisitMinutes":41,"estimatedCostEur":14,"score":3.0149984089466324},{"id":"urumqi_3775","citySlug":"urumqi","name":"Punto Panorámico","category":"mirador","lat":43.81002988004644,"lng":87.60324001897821,"avgVisitMinutes":46,"estimatedCostEur":19,"score":3.90424649898271},{"id":"urumqi_9075","citySlug":"urumqi","name":"Murallas de Ürümqi","category":"historia","lat":43.79140197457727,"lng":87.60072117353899,"avgVisitMinutes":82,"estimatedCostEur":11,"score":4.397114584843676},{"id":"urumqi_2946","citySlug":"urumqi","name":"Playa Central","category":"playa","lat":43.80417088878623,"lng":87.59781827905731,"avgVisitMinutes":80,"estimatedCostEur":4,"score":0.884105757947689},{"id":"urumqi_7973","citySlug":"urumqi","name":"Playa Sur","category":"playa","lat":43.80598295375785,"lng":87.60657149293175,"avgVisitMinutes":82,"estimatedCostEur":6,"score":0.5282585199542429},{"id":"urumqi_1534","citySlug":"urumqi","name":"Centro de Arte de Ürümqi","category":"cultura","lat":43.80920931066205,"lng":87.60836304987954,"avgVisitMinutes":21,"estimatedCostEur":7,"score":4.152812160474288},{"id":"urumqi_1285","citySlug":"urumqi","name":"Murallas de Ürümqi","category":"historia","lat":43.80569948628248,"lng":87.5926285151183,"avgVisitMinutes":27,"estimatedCostEur":2,"score":1.7831905863711592},{"id":"urumqi_9612","citySlug":"urumqi","name":"Paseo Principal","category":"ocio","lat":43.80042824594135,"lng":87.60148040125095,"avgVisitMinutes":21,"estimatedCostEur":22,"score":4.53527068982287},{"id":"urumqi_6906","citySlug":"urumqi","name":"Playa Norte","category":"playa","lat":43.80863699087689,"lng":87.59088102029853,"avgVisitMinutes":30,"estimatedCostEur":11,"score":3.4921083456180595},{"id":"urumqi_1465","citySlug":"urumqi","name":"Zona Comercial","category":"ocio","lat":43.8069724076581,"lng":87.59318971002786,"avgVisitMinutes":67,"estimatedCostEur":6,"score":1.2688282962212658},{"id":"urumqi_1591","citySlug":"urumqi","name":"Punto Panorámico","category":"mirador","lat":43.80182090212733,"lng":87.6072892204131,"avgVisitMinutes":40,"estimatedCostEur":5,"score":2.8458715503663594},{"id":"urumqi_8804","citySlug":"urumqi","name":"Ruta de Tapas","category":"gastronomia","lat":43.79427206564247,"lng":87.6054542208672,"avgVisitMinutes":41,"estimatedCostEur":1,"score":1.1998825683208902},{"id":"urumqi_6438","citySlug":"urumqi","name":"Paseo Principal","category":"ocio","lat":43.79835411163813,"lng":87.60193002036894,"avgVisitMinutes":78,"estimatedCostEur":4,"score":1.387752695258948},{"id":"turpan_5960","citySlug":"turpan","name":"Zona Comercial","category":"ocio","lat":42.94465430587827,"lng":89.17766774685643,"avgVisitMinutes":21,"estimatedCostEur":8,"score":1.8527579581136309},{"id":"turpan_5006","citySlug":"turpan","name":"Museo Local de Turpan","category":"historia","lat":42.94650634007122,"lng":89.18150474524785,"avgVisitMinutes":41,"estimatedCostEur":5,"score":0.834656332569405},{"id":"turpan_7620","citySlug":"turpan","name":"Ruta de Tapas","category":"gastronomia","lat":42.953699420102176,"lng":89.17000549250213,"avgVisitMinutes":65,"estimatedCostEur":4,"score":2.6641332969353946},{"id":"turpan_1292","citySlug":"turpan","name":"Museo Cultural de Turpan","category":"cultura","lat":42.93968998713033,"lng":89.18594792549563,"avgVisitMinutes":56,"estimatedCostEur":22,"score":2.0703767558071515},{"id":"turpan_2158","citySlug":"turpan","name":"Castillo de Turpan","category":"historia","lat":42.94033350084135,"lng":89.17473276764215,"avgVisitMinutes":85,"estimatedCostEur":18,"score":2.2549420417431074},{"id":"turpan_3561","citySlug":"turpan","name":"Playa Central","category":"playa","lat":42.94351503273178,"lng":89.18690734516086,"avgVisitMinutes":21,"estimatedCostEur":10,"score":2.21058666034828},{"id":"turpan_4452","citySlug":"turpan","name":"Paseo Principal","category":"ocio","lat":42.949524221338876,"lng":89.18871856539384,"avgVisitMinutes":56,"estimatedCostEur":16,"score":4.227853466979235},{"id":"turpan_2865","citySlug":"turpan","name":"Playa Norte","category":"playa","lat":42.95582636104321,"lng":89.17994845863807,"avgVisitMinutes":70,"estimatedCostEur":4,"score":2.0496771135606338},{"id":"turpan_5448","citySlug":"turpan","name":"Playa Sur","category":"playa","lat":42.95688607717826,"lng":89.18644818983464,"avgVisitMinutes":46,"estimatedCostEur":23,"score":1.746650015242302},{"id":"turpan_9025","citySlug":"turpan","name":"Teatro Municipal","category":"cultura","lat":42.957664502763485,"lng":89.17751339773774,"avgVisitMinutes":86,"estimatedCostEur":8,"score":1.9373104335042681},{"id":"tacheng_5992","citySlug":"tacheng","name":"Zona Comercial","category":"ocio","lat":46.753187223927924,"lng":82.96190392343249,"avgVisitMinutes":70,"estimatedCostEur":22,"score":3.676438911784615},{"id":"tacheng_2125","citySlug":"tacheng","name":"Mercado Gastronómico","category":"gastronomia","lat":46.74708659352425,"lng":82.95815202163718,"avgVisitMinutes":56,"estimatedCostEur":17,"score":4.9945902429045015},{"id":"tacheng_6612","citySlug":"tacheng","name":"Playa Norte","category":"playa","lat":46.743468713408845,"lng":82.95495011745966,"avgVisitMinutes":61,"estimatedCostEur":2,"score":0.9732016912940438},{"id":"tacheng_2891","citySlug":"tacheng","name":"Restaurante Típico de Tacheng","category":"gastronomia","lat":46.742742602359456,"lng":82.95293301923542,"avgVisitMinutes":88,"estimatedCostEur":15,"score":3.3300282519294666},{"id":"tacheng_1564","citySlug":"tacheng","name":"Museo Local de Tacheng","category":"historia","lat":46.75205770744261,"lng":82.95542910183339,"avgVisitMinutes":70,"estimatedCostEur":16,"score":0.8754453043074468},{"id":"tacheng_6810","citySlug":"tacheng","name":"Playa Norte","category":"playa","lat":46.749908203222674,"lng":82.96350519460032,"avgVisitMinutes":36,"estimatedCostEur":1,"score":3.536478771023129},{"id":"tacheng_9394","citySlug":"tacheng","name":"Centro de Arte de Tacheng","category":"cultura","lat":46.747013464496234,"lng":82.95582258511125,"avgVisitMinutes":51,"estimatedCostEur":18,"score":4.813125557511278},{"id":"tacheng_1304","citySlug":"tacheng","name":"Paseo Principal","category":"ocio","lat":46.75250561932941,"lng":82.9565421026984,"avgVisitMinutes":42,"estimatedCostEur":3,"score":4.3385914835491945},{"id":"tacheng_2182","citySlug":"tacheng","name":"Vista Alta de Tacheng","category":"mirador","lat":46.74797515756378,"lng":82.96438128483263,"avgVisitMinutes":69,"estimatedCostEur":24,"score":4.322982925812595},{"id":"tacheng_8648","citySlug":"tacheng","name":"Zona Comercial","category":"ocio","lat":46.74020358766586,"lng":82.96690820639253,"avgVisitMinutes":55,"estimatedCostEur":15,"score":0.9496746007323273},{"id":"tacheng_7610","citySlug":"tacheng","name":"Murallas de Tacheng","category":"historia","lat":46.75154622682185,"lng":82.96750433611408,"avgVisitMinutes":71,"estimatedCostEur":15,"score":4.032792450120311},{"id":"tacheng_9118","citySlug":"tacheng","name":"Vista Alta de Tacheng","category":"mirador","lat":46.73891499433251,"lng":82.96539498140996,"avgVisitMinutes":52,"estimatedCostEur":8,"score":2.286364210764597},{"id":"qongkur_4100","citySlug":"qongkur","name":"Castillo de Qongkur","category":"historia","lat":48.11517241945805,"lng":87.11033133894598,"avgVisitMinutes":82,"estimatedCostEur":23,"score":1.6141928004867891},{"id":"qongkur_1872","citySlug":"qongkur","name":"Mirador de Qongkur","category":"mirador","lat":48.11916764747651,"lng":87.12011473598052,"avgVisitMinutes":72,"estimatedCostEur":5,"score":2.3719924966355306},{"id":"qongkur_4767","citySlug":"qongkur","name":"Galería de Arte","category":"cultura","lat":48.12713767847302,"lng":87.11191557332528,"avgVisitMinutes":21,"estimatedCostEur":21,"score":1.5516202456437378},{"id":"qongkur_1566","citySlug":"qongkur","name":"Mirador de Qongkur","category":"mirador","lat":48.11813757723154,"lng":87.10424327624943,"avgVisitMinutes":80,"estimatedCostEur":17,"score":0.5338301133487047},{"id":"qongkur_4937","citySlug":"qongkur","name":"Punto Panorámico","category":"mirador","lat":48.12834613039844,"lng":87.1027535074244,"avgVisitMinutes":45,"estimatedCostEur":10,"score":4.341213838906013},{"id":"qongkur_1261","citySlug":"qongkur","name":"Museo Local de Qongkur","category":"historia","lat":48.13161745231284,"lng":87.11100611427497,"avgVisitMinutes":57,"estimatedCostEur":7,"score":0.7729660695290634},{"id":"qongkur_2051","citySlug":"qongkur","name":"Restaurante Típico de Qongkur","category":"gastronomia","lat":48.129467241746966,"lng":87.11745095269329,"avgVisitMinutes":50,"estimatedCostEur":25,"score":0.744075986436172},{"id":"qongkur_4598","citySlug":"qongkur","name":"Paseo Principal","category":"ocio","lat":48.119823460410196,"lng":87.10368285793524,"avgVisitMinutes":30,"estimatedCostEur":11,"score":1.961961807174883},{"id":"qongkur_7157","citySlug":"qongkur","name":"Restaurante Típico de Qongkur","category":"gastronomia","lat":48.11792332788805,"lng":87.11627906944184,"avgVisitMinutes":70,"estimatedCostEur":16,"score":4.0415960146523275},{"id":"qongkur_3282","citySlug":"qongkur","name":"Playa Central","category":"playa","lat":48.12797088630517,"lng":87.11863330281136,"avgVisitMinutes":30,"estimatedCostEur":25,"score":3.2291642434151333},{"id":"qongkur_1684","citySlug":"qongkur","name":"Mirador de Qongkur","category":"mirador","lat":48.11908808737457,"lng":87.1082272947563,"avgVisitMinutes":63,"estimatedCostEur":24,"score":1.8016143847661137},{"id":"korla_8200","citySlug":"korla","name":"Zona Comercial","category":"ocio","lat":41.76866483410747,"lng":86.1600064148233,"avgVisitMinutes":81,"estimatedCostEur":6,"score":4.863440436304952},{"id":"korla_2262","citySlug":"korla","name":"Playa Sur","category":"playa","lat":41.76005530228646,"lng":86.15857769270436,"avgVisitMinutes":21,"estimatedCostEur":6,"score":0.8281415301969975},{"id":"korla_3582","citySlug":"korla","name":"Iglesia de Korla","category":"historia","lat":41.75564552061171,"lng":86.14519535564644,"avgVisitMinutes":50,"estimatedCostEur":20,"score":2.343729332008488},{"id":"korla_8138","citySlug":"korla","name":"Playa Central","category":"playa","lat":41.753919624276776,"lng":86.15592135477331,"avgVisitMinutes":24,"estimatedCostEur":5,"score":4.1021324493020135},{"id":"korla_5073","citySlug":"korla","name":"Zona Comercial","category":"ocio","lat":41.76102721607139,"lng":86.16017986698512,"avgVisitMinutes":42,"estimatedCostEur":20,"score":2.342583297691278},{"id":"korla_4770","citySlug":"korla","name":"Punto Panorámico","category":"mirador","lat":41.75709047924653,"lng":86.15529439073487,"avgVisitMinutes":77,"estimatedCostEur":0,"score":2.3157285395769454},{"id":"korla_8236","citySlug":"korla","name":"Museo Cultural de Korla","category":"cultura","lat":41.76724232051677,"lng":86.15896385897568,"avgVisitMinutes":63,"estimatedCostEur":4,"score":2.979113707735776},{"id":"korla_3864","citySlug":"korla","name":"Mercado Gastronómico","category":"gastronomia","lat":41.770500709501924,"lng":86.15475612057499,"avgVisitMinutes":46,"estimatedCostEur":19,"score":4.67564430484807},{"id":"korla_9488","citySlug":"korla","name":"Paseo Principal","category":"ocio","lat":41.75701847237295,"lng":86.1493840733228,"avgVisitMinutes":63,"estimatedCostEur":18,"score":0.9272052574645451},{"id":"korla_4101","citySlug":"korla","name":"Murallas de Korla","category":"historia","lat":41.75760391854053,"lng":86.15037652124074,"avgVisitMinutes":44,"estimatedCostEur":7,"score":2.9822514704998135},{"id":"korla_1946","citySlug":"korla","name":"Zona Comercial","category":"ocio","lat":41.75810593194716,"lng":86.15047192736418,"avgVisitMinutes":67,"estimatedCostEur":0,"score":4.731775444482103},{"id":"hom_9168","citySlug":"hom","name":"Teatro Municipal","category":"cultura","lat":48.56528151835285,"lng":87.42692127095249,"avgVisitMinutes":80,"estimatedCostEur":7,"score":1.445729070508902},{"id":"hom_5227","citySlug":"hom","name":"Vista Alta de Hom","category":"mirador","lat":48.57336704341202,"lng":87.41679603783142,"avgVisitMinutes":38,"estimatedCostEur":18,"score":0.9096989019537087},{"id":"hom_7365","citySlug":"hom","name":"Parque Central","category":"ocio","lat":48.55834138635298,"lng":87.4185400356261,"avgVisitMinutes":28,"estimatedCostEur":10,"score":2.2371904314229187},{"id":"hom_8378","citySlug":"hom","name":"Centro Histórico","category":"historia","lat":48.5725720143955,"lng":87.42373517213844,"avgVisitMinutes":24,"estimatedCostEur":9,"score":2.7069125343981413},{"id":"hom_2153","citySlug":"hom","name":"Castillo de Hom","category":"historia","lat":48.56731985343021,"lng":87.43053412920798,"avgVisitMinutes":81,"estimatedCostEur":14,"score":4.30044510490124},{"id":"hom_1601","citySlug":"hom","name":"Playa Sur","category":"playa","lat":48.5657342204878,"lng":87.4283743223198,"avgVisitMinutes":38,"estimatedCostEur":4,"score":4.5582259362459006},{"id":"hom_5697","citySlug":"hom","name":"Centro Histórico","category":"historia","lat":48.55956717663616,"lng":87.4165152159692,"avgVisitMinutes":43,"estimatedCostEur":4,"score":4.67478222841344},{"id":"hom_2368","citySlug":"hom","name":"Ruta de Tapas","category":"gastronomia","lat":48.57442401685436,"lng":87.42634424499435,"avgVisitMinutes":81,"estimatedCostEur":0,"score":1.2386122297376052},{"id":"karamay_6713","citySlug":"karamay","name":"Centro de Arte de Karamay","category":"cultura","lat":45.583705004175705,"lng":84.88880563148132,"avgVisitMinutes":67,"estimatedCostEur":3,"score":4.926502170849817},{"id":"karamay_2006","citySlug":"karamay","name":"Ruta de Tapas","category":"gastronomia","lat":45.583768021755574,"lng":84.88946385441736,"avgVisitMinutes":85,"estimatedCostEur":23,"score":1.790004075178445},{"id":"karamay_6333","citySlug":"karamay","name":"Castillo de Karamay","category":"historia","lat":45.59360839719846,"lng":84.88451142933268,"avgVisitMinutes":40,"estimatedCostEur":8,"score":3.401092542724467},{"id":"karamay_9388","citySlug":"karamay","name":"Castillo de Karamay","category":"historia","lat":45.59413546469549,"lng":84.89127195012594,"avgVisitMinutes":64,"estimatedCostEur":1,"score":1.3111137049810215},{"id":"karamay_7588","citySlug":"karamay","name":"Punto Panorámico","category":"mirador","lat":45.59094980711335,"lng":84.88928284921343,"avgVisitMinutes":28,"estimatedCostEur":4,"score":3.0080872457987473},{"id":"karamay_8866","citySlug":"karamay","name":"Museo Local de Karamay","category":"historia","lat":45.588253086129896,"lng":84.8833646091561,"avgVisitMinutes":87,"estimatedCostEur":7,"score":0.998963596452197},{"id":"jelilyuzi_6259","citySlug":"jelilyuzi","name":"Castillo de Jelilyüzi","category":"historia","lat":43.98186371586225,"lng":81.52631404054712,"avgVisitMinutes":33,"estimatedCostEur":11,"score":2.482359085345429},{"id":"jelilyuzi_4885","citySlug":"jelilyuzi","name":"Playa Central","category":"playa","lat":43.97910599653241,"lng":81.53662289633847,"avgVisitMinutes":84,"estimatedCostEur":18,"score":1.623502045882017},{"id":"jelilyuzi_4812","citySlug":"jelilyuzi","name":"Centro Histórico","category":"historia","lat":43.98012077693915,"lng":81.53096787636555,"avgVisitMinutes":72,"estimatedCostEur":21,"score":4.983126987941195},{"id":"jelilyuzi_7281","citySlug":"jelilyuzi","name":"Punto Panorámico","category":"mirador","lat":43.983528603348496,"lng":81.5284453385102,"avgVisitMinutes":44,"estimatedCostEur":17,"score":0.7059929221032963},{"id":"jelilyuzi_6713","citySlug":"jelilyuzi","name":"Castillo de Jelilyüzi","category":"historia","lat":43.978657612214306,"lng":81.53922129082255,"avgVisitMinutes":57,"estimatedCostEur":7,"score":2.529277276794963},{"id":"jelilyuzi_1137","citySlug":"jelilyuzi","name":"Playa Norte","category":"playa","lat":43.98188033732038,"lng":81.536473278453,"avgVisitMinutes":40,"estimatedCostEur":24,"score":0.9189260544231355},{"id":"jelilyuzi_1554","citySlug":"jelilyuzi","name":"Mercado Gastronómico","category":"gastronomia","lat":43.969886135035736,"lng":81.5406116471754,"avgVisitMinutes":67,"estimatedCostEur":7,"score":1.0719299604329386},{"id":"jelilyuzi_9360","citySlug":"jelilyuzi","name":"Playa Central","category":"playa","lat":43.97521147564557,"lng":81.53835852531624,"avgVisitMinutes":65,"estimatedCostEur":6,"score":3.3740241852615394},{"id":"jelilyuzi_7606","citySlug":"jelilyuzi","name":"Ruta de Tapas","category":"gastronomia","lat":43.969617812398425,"lng":81.53074662572455,"avgVisitMinutes":65,"estimatedCostEur":0,"score":3.838050312835322},{"id":"jelilyuzi_9196","citySlug":"jelilyuzi","name":"Playa Central","category":"playa","lat":43.964988358108336,"lng":81.54034325627524,"avgVisitMinutes":63,"estimatedCostEur":24,"score":4.9435123060531625},{"id":"jelilyuzi_3676","citySlug":"jelilyuzi","name":"Vista Alta de Jelilyüzi","category":"mirador","lat":43.967280932936504,"lng":81.5306279436943,"avgVisitMinutes":22,"estimatedCostEur":6,"score":4.282879798976958},{"id":"jelilyuzi_2784","citySlug":"jelilyuzi","name":"Mirador de Jelilyüzi","category":"mirador","lat":43.97395334599218,"lng":81.54225085772606,"avgVisitMinutes":56,"estimatedCostEur":25,"score":3.07129187172073},{"id":"ghulja_5336","citySlug":"ghulja","name":"Ruta de Tapas","category":"gastronomia","lat":43.919087242719165,"lng":81.32989607903914,"avgVisitMinutes":61,"estimatedCostEur":14,"score":3.1304691481768163},{"id":"ghulja_9981","citySlug":"ghulja","name":"Teatro Municipal","category":"cultura","lat":43.907313201042,"lng":81.3249977398056,"avgVisitMinutes":64,"estimatedCostEur":5,"score":2.928405691148522},{"id":"ghulja_3090","citySlug":"ghulja","name":"Centro de Arte de Ghulja","category":"cultura","lat":43.915536794671894,"lng":81.31951879545241,"avgVisitMinutes":65,"estimatedCostEur":11,"score":4.378280438285852},{"id":"ghulja_1283","citySlug":"ghulja","name":"Mercado Gastronómico","category":"gastronomia","lat":43.913700625700045,"lng":81.32169270896904,"avgVisitMinutes":69,"estimatedCostEur":1,"score":2.1881502165522617},{"id":"ghulja_2225","citySlug":"ghulja","name":"Centro de Arte de Ghulja","category":"cultura","lat":43.91686092217363,"lng":81.31967072543813,"avgVisitMinutes":65,"estimatedCostEur":12,"score":0.7858464047004805},{"id":"ghulja_9983","citySlug":"ghulja","name":"Vista Alta de Ghulja","category":"mirador","lat":43.921428357611184,"lng":81.3201037206093,"avgVisitMinutes":38,"estimatedCostEur":13,"score":3.287868568846028},{"id":"ghulja_5939","citySlug":"ghulja","name":"Mirador de Ghulja","category":"mirador","lat":43.92438570670715,"lng":81.31483738941843,"avgVisitMinutes":37,"estimatedCostEur":12,"score":4.251676577346708},{"id":"hami_4619","citySlug":"hami","name":"Murallas de Hami","category":"historia","lat":42.82788166444497,"lng":93.50854684721968,"avgVisitMinutes":75,"estimatedCostEur":9,"score":0.5268560292573704},{"id":"hami_5715","citySlug":"hami","name":"Paseo Principal","category":"ocio","lat":42.83500283161581,"lng":93.50394692156478,"avgVisitMinutes":32,"estimatedCostEur":24,"score":1.0618119350356976},{"id":"hami_6808","citySlug":"hami","name":"Restaurante Típico de Hami","category":"gastronomia","lat":42.82558884698681,"lng":93.49755935800741,"avgVisitMinutes":56,"estimatedCostEur":9,"score":3.8789203746063685},{"id":"hami_6245","citySlug":"hami","name":"Mercado Gastronómico","category":"gastronomia","lat":42.84125631527394,"lng":93.51004410541388,"avgVisitMinutes":62,"estimatedCostEur":3,"score":2.467264474566071},{"id":"hami_9580","citySlug":"hami","name":"Centro de Arte de Hami","category":"cultura","lat":42.82739000609082,"lng":93.51202499489604,"avgVisitMinutes":28,"estimatedCostEur":17,"score":0.8175578963057049},{"id":"hami_3982","citySlug":"hami","name":"Mercado Gastronómico","category":"gastronomia","lat":42.837358981371445,"lng":93.51474291077858,"avgVisitMinutes":51,"estimatedCostEur":11,"score":1.457436521077993},{"id":"hami_7988","citySlug":"hami","name":"Mirador de Hami","category":"mirador","lat":42.84008707509596,"lng":93.51449989428292,"avgVisitMinutes":24,"estimatedCostEur":0,"score":3.9917445906005984},{"id":"hami_8735","citySlug":"hami","name":"Mirador de Hami","category":"mirador","lat":42.839352564523615,"lng":93.50416175719548,"avgVisitMinutes":48,"estimatedCostEur":4,"score":4.496553200181145},{"id":"hami_2245","citySlug":"hami","name":"Centro de Arte de Hami","category":"cultura","lat":42.84195909135016,"lng":93.51497461114316,"avgVisitMinutes":20,"estimatedCostEur":1,"score":2.6957584864595896},{"id":"hami_2153","citySlug":"hami","name":"Teatro Municipal","category":"cultura","lat":42.841106511440856,"lng":93.51088236234374,"avgVisitMinutes":20,"estimatedCostEur":0,"score":3.709611858641428},{"id":"hami_9277","citySlug":"hami","name":"Punto Panorámico","category":"mirador","lat":42.83778100305445,"lng":93.49943611372557,"avgVisitMinutes":29,"estimatedCostEur":10,"score":3.1482602342888684},{"id":"hami_7887","citySlug":"hami","name":"Centro de Arte de Hami","category":"cultura","lat":42.830329807681096,"lng":93.51268836985363,"avgVisitMinutes":20,"estimatedCostEur":24,"score":0.7495908253464356},{"id":"fuyun_8951","citySlug":"fuyun","name":"Paseo Principal","category":"ocio","lat":46.98821485844173,"lng":89.51862971737994,"avgVisitMinutes":89,"estimatedCostEur":1,"score":1.6992751923575438},{"id":"fuyun_8459","citySlug":"fuyun","name":"Ruta de Tapas","category":"gastronomia","lat":47.0008521638081,"lng":89.51916649327968,"avgVisitMinutes":85,"estimatedCostEur":11,"score":1.8999499223467404},{"id":"fuyun_8148","citySlug":"fuyun","name":"Restaurante Típico de Fuyun","category":"gastronomia","lat":46.9892119715653,"lng":89.52387101922365,"avgVisitMinutes":53,"estimatedCostEur":4,"score":3.878810355184742},{"id":"fuyun_2375","citySlug":"fuyun","name":"Zona Comercial","category":"ocio","lat":46.99714075769695,"lng":89.52291412245124,"avgVisitMinutes":67,"estimatedCostEur":6,"score":4.508336924683668},{"id":"fuyun_6661","citySlug":"fuyun","name":"Vista Alta de Fuyun","category":"mirador","lat":46.996439420419726,"lng":89.51293524082615,"avgVisitMinutes":57,"estimatedCostEur":15,"score":4.605570771958717},{"id":"fuyun_4252","citySlug":"fuyun","name":"Restaurante Típico de Fuyun","category":"gastronomia","lat":46.99794476244468,"lng":89.52685904316228,"avgVisitMinutes":52,"estimatedCostEur":15,"score":1.4116134333843813},{"id":"fuyun_4150","citySlug":"fuyun","name":"Playa Central","category":"playa","lat":46.99063142479398,"lng":89.5179233016417,"avgVisitMinutes":70,"estimatedCostEur":18,"score":3.3278486635365727},{"id":"fuyun_3413","citySlug":"fuyun","name":"Castillo de Fuyun","category":"historia","lat":46.993604538684245,"lng":89.5134601955109,"avgVisitMinutes":29,"estimatedCostEur":12,"score":3.2336672081239857},{"id":"dulayti_4136","citySlug":"dulayti","name":"Galería de Arte","category":"cultura","lat":47.77535305695672,"lng":87.08784015649938,"avgVisitMinutes":77,"estimatedCostEur":25,"score":3.4887314153851943},{"id":"dulayti_8920","citySlug":"dulayti","name":"Punto Panorámico","category":"mirador","lat":47.766623350765215,"lng":87.08261460338566,"avgVisitMinutes":64,"estimatedCostEur":5,"score":2.5573577699276235},{"id":"dulayti_8771","citySlug":"dulayti","name":"Murallas de Dulayti","category":"historia","lat":47.75802417292157,"lng":87.07371086607945,"avgVisitMinutes":75,"estimatedCostEur":0,"score":2.506756824221765},{"id":"dulayti_1243","citySlug":"dulayti","name":"Centro de Arte de Dulayti","category":"cultura","lat":47.76270324304154,"lng":87.0921830579196,"avgVisitMinutes":75,"estimatedCostEur":4,"score":1.00582721206343},{"id":"dulayti_4343","citySlug":"dulayti","name":"Mercado Gastronómico","category":"gastronomia","lat":47.76704159602893,"lng":87.0883200367375,"avgVisitMinutes":31,"estimatedCostEur":3,"score":1.082544891534947},{"id":"dulayti_5635","citySlug":"dulayti","name":"Restaurante Típico de Dulayti","category":"gastronomia","lat":47.77140658187655,"lng":87.08352495162063,"avgVisitMinutes":86,"estimatedCostEur":10,"score":2.2774970621366597},{"id":"changji_6440","citySlug":"changji","name":"Mirador de Changji","category":"mirador","lat":44.01682985214076,"lng":87.29834496519,"avgVisitMinutes":51,"estimatedCostEur":0,"score":3.163228477056653},{"id":"changji_6626","citySlug":"changji","name":"Playa Sur","category":"playa","lat":44.01244261538056,"lng":87.31006840164251,"avgVisitMinutes":86,"estimatedCostEur":8,"score":1.1738368034471252},{"id":"changji_9144","citySlug":"changji","name":"Restaurante Típico de Changji","category":"gastronomia","lat":43.99790089430222,"lng":87.29497098473021,"avgVisitMinutes":56,"estimatedCostEur":7,"score":1.3278549231119188},{"id":"changji_4729","citySlug":"changji","name":"Ruta de Tapas","category":"gastronomia","lat":44.01023048298271,"lng":87.31173560945027,"avgVisitMinutes":59,"estimatedCostEur":11,"score":4.406296260351834},{"id":"changji_1366","citySlug":"changji","name":"Iglesia de Changji","category":"historia","lat":44.01377898250364,"lng":87.31429822567435,"avgVisitMinutes":39,"estimatedCostEur":2,"score":1.5104249828853895},{"id":"changji_7591","citySlug":"changji","name":"Restaurante Típico de Changji","category":"gastronomia","lat":44.01710093322023,"lng":87.29667589869136,"avgVisitMinutes":51,"estimatedCostEur":4,"score":0.6985858962067504},{"id":"changji_5538","citySlug":"changji","name":"Punto Panorámico","category":"mirador","lat":44.00699235335209,"lng":87.31094727659121,"avgVisitMinutes":39,"estimatedCostEur":19,"score":2.989548056197728},{"id":"changji_5903","citySlug":"changji","name":"Zona Comercial","category":"ocio","lat":44.014123548881756,"lng":87.31058648090325,"avgVisitMinutes":50,"estimatedCostEur":16,"score":1.7707429293644736},{"id":"changji_9824","citySlug":"changji","name":"Playa Sur","category":"playa","lat":44.01100593178237,"lng":87.31246238159599,"avgVisitMinutes":23,"estimatedCostEur":17,"score":4.580563070779154},{"id":"changji_9331","citySlug":"changji","name":"Playa Sur","category":"playa","lat":43.998091398005556,"lng":87.29783757299381,"avgVisitMinutes":66,"estimatedCostEur":23,"score":2.2767562261990384},{"id":"baijiantan_2852","citySlug":"baijiantan","name":"Playa Norte","category":"playa","lat":45.694310663456896,"lng":85.14346053709485,"avgVisitMinutes":86,"estimatedCostEur":19,"score":4.325700123990324},{"id":"baijiantan_5282","citySlug":"baijiantan","name":"Galería de Arte","category":"cultura","lat":45.69293582621222,"lng":85.13988793773511,"avgVisitMinutes":59,"estimatedCostEur":4,"score":3.818285159485322},{"id":"baijiantan_3965","citySlug":"baijiantan","name":"Centro de Arte de Baijiantan","category":"cultura","lat":45.68676940057279,"lng":85.13222312706804,"avgVisitMinutes":24,"estimatedCostEur":22,"score":0.5794633722252795},{"id":"baijiantan_7442","citySlug":"baijiantan","name":"Teatro Municipal","category":"cultura","lat":45.68788391969606,"lng":85.14216346696738,"avgVisitMinutes":80,"estimatedCostEur":2,"score":2.3899063462838877},{"id":"baijiantan_4878","citySlug":"baijiantan","name":"Mercado Gastronómico","category":"gastronomia","lat":45.68482467119346,"lng":85.14590375178977,"avgVisitMinutes":86,"estimatedCostEur":3,"score":3.6898266897981045},{"id":"baijiantan_8392","citySlug":"baijiantan","name":"Galería de Arte","category":"cultura","lat":45.68465513734603,"lng":85.14929051432743,"avgVisitMinutes":82,"estimatedCostEur":14,"score":4.5672101987827105},{"id":"baijiantan_8367","citySlug":"baijiantan","name":"Museo Cultural de Baijiantan","category":"cultura","lat":45.69454011236886,"lng":85.14283573705374,"avgVisitMinutes":79,"estimatedCostEur":18,"score":1.4845396578359131},{"id":"baijiantan_4101","citySlug":"baijiantan","name":"Playa Norte","category":"playa","lat":45.68802101909723,"lng":85.13970152011713,"avgVisitMinutes":48,"estimatedCostEur":13,"score":0.7902852096842528},{"id":"baijiantan_4482","citySlug":"baijiantan","name":"Playa Central","category":"playa","lat":45.70172409221789,"lng":85.14773905929395,"avgVisitMinutes":55,"estimatedCostEur":22,"score":4.752958349300469},{"id":"aykol_2402","citySlug":"aykol","name":"Galería de Arte","category":"cultura","lat":40.95806959138088,"lng":80.14513250713613,"avgVisitMinutes":54,"estimatedCostEur":16,"score":1.3018941068707994},{"id":"aykol_1885","citySlug":"aykol","name":"Galería de Arte","category":"cultura","lat":40.96328827455513,"lng":80.12810013539712,"avgVisitMinutes":21,"estimatedCostEur":6,"score":3.560244701361645},{"id":"aykol_7532","citySlug":"aykol","name":"Galería de Arte","category":"cultura","lat":40.95452502769342,"lng":80.13673342893321,"avgVisitMinutes":41,"estimatedCostEur":10,"score":4.368594132700521},{"id":"aykol_8404","citySlug":"aykol","name":"Playa Sur","category":"playa","lat":40.95277355340007,"lng":80.13250655143285,"avgVisitMinutes":33,"estimatedCostEur":17,"score":2.052644275696191},{"id":"aykol_8669","citySlug":"aykol","name":"Teatro Municipal","category":"cultura","lat":40.95332422660012,"lng":80.1386299796343,"avgVisitMinutes":52,"estimatedCostEur":9,"score":1.7264988366494505},{"id":"aykol_8934","citySlug":"aykol","name":"Museo Local de Aykol","category":"historia","lat":40.952192993816645,"lng":80.14263403241111,"avgVisitMinutes":35,"estimatedCostEur":8,"score":0.6922039604638095},{"id":"aykol_5613","citySlug":"aykol","name":"Restaurante Típico de Aykol","category":"gastronomia","lat":40.95916997891681,"lng":80.13329093558701,"avgVisitMinutes":76,"estimatedCostEur":7,"score":4.866886934517418},{"id":"aykol_8334","citySlug":"aykol","name":"Parque Central","category":"ocio","lat":40.963399298833195,"lng":80.1354947750758,"avgVisitMinutes":71,"estimatedCostEur":25,"score":1.9307274726518169},{"id":"aykol_9552","citySlug":"aykol","name":"Museo Local de Aykol","category":"historia","lat":40.96055537417001,"lng":80.14328833844978,"avgVisitMinutes":24,"estimatedCostEur":10,"score":4.463313886893248},{"id":"aykol_4503","citySlug":"aykol","name":"Playa Sur","category":"playa","lat":40.96602256010983,"lng":80.13833238512669,"avgVisitMinutes":28,"estimatedCostEur":22,"score":4.611804409573859},{"id":"aqsu_1136","citySlug":"aqsu","name":"Mirador de Aqsu","category":"mirador","lat":41.185712136535926,"lng":80.27412505439119,"avgVisitMinutes":69,"estimatedCostEur":2,"score":4.026015705786473},{"id":"aqsu_5525","citySlug":"aqsu","name":"Zona Comercial","category":"ocio","lat":41.18956361469646,"lng":80.27047151511837,"avgVisitMinutes":48,"estimatedCostEur":16,"score":1.4852495382773432},{"id":"aqsu_6261","citySlug":"aqsu","name":"Punto Panorámico","category":"mirador","lat":41.18282288891953,"lng":80.27656769439277,"avgVisitMinutes":63,"estimatedCostEur":14,"score":1.165000075664274},{"id":"aqsu_1872","citySlug":"aqsu","name":"Galería de Arte","category":"cultura","lat":41.187906899219925,"lng":80.27026490522925,"avgVisitMinutes":65,"estimatedCostEur":8,"score":4.431506919782931},{"id":"aqsu_5599","citySlug":"aqsu","name":"Vista Alta de Aqsu","category":"mirador","lat":41.183414084823866,"lng":80.28501497092881,"avgVisitMinutes":65,"estimatedCostEur":14,"score":3.415348580965033},{"id":"aqsu_5334","citySlug":"aqsu","name":"Playa Central","category":"playa","lat":41.18950295079919,"lng":80.27792846968346,"avgVisitMinutes":71,"estimatedCostEur":6,"score":4.424226448810112},{"id":"aqsu_4668","citySlug":"aqsu","name":"Playa Norte","category":"playa","lat":41.19058059241739,"lng":80.28560278373384,"avgVisitMinutes":74,"estimatedCostEur":6,"score":3.2224891624563696},{"id":"aqsu_9440","citySlug":"aqsu","name":"Parque Central","category":"ocio","lat":41.17774495206428,"lng":80.27416614365949,"avgVisitMinutes":39,"estimatedCostEur":12,"score":4.623044100167887},{"id":"aqsu_5872","citySlug":"aqsu","name":"Museo Local de Aqsu","category":"historia","lat":41.18356364100164,"lng":80.27153928697955,"avgVisitMinutes":33,"estimatedCostEur":19,"score":4.0166051422758695},{"id":"aqsu_9993","citySlug":"aqsu","name":"Mirador de Aqsu","category":"mirador","lat":41.18114053316309,"lng":80.28920754040176,"avgVisitMinutes":65,"estimatedCostEur":13,"score":4.429972658707204},{"id":"aqsu_4507","citySlug":"aqsu","name":"Zona Comercial","category":"ocio","lat":41.186163902028916,"lng":80.27579288572272,"avgVisitMinutes":36,"estimatedCostEur":20,"score":3.4201392448698735},