{"country":"CO","pois":[{"id":"zipaquira_9623","citySlug":"zipaquira","name":"Mercado Gastronómico","category":"gastronomia","lat":5.027680928285665,"lng":-74.00640473807861,"avgVisitMinutes":43,"estimatedCostEur":14,"score":0.7146919248640827},{"id":"zipaquira_2673","citySlug":"zipaquira","name":"Mirador de Zipaquirá","category":"mirador","lat":5.027687801241437,"lng":-74.00379247055784,"avgVisitMinutes":25,"estimatedCostEur":22,"score":0.5810039910768976},{"id":"zipaquira_7533","citySlug":"zipaquira","name":"Ruta de Tapas","category":"gastronomia","lat":5.02955063024044,"lng":-74.00953089334415,"avgVisitMinutes":21,"estimatedCostEur":12,"score":2.134986426463676},{"id":"zipaquira_4213","citySlug":"zipaquira","name":"Punto Panorámico","category":"mirador","lat":5.029183797044193,"lng":-74.01085884798128,"avgVisitMinutes":33,"estimatedCostEur":3,"score":1.4705662141965692},{"id":"zipaquira_5500","citySlug":"zipaquira","name":"Galería de Arte","category":"cultura","lat":5.031263735166655,"lng":-74.00716694180986,"avgVisitMinutes":28,"estimatedCostEur":13,"score":0.6573018173495212},{"id":"zipacon_3240","citySlug":"zipacon","name":"Restaurante Típico de Zipacón","category":"gastronomia","lat":4.752910632444561,"lng":-74.37325241637397,"avgVisitMinutes":66,"estimatedCostEur":6,"score":2.7904426701409095},{"id":"zipacon_1733","citySlug":"zipacon","name":"Paseo Principal","category":"ocio","lat":4.760884240997801,"lng":-74.37591010504543,"avgVisitMinutes":87,"estimatedCostEur":9,"score":0.6894348848559867},{"id":"zipacon_5575","citySlug":"zipacon","name":"Zona Comercial","category":"ocio","lat":4.759856697909024,"lng":-74.38400446496122,"avgVisitMinutes":62,"estimatedCostEur":25,"score":1.290525113142364},{"id":"zipacon_8822","citySlug":"zipacon","name":"Playa Central","category":"playa","lat":4.749610437769544,"lng":-74.37762551121126,"avgVisitMinutes":58,"estimatedCostEur":10,"score":4.639445188796041},{"id":"zipacon_2557","citySlug":"zipacon","name":"Mirador de Zipacón","category":"mirador","lat":4.756087301175723,"lng":-74.38801982919497,"avgVisitMinutes":72,"estimatedCostEur":10,"score":1.4800232579845525},{"id":"zetaquira_3321","citySlug":"zetaquira","name":"Museo Cultural de Zetaquira","category":"cultura","lat":5.289232351276038,"lng":-73.16235596149919,"avgVisitMinutes":32,"estimatedCostEur":19,"score":2.6057864230279764},{"id":"zetaquira_8589","citySlug":"zetaquira","name":"Parque Central","category":"ocio","lat":5.285674028182618,"lng":-73.16982548718197,"avgVisitMinutes":85,"estimatedCostEur":13,"score":3.2236405428839885},{"id":"zetaquira_6593","citySlug":"zetaquira","name":"Museo Cultural de Zetaquira","category":"cultura","lat":5.286300653762444,"lng":-73.16598517562876,"avgVisitMinutes":78,"estimatedCostEur":23,"score":0.9230396546823227},{"id":"zetaquira_7770","citySlug":"zetaquira","name":"Mirador de Zetaquira","category":"mirador","lat":5.2849294421434925,"lng":-73.17570952271828,"avgVisitMinutes":87,"estimatedCostEur":8,"score":1.503357590831951},{"id":"zetaquira_4381","citySlug":"zetaquira","name":"Parque Central","category":"ocio","lat":5.2797434642983685,"lng":-73.1710044161599,"avgVisitMinutes":74,"estimatedCostEur":22,"score":4.369685781628606},{"id":"zetaquira_7802","citySlug":"zetaquira","name":"Iglesia de Zetaquira","category":"historia","lat":5.285703337739672,"lng":-73.16375993776884,"avgVisitMinutes":71,"estimatedCostEur":22,"score":2.1378510587967776},{"id":"zetaquira_9730","citySlug":"zetaquira","name":"Centro Histórico","category":"historia","lat":5.287417868679113,"lng":-73.16476784749624,"avgVisitMinutes":73,"estimatedCostEur":17,"score":1.3535789084756646},{"id":"zetaquira_9315","citySlug":"zetaquira","name":"Ruta de Tapas","category":"gastronomia","lat":5.285298273856216,"lng":-73.16046224551447,"avgVisitMinutes":61,"estimatedCostEur":14,"score":3.8608951854461027},{"id":"zetaquira_6250","citySlug":"zetaquira","name":"Vista Alta de Zetaquira","category":"mirador","lat":5.2771929795450365,"lng":-73.17418221717558,"avgVisitMinutes":78,"estimatedCostEur":8,"score":3.1119431643266413},{"id":"zetaquira_2867","citySlug":"zetaquira","name":"Zona Comercial","category":"ocio","lat":5.281277708054729,"lng":-73.16673141221078,"avgVisitMinutes":27,"estimatedCostEur":5,"score":4.14285110763648},{"id":"zarzal_7214","citySlug":"zarzal","name":"Ruta de Tapas","category":"gastronomia","lat":4.400935172832913,"lng":-76.07505286284933,"avgVisitMinutes":40,"estimatedCostEur":2,"score":1.1591025532251016},{"id":"zarzal_8730","citySlug":"zarzal","name":"Centro Histórico","category":"historia","lat":4.395295767682327,"lng":-76.07124749549436,"avgVisitMinutes":80,"estimatedCostEur":16,"score":2.466466968161693},{"id":"zarzal_3608","citySlug":"zarzal","name":"Centro de Arte de Zarzal","category":"cultura","lat":4.398770882285585,"lng":-76.07102671541836,"avgVisitMinutes":42,"estimatedCostEur":0,"score":2.388431233442202},{"id":"zarzal_6402","citySlug":"zarzal","name":"Restaurante Típico de Zarzal","category":"gastronomia","lat":4.385692987132326,"lng":-76.0720535143283,"avgVisitMinutes":76,"estimatedCostEur":0,"score":1.2921275407055783},{"id":"zarzal_8196","citySlug":"zarzal","name":"Galería de Arte","category":"cultura","lat":4.386700773261179,"lng":-76.07972326209769,"avgVisitMinutes":73,"estimatedCostEur":0,"score":1.0742610429672657},{"id":"zarzal_3325","citySlug":"zarzal","name":"Playa Norte","category":"playa","lat":4.390212660880066,"lng":-76.069552141705,"avgVisitMinutes":67,"estimatedCostEur":19,"score":0.5123899853636427},{"id":"zaragoza_4094","citySlug":"zaragoza","name":"Playa Central","category":"playa","lat":7.483748563926175,"lng":-74.87796034395761,"avgVisitMinutes":36,"estimatedCostEur":11,"score":3.461001455802417},{"id":"zaragoza_4595","citySlug":"zaragoza","name":"Galería de Arte","category":"cultura","lat":7.498553298208173,"lng":-74.87370287448871,"avgVisitMinutes":54,"estimatedCostEur":19,"score":1.3290362963685265},{"id":"zaragoza_1872","citySlug":"zaragoza","name":"Mirador de Zaragoza","category":"mirador","lat":7.495086638188906,"lng":-74.86992093587877,"avgVisitMinutes":60,"estimatedCostEur":0,"score":1.8683710497315829},{"id":"zaragoza_7964","citySlug":"zaragoza","name":"Mercado Gastronómico","category":"gastronomia","lat":7.483536118261918,"lng":-74.87446449116409,"avgVisitMinutes":35,"estimatedCostEur":17,"score":4.554994591622375},{"id":"zaragoza_6962","citySlug":"zaragoza","name":"Punto Panorámico","category":"mirador","lat":7.4895026578776065,"lng":-74.86464687011414,"avgVisitMinutes":65,"estimatedCostEur":20,"score":0.5791442576646333},{"id":"zaragoza_8103","citySlug":"zaragoza","name":"Playa Central","category":"playa","lat":7.484457139942673,"lng":-74.8630271653989,"avgVisitMinutes":36,"estimatedCostEur":19,"score":2.4934271093573095},{"id":"zaragoza_4241","citySlug":"zaragoza","name":"Playa Sur","category":"playa","lat":7.496055208010252,"lng":-74.86482570360216,"avgVisitMinutes":60,"estimatedCostEur":18,"score":2.1153909601670113},{"id":"zapatoca_2138","citySlug":"zapatoca","name":"Centro de Arte de Zapatoca","category":"cultura","lat":6.810684169482618,"lng":-73.26283837140866,"avgVisitMinutes":59,"estimatedCostEur":19,"score":1.4903367063936954},{"id":"zapatoca_1346","citySlug":"zapatoca","name":"Museo Cultural de Zapatoca","category":"cultura","lat":6.82087507102056,"lng":-73.26451731535143,"avgVisitMinutes":41,"estimatedCostEur":25,"score":1.6129395837069884},{"id":"zapatoca_1763","citySlug":"zapatoca","name":"Mirador de Zapatoca","category":"mirador","lat":6.817728342431097,"lng":-73.26257418218394,"avgVisitMinutes":54,"estimatedCostEur":22,"score":1.993800935338573},{"id":"zapatoca_6766","citySlug":"zapatoca","name":"Castillo de Zapatoca","category":"historia","lat":6.822766510200504,"lng":-73.2750535614361,"avgVisitMinutes":58,"estimatedCostEur":20,"score":4.6674263742524165},{"id":"zapatoca_8774","citySlug":"zapatoca","name":"Castillo de Zapatoca","category":"historia","lat":6.808175864774901,"lng":-73.26834398352806,"avgVisitMinutes":75,"estimatedCostEur":7,"score":4.299625909589287},{"id":"zambrano_1029","citySlug":"zambrano","name":"Mirador de Zambrano","category":"mirador","lat":9.743742510299784,"lng":-74.82014306603716,"avgVisitMinutes":31,"estimatedCostEur":23,"score":4.435012056391353},{"id":"zambrano_5587","citySlug":"zambrano","name":"Vista Alta de Zambrano","category":"mirador","lat":9.75422572013668,"lng":-74.81860766586604,"avgVisitMinutes":39,"estimatedCostEur":11,"score":1.062027444175899},{"id":"zambrano_6213","citySlug":"zambrano","name":"Centro Histórico","category":"historia","lat":9.75615141227977,"lng":-74.81495606817329,"avgVisitMinutes":68,"estimatedCostEur":17,"score":3.913194952197241},{"id":"zambrano_2396","citySlug":"zambrano","name":"Mirador de Zambrano","category":"mirador","lat":9.744457601455249,"lng":-74.82451063520278,"avgVisitMinutes":35,"estimatedCostEur":21,"score":2.5675758003054545},{"id":"zambrano_3461","citySlug":"zambrano","name":"Murallas de Zambrano","category":"historia","lat":9.74493790834629,"lng":-74.82344955778963,"avgVisitMinutes":31,"estimatedCostEur":4,"score":3.91841545211567},{"id":"yumbo_5136","citySlug":"yumbo","name":"Murallas de Yumbo","category":"historia","lat":3.5859634082312435,"lng":-76.4922401220483,"avgVisitMinutes":28,"estimatedCostEur":14,"score":4.003884724020307},{"id":"yumbo_6393","citySlug":"yumbo","name":"Punto Panorámico","category":"mirador","lat":3.5769888501655043,"lng":-76.49568876764549,"avgVisitMinutes":54,"estimatedCostEur":21,"score":0.5138954045986002},{"id":"yumbo_5016","citySlug":"yumbo","name":"Paseo Principal","category":"ocio","lat":3.5743116752784463,"lng":-76.4976608538721,"avgVisitMinutes":48,"estimatedCostEur":7,"score":2.9279131650995263},{"id":"yumbo_6413","citySlug":"yumbo","name":"Castillo de Yumbo","category":"historia","lat":3.5853234183987315,"lng":-76.49736187143988,"avgVisitMinutes":85,"estimatedCostEur":0,"score":3.814025273532531},{"id":"yumbo_9227","citySlug":"yumbo","name":"Punto Panorámico","category":"mirador","lat":3.5819956506295707,"lng":-76.49303735563878,"avgVisitMinutes":34,"estimatedCostEur":19,"score":4.660575384760027},{"id":"yumbo_2619","citySlug":"yumbo","name":"Paseo Principal","category":"ocio","lat":3.5844732165892315,"lng":-76.49400462564113,"avgVisitMinutes":71,"estimatedCostEur":25,"score":2.826903714853309},{"id":"yumbo_1838","citySlug":"yumbo","name":"Paseo Principal","category":"ocio","lat":3.5730656011871513,"lng":-76.49363079641192,"avgVisitMinutes":42,"estimatedCostEur":6,"score":1.093646488230724},{"id":"yumbo_7067","citySlug":"yumbo","name":"Galería de Arte","category":"cultura","lat":3.5874427629718317,"lng":-76.49950866094163,"avgVisitMinutes":41,"estimatedCostEur":6,"score":2.0583720145640765},{"id":"yumbo_7281","citySlug":"yumbo","name":"Playa Central","category":"playa","lat":3.586594349128562,"lng":-76.4965162814388,"avgVisitMinutes":71,"estimatedCostEur":19,"score":1.4807525113253723},{"id":"yotoco_4379","citySlug":"yotoco","name":"Playa Central","category":"playa","lat":3.8691945960605425,"lng":-76.37854705819778,"avgVisitMinutes":27,"estimatedCostEur":21,"score":1.3220033176609585},{"id":"yotoco_6201","citySlug":"yotoco","name":"Galería de Arte","category":"cultura","lat":3.8519711592389076,"lng":-76.37591556145381,"avgVisitMinutes":63,"estimatedCostEur":15,"score":0.9227320867077358},{"id":"yotoco_5738","citySlug":"yotoco","name":"Murallas de Yotoco","category":"historia","lat":3.8660222579052763,"lng":-76.38908125696979,"avgVisitMinutes":40,"estimatedCostEur":22,"score":2.5140914575727877},{"id":"yotoco_7140","citySlug":"yotoco","name":"Paseo Principal","category":"ocio","lat":3.8508979769677096,"lng":-76.37699479714033,"avgVisitMinutes":78,"estimatedCostEur":13,"score":1.4048748288502668},{"id":"yotoco_1808","citySlug":"yotoco","name":"Centro de Arte de Yotoco","category":"cultura","lat":3.8583773611675416,"lng":-76.37861328395624,"avgVisitMinutes":84,"estimatedCostEur":3,"score":1.3828607551724499},{"id":"yotoco_5050","citySlug":"yotoco","name":"Zona Comercial","category":"ocio","lat":3.8637831763762325,"lng":-76.38852803800755,"avgVisitMinutes":55,"estimatedCostEur":21,"score":2.848250213212275},{"id":"yotoco_5676","citySlug":"yotoco","name":"Ruta de Tapas","category":"gastronomia","lat":3.852110113647415,"lng":-76.39270199573855,"avgVisitMinutes":85,"estimatedCostEur":1,"score":1.524791376740552},{"id":"yotoco_8150","citySlug":"yotoco","name":"Iglesia de Yotoco","category":"historia","lat":3.8561714529536713,"lng":-76.37588323297453,"avgVisitMinutes":64,"estimatedCostEur":5,"score":3.701789619252867},{"id":"yotoco_2889","citySlug":"yotoco","name":"Playa Norte","category":"playa","lat":3.8639384242586425,"lng":-76.38936952395044,"avgVisitMinutes":27,"estimatedCostEur":14,"score":1.6358294881148268},{"id":"yotoco_8176","citySlug":"yotoco","name":"Restaurante Típico de Yotoco","category":"gastronomia","lat":3.86392431226131,"lng":-76.38197384653007,"avgVisitMinutes":46,"estimatedCostEur":1,"score":2.6520659992300586},{"id":"yotoco_4613","citySlug":"yotoco","name":"Punto Panorámico","category":"mirador","lat":3.853731373932087,"lng":-76.38135632862117,"avgVisitMinutes":62,"estimatedCostEur":21,"score":4.320391489032997},{"id":"yotoco_4619","citySlug":"yotoco","name":"Punto Panorámico","category":"mirador","lat":3.8625163994525082,"lng":-76.3883515756256,"avgVisitMinutes":25,"estimatedCostEur":5,"score":4.309962307491904},{"id":"yopal_5739","citySlug":"yopal","name":"Centro de Arte de Yopal","category":"cultura","lat":5.34150423620369,"lng":-72.3958963314768,"avgVisitMinutes":30,"estimatedCostEur":7,"score":0.9433193307623098},{"id":"yopal_4104","citySlug":"yopal","name":"Galería de Arte","category":"cultura","lat":5.3291518341936825,"lng":-72.4009170149372,"avgVisitMinutes":21,"estimatedCostEur":15,"score":3.5673598394809156},{"id":"yopal_1703","citySlug":"yopal","name":"Mirador de Yopal","category":"mirador","lat":5.342239308809976,"lng":-72.4030213244974,"avgVisitMinutes":39,"estimatedCostEur":14,"score":0.5420380331241954},{"id":"yopal_2064","citySlug":"yopal","name":"Vista Alta de Yopal","category":"mirador","lat":5.341711311665485,"lng":-72.39016357277924,"avgVisitMinutes":83,"estimatedCostEur":13,"score":1.6723870591911518},{"id":"yopal_3708","citySlug":"yopal","name":"Mirador de Yopal","category":"mirador","lat":5.343595769813706,"lng":-72.39171806615498,"avgVisitMinutes":52,"estimatedCostEur":6,"score":4.466511062838599},{"id":"yopal_9389","citySlug":"yopal","name":"Iglesia de Yopal","category":"historia","lat":5.33664809350921,"lng":-72.39404384275062,"avgVisitMinutes":80,"estimatedCostEur":3,"score":1.8346614816008855},{"id":"yopal_7751","citySlug":"yopal","name":"Playa Sur","category":"playa","lat":5.344845116938453,"lng":-72.39423114125601,"avgVisitMinutes":47,"estimatedCostEur":6,"score":3.8565014228714722},{"id":"yopal_3866","citySlug":"yopal","name":"Teatro Municipal","category":"cultura","lat":5.326995584066102,"lng":-72.38979998424912,"avgVisitMinutes":81,"estimatedCostEur":2,"score":0.6594576026292746},{"id":"yondo_1240","citySlug":"yondo","name":"Museo Local de Yondó","category":"historia","lat":6.9997055954281295,"lng":-73.90194867987123,"avgVisitMinutes":79,"estimatedCostEur":11,"score":4.559092124161178},{"id":"yondo_5648","citySlug":"yondo","name":"Mercado Gastronómico","category":"gastronomia","lat":7.012608914269937,"lng":-73.91766943687473,"avgVisitMinutes":35,"estimatedCostEur":3,"score":1.8132546308449657},{"id":"yondo_6446","citySlug":"yondo","name":"Mercado Gastronómico","category":"gastronomia","lat":6.998836999312501,"lng":-73.90035893249429,"avgVisitMinutes":59,"estimatedCostEur":18,"score":2.6254845571125234},{"id":"yondo_4665","citySlug":"yondo","name":"Teatro Municipal","category":"cultura","lat":7.012817097560566,"lng":-73.91136874993643,"avgVisitMinutes":43,"estimatedCostEur":10,"score":4.683949307201655},{"id":"yondo_2604","citySlug":"yondo","name":"Restaurante Típico de Yondó","category":"gastronomia","lat":6.998279905947558,"lng":-73.91341721484481,"avgVisitMinutes":85,"estimatedCostEur":4,"score":4.438631455266089},{"id":"yondo_4840","citySlug":"yondo","name":"Iglesia de Yondó","category":"historia","lat":7.007739154440609,"lng":-73.90214029517112,"avgVisitMinutes":31,"estimatedCostEur":16,"score":4.207079258084947},{"id":"yondo_6868","citySlug":"yondo","name":"Restaurante Típico de Yondó","category":"gastronomia","lat":7.013028929043497,"lng":-73.91197350193353,"avgVisitMinutes":78,"estimatedCostEur":19,"score":2.176948375776405},{"id":"yondo_4912","citySlug":"yondo","name":"Iglesia de Yondó","category":"historia","lat":6.998095935484565,"lng":-73.90907850017184,"avgVisitMinutes":68,"estimatedCostEur":18,"score":2.6713584553622303},{"id":"yondo_8257","citySlug":"yondo","name":"Vista Alta de Yondó","category":"mirador","lat":7.00247340900302,"lng":-73.9101130543725,"avgVisitMinutes":59,"estimatedCostEur":0,"score":1.2780669505286029},{"id":"yolombo_3561","citySlug":"yolombo","name":"Ruta de Tapas","category":"gastronomia","lat":6.589298208137991,"lng":-75.00377208645311,"avgVisitMinutes":26,"estimatedCostEur":8,"score":2.9882452796575163},{"id":"yolombo_2221","citySlug":"yolombo","name":"Parque Central","category":"ocio","lat":6.605640334675759,"lng":-75.00147755455701,"avgVisitMinutes":61,"estimatedCostEur":12,"score":1.4797363149056895},{"id":"yolombo_4915","citySlug":"yolombo","name":"Restaurante Típico de Yolombó","category":"gastronomia","lat":6.595604339209735,"lng":-75.0077856781039,"avgVisitMinutes":33,"estimatedCostEur":23,"score":1.8639930087408842},{"id":"yolombo_1760","citySlug":"yolombo","name":"Teatro Municipal","category":"cultura","lat":6.590121764085324,"lng":-75.01533806358233,"avgVisitMinutes":55,"estimatedCostEur":22,"score":3.9642783035849516},{"id":"yolombo_7668","citySlug":"yolombo","name":"Restaurante Típico de Yolombó","category":"gastronomia","lat":6.592327225868486,"lng":-75.01671656546299,"avgVisitMinutes":52,"estimatedCostEur":3,"score":4.033053336595735},{"id":"yolombo_9991","citySlug":"yolombo","name":"Zona Comercial","category":"ocio","lat":6.59798435147288,"lng":-75.01360410057109,"avgVisitMinutes":40,"estimatedCostEur":22,"score":2.2915290264394015},{"id":"yolombo_5402","citySlug":"yolombo","name":"Vista Alta de Yolombó","category":"mirador","lat":6.601008415500225,"lng":-75.01273330989663,"avgVisitMinutes":45,"estimatedCostEur":6,"score":0.898353757493046},{"id":"yolombo_7685","citySlug":"yolombo","name":"Playa Sur","category":"playa","lat":6.593992414311416,"lng":-75.02026305165096,"avgVisitMinutes":78,"estimatedCostEur":5,"score":3.397784742536889},{"id":"yolombo_1229","citySlug":"yolombo","name":"Vista Alta de Yolombó","category":"mirador","lat":6.607386798012787,"lng":-75.00374191611068,"avgVisitMinutes":79,"estimatedCostEur":7,"score":2.613575530506918},{"id":"yarumal_7144","citySlug":"yarumal","name":"Galería de Arte","category":"cultura","lat":6.957374037485456,"lng":-75.40788715608538,"avgVisitMinutes":78,"estimatedCostEur":7,"score":3.9620940223464176},{"id":"yarumal_4126","citySlug":"yarumal","name":"Playa Sur","category":"playa","lat":6.963281259046972,"lng":-75.40839818247447,"avgVisitMinutes":71,"estimatedCostEur":22,"score":0.5380456163996178},{"id":"yarumal_9779","citySlug":"yarumal","name":"Castillo de Yarumal","category":"historia","lat":6.959703460015918,"lng":-75.42180690837742,"avgVisitMinutes":47,"estimatedCostEur":7,"score":0.5821258216967495},{"id":"yarumal_5005","citySlug":"yarumal","name":"Playa Central","category":"playa","lat":6.968926355497534,"lng":-75.42030252722824,"avgVisitMinutes":35,"estimatedCostEur":25,"score":2.675705082396529},{"id":"yarumal_4819","citySlug":"yarumal","name":"Iglesia de Yarumal","category":"historia","lat":6.953883111645157,"lng":-75.41503499089804,"avgVisitMinutes":61,"estimatedCostEur":16,"score":1.2753386398734576},{"id":"yarumal_6339","citySlug":"yarumal","name":"Mercado Gastronómico","category":"gastronomia","lat":6.955383489884239,"lng":-75.4085562410121,"avgVisitMinutes":76,"estimatedCostEur":9,"score":4.917967620538868},{"id":"yali_4179","citySlug":"yali","name":"Mercado Gastronómico","category":"gastronomia","lat":6.677896493898756,"lng":-74.82908071446279,"avgVisitMinutes":75,"estimatedCostEur":7,"score":1.1443517660797107},{"id":"yali_9652","citySlug":"yali","name":"Playa Central","category":"playa","lat":6.683233453514675,"lng":-74.82718518244307,"avgVisitMinutes":45,"estimatedCostEur":22,"score":1.8966764110197978},{"id":"yali_6708","citySlug":"yali","name":"Murallas de Yalí","category":"historia","lat":6.677969370674895,"lng":-74.82931769290063,"avgVisitMinutes":37,"estimatedCostEur":9,"score":3.317749304755595},{"id":"yali_1874","citySlug":"yali","name":"Castillo de Yalí","category":"historia","lat":6.6653995506703865,"lng":-74.83646167866243,"avgVisitMinutes":77,"estimatedCostEur":1,"score":0.7614702027159759},{"id":"yali_1977","citySlug":"yali","name":"Centro de Arte de Yalí","category":"cultura","lat":6.676472189735606,"lng":-74.83711514490228,"avgVisitMinutes":22,"estimatedCostEur":6,"score":3.206604119710218},{"id":"yali_4188","citySlug":"yali","name":"Centro Histórico","category":"historia","lat":6.6756285621670255,"lng":-74.8397415341759,"avgVisitMinutes":63,"estimatedCostEur":11,"score":2.1565792149238456},{"id":"yali_8871","citySlug":"yali","name":"Parque Central","category":"ocio","lat":6.672654851459708,"lng":-74.83854195076556,"avgVisitMinutes":59,"estimatedCostEur":14,"score":2.792022721863939},{"id":"yali_7409","citySlug":"yali","name":"Punto Panorámico","category":"mirador","lat":6.678127292848696,"lng":-74.82735340209811,"avgVisitMinutes":75,"estimatedCostEur":3,"score":2.97025136164181},{"id":"yali_9208","citySlug":"yali","name":"Ruta de Tapas","category":"gastronomia","lat":6.682846345919101,"lng":-74.830578632003,"avgVisitMinutes":83,"estimatedCostEur":10,"score":0.8215037722680802},{"id":"yali_5969","citySlug":"yali","name":"Mirador de Yalí","category":"mirador","lat":6.674768238911166,"lng":-74.83112730456212,"avgVisitMinutes":68,"estimatedCostEur":17,"score":1.2916572412669476},{"id":"yali_9774","citySlug":"yali","name":"Teatro Municipal","category":"cultura","lat":6.666219577176732,"lng":-74.84347263930545,"avgVisitMinutes":57,"estimatedCostEur":21,"score":4.189936812644476},{"id":"yaguara_5462","citySlug":"yaguara","name":"Museo Local de Yaguará","category":"historia","lat":2.670797085111921,"lng":-75.5177060637829,"avgVisitMinutes":65,"estimatedCostEur":13,"score":3.45390915309306},{"id":"yaguara_9265","citySlug":"yaguara","name":"Galería de Arte","category":"cultura","lat":2.6731181240234942,"lng":-75.5117232188123,"avgVisitMinutes":38,"estimatedCostEur":25,"score":0.8065050866065605},{"id":"yaguara_5964","citySlug":"yaguara","name":"Galería de Arte","category":"cultura","lat":2.6628056215066844,"lng":-75.51860546723096,"avgVisitMinutes":42,"estimatedCostEur":19,"score":2.679909950142001},{"id":"yaguara_5550","citySlug":"yaguara","name":"Playa Central","category":"playa","lat":2.6709947057773715,"lng":-75.51054209192698,"avgVisitMinutes":50,"estimatedCostEur":7,"score":3.3653225455395805},{"id":"yaguara_3607","citySlug":"yaguara","name":"Restaurante Típico de Yaguará","category":"gastronomia","lat":2.657122851244699,"lng":-75.52167370383158,"avgVisitMinutes":85,"estimatedCostEur":14,"score":2.7111763280240555},{"id":"yaguara_1274","citySlug":"yaguara","name":"Zona Comercial","category":"ocio","lat":2.6654952374727987,"lng":-75.5104948849955,"avgVisitMinutes":40,"estimatedCostEur":1,"score":1.229787639627363},{"id":"yaguara_7691","citySlug":"yaguara","name":"Galería de Arte","category":"cultura","lat":2.6680398232171174,"lng":-75.50809727880534,"avgVisitMinutes":49,"estimatedCostEur":0,"score":4.796356606158226},{"id":"yaguara_7093","citySlug":"yaguara","name":"Museo Cultural de Yaguará","category":"cultura","lat":2.6693315681246528,"lng":-75.51796388916995,"avgVisitMinutes":84,"estimatedCostEur":25,"score":0.8082402759382827},{"id":"yaguara_3470","citySlug":"yaguara","name":"Paseo Principal","category":"ocio","lat":2.6576157664945765,"lng":-75.51805990456566,"avgVisitMinutes":89,"estimatedCostEur":19,"score":4.237273391200168},{"id":"yacuanquer_6004","citySlug":"yacuanquer","name":"Playa Norte","category":"playa","lat":1.11229951199859,"lng":-77.40180105293355,"avgVisitMinutes":33,"estimatedCostEur":14,"score":1.726507312352395},{"id":"yacuanquer_4486","citySlug":"yacuanquer","name":"Playa Sur","category":"playa","lat":1.1099637658294035,"lng":-77.39815471753845,"avgVisitMinutes":77,"estimatedCostEur":22,"score":4.0042867084821765},{"id":"yacuanquer_9415","citySlug":"yacuanquer","name":"Murallas de Yacuanquer","category":"historia","lat":1.121382522379802,"lng":-77.40540644582074,"avgVisitMinutes":39,"estimatedCostEur":15,"score":1.8023596818722867},{"id":"yacuanquer_2375","citySlug":"yacuanquer","name":"Vista Alta de Yacuanquer","category":"mirador","lat":1.1114687923932627,"lng":-77.4069518582288,"avgVisitMinutes":75,"estimatedCostEur":6,"score":2.0086275961717788},{"id":"yacuanquer_4676","citySlug":"yacuanquer","name":"Playa Central","category":"playa","lat":1.1225968880417274,"lng":-77.40225807670585,"avgVisitMinutes":36,"estimatedCostEur":20,"score":4.489989189731921},{"id":"yacuanquer_2398","citySlug":"yacuanquer","name":"Museo Local de Yacuanquer","category":"historia","lat":1.1240132022306044,"lng":-77.40773290439789,"avgVisitMinutes":67,"estimatedCostEur":12,"score":4.5814482061073605},{"id":"yacuanquer_5246","citySlug":"yacuanquer","name":"Murallas de Yacuanquer","category":"historia","lat":1.1067942417417729,"lng":-77.4007968897387,"avgVisitMinutes":89,"estimatedCostEur":3,"score":3.918620432550848},{"id":"yacuanquer_9062","citySlug":"yacuanquer","name":"Restaurante Típico de Yacuanquer","category":"gastronomia","lat":1.1171538524646982,"lng":-77.40335434936766,"avgVisitMinutes":22,"estimatedCostEur":4,"score":2.9529073801859513},{"id":"yacuanquer_7525","citySlug":"yacuanquer","name":"Ruta de Tapas","category":"gastronomia","lat":1.1081779252382773,"lng":-77.39647783916638,"avgVisitMinutes":52,"estimatedCostEur":0,"score":3.9663371391333766},{"id":"yacuanquer_2330","citySlug":"yacuanquer","name":"Punto Panorámico","category":"mirador","lat":1.1127193367145793,"lng":-77.3969375616109,"avgVisitMinutes":37,"estimatedCostEur":15,"score":3.20998927009647},{"id":"yacuanquer_4924","citySlug":"yacuanquer","name":"Castillo de Yacuanquer","category":"historia","lat":1.1075306384805845,"lng":-77.41045724997556,"avgVisitMinutes":69,"estimatedCostEur":10,"score":4.796058974260444},{"id":"yacopi_2637","citySlug":"yacopi","name":"Murallas de Yacopí","category":"historia","lat":5.458570763828416,"lng":-74.32838590995813,"avgVisitMinutes":60,"estimatedCostEur":24,"score":3.1939987344025886},{"id":"yacopi_9697","citySlug":"yacopi","name":"Centro Histórico","category":"historia","lat":5.464011558827068,"lng":-74.33283228160629,"avgVisitMinutes":45,"estimatedCostEur":5,"score":3.9725141564488657},{"id":"yacopi_1860","citySlug":"yacopi","name":"Paseo Principal","category":"ocio","lat":5.467666354407666,"lng":-74.34156519912577,"avgVisitMinutes":81,"estimatedCostEur":2,"score":0.5810803991717043},{"id":"yacopi_1799","citySlug":"yacopi","name":"Playa Central","category":"playa","lat":5.4666782020893425,"lng":-74.34295686710915,"avgVisitMinutes":63,"estimatedCostEur":4,"score":1.248074730344202},{"id":"yacopi_9900","citySlug":"yacopi","name":"Playa Norte","category":"playa","lat":5.460094404677814,"lng":-74.33702943283528,"avgVisitMinutes":67,"estimatedCostEur":17,"score":4.177004636002469},{"id":"yacopi_2339","citySlug":"yacopi","name":"Galería de Arte","category":"cultura","lat":5.4497591026795655,"lng":-74.3345064699517,"avgVisitMinutes":20,"estimatedCostEur":15,"score":4.1624383350918785},{"id":"yacopi_3566","citySlug":"yacopi","name":"Museo Local de Yacopí","category":"historia","lat":5.450487797065799,"lng":-74.33838001725825,"avgVisitMinutes":67,"estimatedCostEur":16,"score":4.941684054755599},{"id":"yacopi_7913","citySlug":"yacopi","name":"Playa Sur","category":"playa","lat":5.461146382331207,"lng":-74.34736703060388,"avgVisitMinutes":22,"estimatedCostEur":13,"score":3.715424120404216},{"id":"yacopi_2186","citySlug":"yacopi","name":"Playa Sur","category":"playa","lat":5.455705542065241,"lng":-74.33720107272985,"avgVisitMinutes":63,"estimatedCostEur":5,"score":3.196774137348064},{"id":"yacopi_7730","citySlug":"yacopi","name":"Ruta de Tapas","category":"gastronomia","lat":5.451121288120116,"lng":-74.33483484773487,"avgVisitMinutes":80,"estimatedCostEur":23,"score":3.2619917232479088},{"id":"viterbo_8262","citySlug":"viterbo","name":"Mirador de Viterbo","category":"mirador","lat":5.053917347609966,"lng":-75.87304763707553,"avgVisitMinutes":52,"estimatedCostEur":18,"score":3.5559081048345043},{"id":"viterbo_7010","citySlug":"viterbo","name":"Vista Alta de Viterbo","category":"mirador","lat":5.057596533921502,"lng":-75.86789959721177,"avgVisitMinutes":27,"estimatedCostEur":23,"score":4.2282385594902046},{"id":"viterbo_3512","citySlug":"viterbo","name":"Mercado Gastronómico","category":"gastronomia","lat":5.0616737064785084,"lng":-75.88089713016414,"avgVisitMinutes":57,"estimatedCostEur":9,"score":2.0576001285464702},{"id":"viterbo_2163","citySlug":"viterbo","name":"Centro Histórico","category":"historia","lat":5.062975461123489,"lng":-75.86170752400245,"avgVisitMinutes":82,"estimatedCostEur":14,"score":4.617408115786804},{"id":"viterbo_3285","citySlug":"viterbo","name":"Galería de Arte","category":"cultura","lat":5.069079028321206,"lng":-75.86567283467686,"avgVisitMinutes":44,"estimatedCostEur":22,"score":2.498832912287172},{"id":"viterbo_6813","citySlug":"viterbo","name":"Castillo de Viterbo","category":"historia","lat":5.053859559907735,"lng":-75.87918217274122,"avgVisitMinutes":69,"estimatedCostEur":10,"score":3.265155334170227},{"id":"viterbo_7310","citySlug":"viterbo","name":"Playa Norte","category":"playa","lat":5.065346504607538,"lng":-75.87263239444488,"avgVisitMinutes":60,"estimatedCostEur":22,"score":4.072055490841121},{"id":"viterbo_4729","citySlug":"viterbo","name":"Restaurante Típico de Viterbo","category":"gastronomia","lat":5.068336790771345,"lng":-75.87992033271058,"avgVisitMinutes":74,"estimatedCostEur":16,"score":2.5152839273214087},{"id":"vistahermosa_4277","citySlug":"vistahermosa","name":"Playa Central","category":"playa","lat":3.131112396775238,"lng":-73.76132040532185,"avgVisitMinutes":67,"estimatedCostEur":3,"score":3.761758964663081},{"id":"vistahermosa_5791","citySlug":"vistahermosa","name":"Mercado Gastronómico","category":"gastronomia","lat":3.128094327477366,"lng":-73.76063545545064,"avgVisitMinutes":43,"estimatedCostEur":2,"score":3.9748000174657667},{"id":"vistahermosa_2940","citySlug":"vistahermosa","name":"Parque Central","category":"ocio","lat":3.1155414896658042,"lng":-73.75216047199955,"avgVisitMinutes":22,"estimatedCostEur":20,"score":2.9012198551059822},{"id":"vistahermosa_3102","citySlug":"vistahermosa","name":"Paseo Principal","category":"ocio","lat":3.132758029972445,"lng":-73.75218248366457,"avgVisitMinutes":83,"estimatedCostEur":25,"score":0.7598136870015031},{"id":"vistahermosa_1133","citySlug":"vistahermosa","name":"Mirador de Vistahermosa","category":"mirador","lat":3.120146147024257,"lng":-73.75160612737241,"avgVisitMinutes":69,"estimatedCostEur":0,"score":2.9866574981917973},{"id":"vistahermosa_4659","citySlug":"vistahermosa","name":"Museo Cultural de Vistahermosa","category":"cultura","lat":3.118599702835612,"lng":-73.7459733924674,"avgVisitMinutes":47,"estimatedCostEur":13,"score":0.886986104064656},{"id":"vistahermosa_7680","citySlug":"vistahermosa","name":"Mercado Gastronómico","category":"gastronomia","lat":3.13212465331848,"lng":-73.75568253353438,"avgVisitMinutes":45,"estimatedCostEur":19,"score":3.03567640946814},{"id":"viracacha_7216","citySlug":"viracacha","name":"Mirador de Viracachá","category":"mirador","lat":5.432597630153896,"lng":-73.28760098463697,"avgVisitMinutes":49,"estimatedCostEur":15,"score":1.2193176475589278},{"id":"viracacha_6752","citySlug":"viracacha","name":"Galería de Arte","category":"cultura","lat":5.438645387450148,"lng":-73.28778260467743,"avgVisitMinutes":81,"estimatedCostEur":0,"score":3.617068461331692},{"id":"viracacha_7072","citySlug":"viracacha","name":"Playa Sur","category":"playa","lat":5.430114377906156,"lng":-73.28609246742909,"avgVisitMinutes":33,"estimatedCostEur":10,"score":2.0853748390265956},{"id":"viracacha_5823","citySlug":"viracacha","name":"Teatro Municipal","category":"cultura","lat":5.442703409568032,"lng":-73.28995850438393,"avgVisitMinutes":83,"estimatedCostEur":24,"score":3.279502672239928},{"id":"viracacha_2910","citySlug":"viracacha","name":"Murallas de Viracachá","category":"historia","lat":5.438038890230862,"lng":-73.30115620393458,"avgVisitMinutes":33,"estimatedCostEur":1,"score":4.866024617435089},{"id":"viracacha_5339","citySlug":"viracacha","name":"Ruta de Tapas","category":"gastronomia","lat":5.44343105320902,"lng":-73.28650768347079,"avgVisitMinutes":65,"estimatedCostEur":8,"score":1.5051444996008851},{"id":"viracacha_4990","citySlug":"viracacha","name":"Museo Cultural de Viracachá","category":"cultura","lat":5.433068927515663,"lng":-73.28771033473231,"avgVisitMinutes":90,"estimatedCostEur":10,"score":4.127326073173496},{"id":"viota_9999","citySlug":"viota","name":"Zona Comercial","category":"ocio","lat":4.445863619228944,"lng":-74.51583447902398,"avgVisitMinutes":43,"estimatedCostEur":11,"score":4.70967955911549},{"id":"viota_2082","citySlug":"viota","name":"Iglesia de Viotá","category":"historia","lat":4.431826910087507,"lng":-74.52202730291422,"avgVisitMinutes":89,"estimatedCostEur":23,"score":1.6944944978290337},{"id":"viota_1563","citySlug":"viota","name":"Zona Comercial","category":"ocio","lat":4.44312069416448,"lng":-74.52320383176036,"avgVisitMinutes":51,"estimatedCostEur":9,"score":3.174821528511918},{"id":"viota_9524","citySlug":"viota","name":"Paseo Principal","category":"ocio","lat":4.4373599875109235,"lng":-74.52964750811009,"avgVisitMinutes":41,"estimatedCostEur":1,"score":1.0575873274964518},{"id":"viota_8115","citySlug":"viota","name":"Playa Sur","category":"playa","lat":4.433079548501944,"lng":-74.52431049156579,"avgVisitMinutes":88,"estimatedCostEur":2,"score":1.2356515938031831},{"id":"viota_1512","citySlug":"viota","name":"Museo Local de Viotá","category":"historia","lat":4.437295567604466,"lng":-74.51740930017195,"avgVisitMinutes":82,"estimatedCostEur":7,"score":2.6864996921925406},{"id":"viota_9682","citySlug":"viota","name":"Galería de Arte","category":"cultura","lat":4.447012313329402,"lng":-74.51759748981074,"avgVisitMinutes":31,"estimatedCostEur":7,"score":3.8996670413043453},{"id":"viota_4505","citySlug":"viota","name":"Ruta de Tapas","category":"gastronomia","lat":4.427150078607948,"lng":-74.52312279126886,"avgVisitMinutes":57,"estimatedCostEur":20,"score":3.587084181403358},{"id":"viota_9596","citySlug":"viota","name":"Mirador de Viotá","category":"mirador","lat":4.43953676787347,"lng":-74.51596520153885,"avgVisitMinutes":33,"estimatedCostEur":0,"score":4.0834941129076405},{"id":"viota_3873","citySlug":"viota","name":"Restaurante Típico de Viotá","category":"gastronomia","lat":4.440414655027979,"lng":-74.52504113952986,"avgVisitMinutes":39,"estimatedCostEur":9,"score":2.3005048424385217},{"id":"villeta_6815","citySlug":"villeta","name":"Castillo de Villeta","category":"historia","lat":5.013064830889917,"lng":-74.4718830092858,"avgVisitMinutes":45,"estimatedCostEur":19,"score":4.133678707850343},{"id":"villeta_6691","citySlug":"villeta","name":"Vista Alta de Villeta","category":"mirador","lat":5.012397991307305,"lng":-74.46723269736795,"avgVisitMinutes":89,"estimatedCostEur":15,"score":2.855858644506717},{"id":"villeta_6776","citySlug":"villeta","name":"Playa Norte","category":"playa","lat":5.010784489334937,"lng":-74.46756230307159,"avgVisitMinutes":26,"estimatedCostEur":13,"score":3.1590673880556097},{"id":"villeta_6307","citySlug":"villeta","name":"Galería de Arte","category":"cultura","lat":5.012737064385975,"lng":-74.47873459275661,"avgVisitMinutes":50,"estimatedCostEur":7,"score":4.566991387094517},{"id":"villeta_2067","citySlug":"villeta","name":"Centro Histórico","category":"historia","lat":5.0137993300511585,"lng":-74.47120712586948,"avgVisitMinutes":44,"estimatedCostEur":18,"score":3.1813075185117867},{"id":"villeta_8638","citySlug":"villeta","name":"Galería de Arte","category":"cultura","lat":5.007682901198747,"lng":-74.4656925263688,"avgVisitMinutes":35,"estimatedCostEur":16,"score":2.148048197181729},{"id":"villeta_4776","citySlug":"villeta","name":"Mercado Gastronómico","category":"gastronomia","lat":5.005401909098161,"lng":-74.47146470030829,"avgVisitMinutes":50,"estimatedCostEur":6,"score":3.916008525922968},{"id":"villeta_9447","citySlug":"villeta","name":"Murallas de Villeta","category":"historia","lat":4.999966125036233,"lng":-74.46991943906053,"avgVisitMinutes":22,"estimatedCostEur":4,"score":3.4879790810044655},{"id":"villavieja_3387","citySlug":"villavieja","name":"Castillo de Villavieja","category":"historia","lat":3.214219599132268,"lng":-75.2151087685657,"avgVisitMinutes":81,"estimatedCostEur":15,"score":3.5007227596691073},{"id":"villavieja_5284","citySlug":"villavieja","name":"Iglesia de Villavieja","category":"historia","lat":3.2297310218971385,"lng":-75.21325201826085,"avgVisitMinutes":60,"estimatedCostEur":13,"score":1.8565593310022226},{"id":"villavieja_3807","citySlug":"villavieja","name":"Parque Central","category":"ocio","lat":3.2163707765304554,"lng":-75.22745099922072,"avgVisitMinutes":77,"estimatedCostEur":0,"score":1.7601563387371622},{"id":"villavieja_9329","citySlug":"villavieja","name":"Playa Central","category":"playa","lat":3.2242535170770896,"lng":-75.21549715469142,"avgVisitMinutes":85,"estimatedCostEur":23,"score":1.516767902320816},{"id":"villavieja_4978","citySlug":"villavieja","name":"Centro Histórico","category":"historia","lat":3.2112858297472586,"lng":-75.21778703989722,"avgVisitMinutes":68,"estimatedCostEur":7,"score":2.9544182578618874},{"id":"villavieja_1265","citySlug":"villavieja","name":"Vista Alta de Villavieja","category":"mirador","lat":3.2255294439984756,"lng":-75.21478378901807,"avgVisitMinutes":90,"estimatedCostEur":17,"score":2.3008214364522437},{"id":"villavieja_8975","citySlug":"villavieja","name":"Mercado Gastronómico","category":"gastronomia","lat":3.2135226196292956,"lng":-75.22344089769479,"avgVisitMinutes":89,"estimatedCostEur":11,"score":3.491325309924133},{"id":"villavicencio_5170","citySlug":"villavicencio","name":"Iglesia de Villavicencio","category":"historia","lat":4.141500417538178,"lng":-73.62450694163203,"avgVisitMinutes":20,"estimatedCostEur":19,"score":2.53360202594441},{"id":"villavicencio_5185","citySlug":"villavicencio","name":"Playa Sur","category":"playa","lat":4.1302128612956555,"lng":-73.61658672693356,"avgVisitMinutes":50,"estimatedCostEur":10,"score":1.6288761847979047},{"id":"villavicencio_3781","citySlug":"villavicencio","name":"Zona Comercial","category":"ocio","lat":4.141463261696416,"lng":-73.61727721511795,"avgVisitMinutes":59,"estimatedCostEur":3,"score":1.1433749065600733},{"id":"villavicencio_1346","citySlug":"villavicencio","name":"Murallas de Villavicencio","category":"historia","lat":4.141315419457234,"lng":-73.62749629291069,"avgVisitMinutes":80,"estimatedCostEur":17,"score":2.075811042355093},{"id":"villavicencio_1279","citySlug":"villavicencio","name":"Playa Central","category":"playa","lat":4.132331414766856,"lng":-73.63232826659227,"avgVisitMinutes":33,"estimatedCostEur":24,"score":4.687385171793661},{"id":"villarrica_8303","citySlug":"villarrica","name":"Parque Central","category":"ocio","lat":3.9362457929484513,"lng":-74.59437340616624,"avgVisitMinutes":55,"estimatedCostEur":6,"score":1.849654868883725},{"id":"villarrica_5790","citySlug":"villarrica","name":"Galería de Arte","category":"cultura","lat":3.9384657365844364,"lng":-74.6080646707696,"avgVisitMinutes":29,"estimatedCostEur":16,"score":3.9878804337650133},{"id":"villarrica_7988","citySlug":"villarrica","name":"Museo Local de Villarrica","category":"historia","lat":3.925907562130273,"lng":-74.59917965941916,"avgVisitMinutes":30,"estimatedCostEur":6,"score":2.5456849972804356},{"id":"villarrica_3413","citySlug":"villarrica","name":"Iglesia de Villarrica","category":"historia","lat":3.9435474487939883,"lng":-74.59339731909638,"avgVisitMinutes":74,"estimatedCostEur":19,"score":4.140302148023408},{"id":"villarrica_1660","citySlug":"villarrica","name":"Murallas de Villarrica","category":"historia","lat":3.9288653563073455,"lng":-74.60180078780891,"avgVisitMinutes":51,"estimatedCostEur":6,"score":3.513742183036658},{"id":"villarrica_5149","citySlug":"villarrica","name":"Castillo de Villarrica","category":"historia","lat":3.9395859542055685,"lng":-74.59322842852627,"avgVisitMinutes":83,"estimatedCostEur":0,"score":0.9749594878023767},{"id":"villa-del-rosario_1379","citySlug":"villa-del-rosario","name":"Mercado Gastronómico","category":"gastronomia","lat":7.826676199834884,"lng":-72.4818079564832,"avgVisitMinutes":60,"estimatedCostEur":21,"score":3.59331180646363},{"id":"villa-del-rosario_4330","citySlug":"villa-del-rosario","name":"Murallas de Villa del Rosario","category":"historia","lat":7.834524575469908,"lng":-72.46738803251738,"avgVisitMinutes":68,"estimatedCostEur":13,"score":3.212890490748194},{"id":"villa-del-rosario_9793","citySlug":"villa-del-rosario","name":"Centro de Arte de Villa del Rosario","category":"cultura","lat":7.838866841668571,"lng":-72.47337052095695,"avgVisitMinutes":44,"estimatedCostEur":16,"score":3.650307872108219},{"id":"villa-del-rosario_6555","citySlug":"villa-del-rosario","name":"Playa Central","category":"playa","lat":7.830405365770433,"lng":-72.47340454918981,"avgVisitMinutes":47,"estimatedCostEur":8,"score":1.957379164881972},{"id":"villa-del-rosario_4069","citySlug":"villa-del-rosario","name":"Vista Alta de Villa del Rosario","category":"mirador","lat":7.8360895403983095,"lng":-72.47213783012653,"avgVisitMinutes":89,"estimatedCostEur":11,"score":2.999344585833564},{"id":"villa-del-rosario_8051","citySlug":"villa-del-rosario","name":"Paseo Principal","category":"ocio","lat":7.827378132819395,"lng":-72.47389987730432,"avgVisitMinutes":49,"estimatedCostEur":12,"score":0.9390058263271375},{"id":"villa-del-rosario_3107","citySlug":"villa-del-rosario","name":"Mercado Gastronómico","category":"gastronomia","lat":7.8332141284709635,"lng":-72.47320530171447,"avgVisitMinutes":59,"estimatedCostEur":17,"score":3.6269100064651925},{"id":"villapinzon_4416","citySlug":"villapinzon","name":"Playa Norte","category":"playa","lat":5.207744784910887,"lng":-73.59999182901095,"avgVisitMinutes":58,"estimatedCostEur":19,"score":3.542790044207759},{"id":"villapinzon_6091","citySlug":"villapinzon","name":"Museo Cultural de Villapinzón","category":"cultura","lat":5.2095435503162255,"lng":-73.58944352918768,"avgVisitMinutes":78,"estimatedCostEur":5,"score":2.5560979832414477},{"id":"villapinzon_4821","citySlug":"villapinzon","name":"Centro de Arte de Villapinzón","category":"cultura","lat":5.222636173915936,"lng":-73.5960986059798,"avgVisitMinutes":42,"estimatedCostEur":21,"score":4.165227763677806},{"id":"villapinzon_4099","citySlug":"villapinzon","name":"Murallas de Villapinzón","category":"historia","lat":5.221995089009652,"lng":-73.59505207487395,"avgVisitMinutes":73,"estimatedCostEur":8,"score":3.9875588794364694},{"id":"villapinzon_7572","citySlug":"villapinzon","name":"Mirador de Villapinzón","category":"mirador","lat":5.20985897221737,"lng":-73.58652582710624,"avgVisitMinutes":60,"estimatedCostEur":6,"score":2.34065646394247},{"id":"villapinzon_6909","citySlug":"villapinzon","name":"Ruta de Tapas","category":"gastronomia","lat":5.225679123878586,"lng":-73.60205763539328,"avgVisitMinutes":50,"estimatedCostEur":25,"score":3.430080668398415},{"id":"villapinzon_6527","citySlug":"villapinzon","name":"Playa Sur","category":"playa","lat":5.220986373659465,"lng":-73.60142874181388,"avgVisitMinutes":20,"estimatedCostEur":19,"score":1.9168191933105985},{"id":"villapinzon_6051","citySlug":"villapinzon","name":"Restaurante Típico de Villapinzón","category":"gastronomia","lat":5.210842037752525,"lng":-73.59743112365692,"avgVisitMinutes":69,"estimatedCostEur":24,"score":4.887789650547673},{"id":"villapinzon_9697","citySlug":"villapinzon","name":"Mirador de Villapinzón","category":"mirador","lat":5.219806190436542,"lng":-73.5872868413154,"avgVisitMinutes":82,"estimatedCostEur":9,"score":0.7379934103882737},{"id":"villanueva_5227","citySlug":"villanueva","name":"Teatro Municipal","category":"cultura","lat":10.606940496491738,"lng":-72.97079113396194,"avgVisitMinutes":23,"estimatedCostEur":9,"score":2.5260550616206965},{"id":"villanueva_6966","citySlug":"villanueva","name":"Mercado Gastronómico","category":"gastronomia","lat":10.60843484137459,"lng":-72.98455626301744,"avgVisitMinutes":62,"estimatedCostEur":18,"score":1.4876908730850475},{"id":"villanueva_6418","citySlug":"villanueva","name":"Playa Sur","category":"playa","lat":10.61291936462926,"lng":-72.98266843126243,"avgVisitMinutes":51,"estimatedCostEur":23,"score":0.8423933957432025},{"id":"villanueva_2732","citySlug":"villanueva","name":"Playa Norte","category":"playa","lat":10.609450400913502,"lng":-72.9697420189059,"avgVisitMinutes":45,"estimatedCostEur":19,"score":3.012648126600583},{"id":"villanueva_5093","citySlug":"villanueva","name":"Vista Alta de Villanueva","category":"mirador","lat":10.617521313062007,"lng":-72.97863036157275,"avgVisitMinutes":71,"estimatedCostEur":1,"score":3.460679042723891},{"id":"villanueva_6522","citySlug":"villanueva","name":"Paseo Principal","category":"ocio","lat":10.607268196205291,"lng":-72.9860873751974,"avgVisitMinutes":23,"estimatedCostEur":1,"score":1.6206306152621175},{"id":"villanueva_4511","citySlug":"villanueva","name":"Parque Central","category":"ocio","lat":10.605172658579665,"lng":-72.97631011949434,"avgVisitMinutes":85,"estimatedCostEur":17,"score":4.781137864517853},{"id":"villanueva_7660","citySlug":"villanueva","name":"Paseo Principal","category":"ocio","lat":10.61608338634174,"lng":-72.98024259905435,"avgVisitMinutes":53,"estimatedCostEur":1,"score":3.3089044175601545},{"id":"villanueva_2646","citySlug":"villanueva","name":"Centro Histórico","category":"historia","lat":10.602999188423066,"lng":-72.98479074633111,"avgVisitMinutes":20,"estimatedCostEur":11,"score":4.919921810846581},{"id":"villanueva_2887","citySlug":"villanueva","name":"Zona Comercial","category":"ocio","lat":10.440837537812316,"lng":-75.27082948914064,"avgVisitMinutes":77,"estimatedCostEur":4,"score":2.849909196777603},{"id":"villanueva_6122","citySlug":"villanueva","name":"Galería de Arte","category":"cultura","lat":10.440612380903088,"lng":-75.26495577864478,"avgVisitMinutes":34,"estimatedCostEur":5,"score":1.72675324650252},{"id":"villanueva_3400","citySlug":"villanueva","name":"Mercado Gastronómico","category":"gastronomia","lat":10.436963784154395,"lng":-75.28259512888043,"avgVisitMinutes":60,"estimatedCostEur":10,"score":3.1201619398052043},{"id":"villanueva_8926","citySlug":"villanueva","name":"Museo Local de Villanueva","category":"historia","lat":10.440150274862908,"lng":-75.27309431432464,"avgVisitMinutes":79,"estimatedCostEur":10,"score":3.8464062558227763},{"id":"villanueva_5003","citySlug":"villanueva","name":"Iglesia de Villanueva","category":"historia","lat":10.448797222540168,"lng":-75.27845322160283,"avgVisitMinutes":42,"estimatedCostEur":18,"score":4.978909496991203},{"id":"villanueva_7219","citySlug":"villanueva","name":"Restaurante Típico de Villanueva","category":"gastronomia","lat":10.45219790143462,"lng":-75.27364564917046,"avgVisitMinutes":28,"estimatedCostEur":18,"score":2.6339823797570427},{"id":"villanueva_1470","citySlug":"villanueva","name":"Museo Local de Villanueva","category":"historia","lat":10.445736383167679,"lng":-75.27401577882205,"avgVisitMinutes":81,"estimatedCostEur":13,"score":2.5518556177809564},{"id":"villanueva_3047","citySlug":"villanueva","name":"Mirador de Villanueva","category":"mirador","lat":10.448570861967907,"lng":-75.26508189788252,"avgVisitMinutes":61,"estimatedCostEur":0,"score":3.1381924018739484},{"id":"villanueva_9735","citySlug":"villanueva","name":"Ruta de Tapas","category":"gastronomia","lat":10.439672463791918,"lng":-75.27894728815106,"avgVisitMinutes":41,"estimatedCostEur":16,"score":2.6069567912369283},{"id":"villanueva_1123","citySlug":"villanueva","name":"Vista Alta de Villanueva","category":"mirador","lat":10.451229570083205,"lng":-75.2720809925299,"avgVisitMinutes":85,"estimatedCostEur":4,"score":2.8169194928073638},{"id":"villanueva_8028","citySlug":"villanueva","name":"Museo Cultural de Villanueva","category":"cultura","lat":10.445271865258077,"lng":-75.27835346775763,"avgVisitMinutes":51,"estimatedCostEur":5,"score":3.2392522209403487},{"id":"villanueva_6787","citySlug":"villanueva","name":"Centro de Arte de Villanueva","category":"cultura","lat":6.678972954160044,"lng":-73.17842761989881,"avgVisitMinutes":62,"estimatedCostEur":15,"score":1.0440198840187123},{"id":"villanueva_4416","citySlug":"villanueva","name":"Vista Alta de Villanueva","category":"mirador","lat":6.67748627259828,"lng":-73.16703474460422,"avgVisitMinutes":20,"estimatedCostEur":16,"score":2.686996146172792},{"id":"villanueva_8564","citySlug":"villanueva","name":"Zona Comercial","category":"ocio","lat":6.672400620234699,"lng":-73.16673378182185,"avgVisitMinutes":26,"estimatedCostEur":18,"score":4.152466145276668},{"id":"villanueva_1532","citySlug":"villanueva","name":"Centro de Arte de Villanueva","category":"cultura","lat":6.6751989589934,"lng":-73.16889783991631,"avgVisitMinutes":76,"estimatedCostEur":21,"score":1.5493460900247848},{"id":"villanueva_1721","citySlug":"villanueva","name":"Centro de Arte de Villanueva","category":"cultura","lat":6.668832538081975,"lng":-73.17715326629761,"avgVisitMinutes":22,"estimatedCostEur":9,"score":1.667992415976932},{"id":"villanueva_6195","citySlug":"villanueva","name":"Parque Central","category":"ocio","lat":6.671829815921324,"lng":-73.17091951195201,"avgVisitMinutes":40,"estimatedCostEur":24,"score":1.3224338932970074},{"id":"villanueva_9088","citySlug":"villanueva","name":"Mirador de Villanueva","category":"mirador","lat":6.676751536153665,"lng":-73.17891235522258,"avgVisitMinutes":80,"estimatedCostEur":2,"score":3.996857838604042},{"id":"villanueva_7380","citySlug":"villanueva","name":"Paseo Principal","category":"ocio","lat":5.279769234085246,"lng":-71.96288552449997,"avgVisitMinutes":25,"estimatedCostEur":17,"score":0.5323219510663494},{"id":"villanueva_7803","citySlug":"villanueva","name":"Playa Norte","category":"playa","lat":5.2905850279267,"lng":-71.9681338651769,"avgVisitMinutes":66,"estimatedCostEur":23,"score":2.6092149233216126},{"id":"villanueva_1153","citySlug":"villanueva","name":"Zona Comercial","category":"ocio","lat":5.278125581060942,"lng":-71.9608413250371,"avgVisitMinutes":56,"estimatedCostEur":11,"score":4.459426360610317},{"id":"villanueva_2883","citySlug":"villanueva","name":"Teatro Municipal","category":"cultura","lat":5.276725080856037,"lng":-71.96556278732339,"avgVisitMinutes":38,"estimatedCostEur":16,"score":1.307540627215607},{"id":"villanueva_9071","citySlug":"villanueva","name":"Murallas de Villanueva","category":"historia","lat":5.27698742940391,"lng":-71.96106691071556,"avgVisitMinutes":57,"estimatedCostEur":12,"score":4.378995293176093},{"id":"villanueva_4426","citySlug":"villanueva","name":"Vista Alta de Villanueva","category":"mirador","lat":5.285837544893916,"lng":-71.97317014940127,"avgVisitMinutes":68,"estimatedCostEur":10,"score":1.1727244026656747},{"id":"villanueva_5313","citySlug":"villanueva","name":"Iglesia de Villanueva","category":"historia","lat":5.2894968153155695,"lng":-71.97251946245731,"avgVisitMinutes":21,"estimatedCostEur":17,"score":1.6273839129799228},{"id":"villanueva_8232","citySlug":"villanueva","name":"Museo Cultural de Villanueva","category":"cultura","lat":5.283541038813974,"lng":-71.9765662341669,"avgVisitMinutes":38,"estimatedCostEur":2,"score":2.7127673723737744},{"id":"villanueva_6901","citySlug":"villanueva","name":"Mercado Gastronómico","category":"gastronomia","lat":5.273733717399395,"lng":-71.95938594971717,"avgVisitMinutes":61,"estimatedCostEur":17,"score":1.616376229850935},{"id":"villanueva_4667","citySlug":"villanueva","name":"Centro de Arte de Villanueva","category":"cultura","lat":5.276718777286873,"lng":-71.97233439048757,"avgVisitMinutes":30,"estimatedCostEur":16,"score":4.85041963808537},{"id":"villamaria_8560","citySlug":"villamaria","name":"Mirador de Villamaría","category":"mirador","lat":5.050433570117787,"lng":-75.50920525197712,"avgVisitMinutes":69,"estimatedCostEur":7,"score":3.8757977813254896},{"id":"villamaria_9598","citySlug":"villamaria","name":"Playa Norte","category":"playa","lat":5.049987721006084,"lng":-75.51603435573996,"avgVisitMinutes":56,"estimatedCostEur":8,"score":4.700667858282992},{"id":"villamaria_6197","citySlug":"villamaria","name":"Museo Local de Villamaría","category":"historia","lat":5.050436138958835,"lng":-75.50544634059474,"avgVisitMinutes":60,"estimatedCostEur":18,"score":0.6265557953815004},{"id":"villamaria_4464","citySlug":"villamaria","name":"Ruta de Tapas","category":"gastronomia","lat":5.040459112346838,"lng":-75.51238862636703,"avgVisitMinutes":33,"estimatedCostEur":21,"score":4.521563171043331},{"id":"villamaria_1039","citySlug":"villamaria","name":"Mercado Gastronómico","category":"gastronomia","lat":5.0389864582252235,"lng":-75.50803591513052,"avgVisitMinutes":30,"estimatedCostEur":12,"score":1.3847173936707038},{"id":"villamaria_8800","citySlug":"villamaria","name":"Museo Cultural de Villamaría","category":"cultura","lat":5.039112370011142,"lng":-75.51278305783916,"avgVisitMinutes":57,"estimatedCostEur":15,"score":2.7239421302473357},{"id":"villamaria_7821","citySlug":"villamaria","name":"Castillo de Villamaría","category":"historia","lat":5.042010430038513,"lng":-75.50587734145022,"avgVisitMinutes":64,"estimatedCostEur":8,"score":3.320254107230535},{"id":"villamaria_5883","citySlug":"villamaria","name":"Restaurante Típico de Villamaría","category":"gastronomia","lat":5.036747659824203,"lng":-75.51330010014765,"avgVisitMinutes":71,"estimatedCostEur":17,"score":1.8758179897292937},{"id":"villamaria_7358","citySlug":"villamaria","name":"Museo Local de Villamaría","category":"historia","lat":5.0402031414185,"lng":-75.50747343998356,"avgVisitMinutes":75,"estimatedCostEur":7,"score":4.866946946630449},{"id":"villamaria_7472","citySlug":"villamaria","name":"Playa Central","category":"playa","lat":5.044749145985837,"lng":-75.51598633993596,"avgVisitMinutes":22,"estimatedCostEur":21,"score":1.172413530826879},{"id":"villamaria_2324","citySlug":"villamaria","name":"Ruta de Tapas","category":"gastronomia","lat":5.037300580113451,"lng":-75.50634659488308,"avgVisitMinutes":46,"estimatedCostEur":13,"score":1.1503819457675892},{"id":"villamaria_5803","citySlug":"villamaria","name":"Mercado Gastronómico","category":"gastronomia","lat":5.038518109553803,"lng":-75.51960439866298,"avgVisitMinutes":71,"estimatedCostEur":5,"score":4.161425902825638},{"id":"villahermosa_9034","citySlug":"villahermosa","name":"Murallas de Villahermosa","category":"historia","lat":5.035855521925127,"lng":-75.12124005840552,"avgVisitMinutes":21,"estimatedCostEur":13,"score":2.962319997634623},{"id":"villahermosa_9265","citySlug":"villahermosa","name":"Mirador de Villahermosa","category":"mirador","lat":5.0370635424642325,"lng":-75.11797752434069,"avgVisitMinutes":65,"estimatedCostEur":18,"score":0.753358450533529},{"id":"villahermosa_6466","citySlug":"villahermosa","name":"Restaurante Típico de Villahermosa","category":"gastronomia","lat":5.033962660887886,"lng":-75.11419958751057,"avgVisitMinutes":49,"estimatedCostEur":14,"score":2.28384773164718},{"id":"villahermosa_6897","citySlug":"villahermosa","name":"Playa Central","category":"playa","lat":5.029867713961871,"lng":-75.12100515657396,"avgVisitMinutes":36,"estimatedCostEur":14,"score":3.3135928150395997},{"id":"villahermosa_8439","citySlug":"villahermosa","name":"Museo Cultural de Villahermosa","category":"cultura","lat":5.0307366626165395,"lng":-75.10956580296731,"avgVisitMinutes":64,"estimatedCostEur":24,"score":0.8637168780850006},{"id":"villahermosa_2592","citySlug":"villahermosa","name":"Playa Central","category":"playa","lat":5.0370339277613585,"lng":-75.11602396095512,"avgVisitMinutes":47,"estimatedCostEur":15,"score":3.289862300259747},{"id":"villahermosa_6778","citySlug":"villahermosa","name":"Paseo Principal","category":"ocio","lat":5.023084134316066,"lng":-75.10612965993967,"avgVisitMinutes":29,"estimatedCostEur":19,"score":2.245862011104321},{"id":"villagomez_8921","citySlug":"villagomez","name":"Restaurante Típico de Villagómez","category":"gastronomia","lat":5.263817337960972,"lng":-74.2032631023391,"avgVisitMinutes":65,"estimatedCostEur":2,"score":4.460306721499791},{"id":"villagomez_3884","citySlug":"villagomez","name":"Museo Cultural de Villagómez","category":"cultura","lat":5.274910796912013,"lng":-74.19487402429314,"avgVisitMinutes":28,"estimatedCostEur":0,"score":1.4210960449454637},{"id":"villagomez_5133","citySlug":"villagomez","name":"Punto Panorámico","category":"mirador","lat":5.267405725951265,"lng":-74.18952550875153,"avgVisitMinutes":30,"estimatedCostEur":6,"score":4.684442262869209},{"id":"villagomez_4827","citySlug":"villagomez","name":"Iglesia de Villagómez","category":"historia","lat":5.277204414157581,"lng":-74.1869400188735,"avgVisitMinutes":71,"estimatedCostEur":1,"score":4.4703848158371065},{"id":"villagomez_6603","citySlug":"villagomez","name":"Mercado Gastronómico","category":"gastronomia","lat":5.270512734725776,"lng":-74.18943081868099,"avgVisitMinutes":69,"estimatedCostEur":20,"score":1.510190084937802},{"id":"villagarzon_3255","citySlug":"villagarzon","name":"Playa Sur","category":"playa","lat":1.0277038977115882,"lng":-76.63032418157148,"avgVisitMinutes":35,"estimatedCostEur":24,"score":4.640709076554319},{"id":"villagarzon_4591","citySlug":"villagarzon","name":"Ruta de Tapas","category":"gastronomia","lat":1.0378224893891037,"lng":-76.63424378186016,"avgVisitMinutes":62,"estimatedCostEur":24,"score":2.0851207032357983},{"id":"villagarzon_7596","citySlug":"villagarzon","name":"Punto Panorámico","category":"mirador","lat":1.031454171981009,"lng":-76.63321410377824,"avgVisitMinutes":26,"estimatedCostEur":10,"score":0.5452205862267946},{"id":"villagarzon_9003","citySlug":"villagarzon","name":"Museo Cultural de Villagarzón","category":"cultura","lat":1.0285245635600935,"lng":-76.62635287589106,"avgVisitMinutes":42,"estimatedCostEur":11,"score":3.285972217597061},{"id":"villagarzon_3199","citySlug":"villagarzon","name":"Museo Local de Villagarzón","category":"historia","lat":1.0424071774957293,"lng":-76.63378313583699,"avgVisitMinutes":32,"estimatedCostEur":4,"score":2.861734536508157},{"id":"villagarzon_7176","citySlug":"villagarzon","name":"Castillo de Villagarzón","category":"historia","lat":1.0459498114082841,"lng":-76.63097829355924,"avgVisitMinutes":39,"estimatedCostEur":23,"score":2.2359434460506034},{"id":"villagarzon_6871","citySlug":"villagarzon","name":"Parque Central","category":"ocio","lat":1.0401336153069232,"lng":-76.62558032337473,"avgVisitMinutes":52,"estimatedCostEur":17,"score":4.378719632693978},{"id":"villagarzon_1832","citySlug":"villagarzon","name":"Teatro Municipal","category":"cultura","lat":1.0383507286985247,"lng":-76.6176571777795,"avgVisitMinutes":71,"estimatedCostEur":14,"score":2.512752227455193},{"id":"villagarzon_5076","citySlug":"villagarzon","name":"Centro Histórico","category":"historia","lat":1.0279104363043359,"lng":-76.6301430706448,"avgVisitMinutes":32,"estimatedCostEur":9,"score":1.6530021512459454},{"id":"villa-de-leyva_8289","citySlug":"villa-de-leyva","name":"Paseo Principal","category":"ocio","lat":5.628430483551117,"lng":-73.52063961114985,"avgVisitMinutes":78,"estimatedCostEur":24,"score":1.7877589371671898},{"id":"villa-de-leyva_9152","citySlug":"villa-de-leyva","name":"Punto Panorámico","category":"mirador","lat":5.629423569603943,"lng":-73.52509375018789,"avgVisitMinutes":44,"estimatedCostEur":22,"score":0.6123635592241705},{"id":"villa-de-leyva_4175","citySlug":"villa-de-leyva","name":"Vista Alta de Villa de Leyva","category":"mirador","lat":5.632779582050157,"lng":-73.51526791338479,"avgVisitMinutes":79,"estimatedCostEur":8,"score":1.7976590420730938},{"id":"villa-de-leyva_5172","citySlug":"villa-de-leyva","name":"Centro Histórico","category":"historia","lat":5.630931326267196,"lng":-73.52922634710872,"avgVisitMinutes":34,"estimatedCostEur":22,"score":3.8700111623924487},{"id":"villa-de-leyva_2899","citySlug":"villa-de-leyva","name":"Playa Norte","category":"playa","lat":5.625996044419063,"lng":-73.52781768763997,"avgVisitMinutes":90,"estimatedCostEur":0,"score":3.6026621777124137},{"id":"vijes_3314","citySlug":"vijes","name":"Ruta de Tapas","category":"gastronomia","lat":3.7067173212865114,"lng":-76.44102461567141,"avgVisitMinutes":78,"estimatedCostEur":0,"score":2.7605002502837297},{"id":"vijes_9806","citySlug":"vijes","name":"Iglesia de Vijes","category":"historia","lat":3.6944502047472,"lng":-76.4362528939285,"avgVisitMinutes":66,"estimatedCostEur":19,"score":1.7659422393045467},{"id":"vijes_5164","citySlug":"vijes","name":"Mercado Gastronómico","category":"gastronomia","lat":3.707671811314222,"lng":-76.43263730923461,"avgVisitMinutes":86,"estimatedCostEur":16,"score":1.0530043466539045},{"id":"vijes_3378","citySlug":"vijes","name":"Restaurante Típico de Vijes","category":"gastronomia","lat":3.6978520407105426,"lng":-76.43274855325518,"avgVisitMinutes":29,"estimatedCostEur":21,"score":3.28523249002687},{"id":"vijes_6933","citySlug":"vijes","name":"Playa Central","category":"playa","lat":3.707218556437845,"lng":-76.43263165610391,"avgVisitMinutes":38,"estimatedCostEur":7,"score":1.166024418140716},{"id":"vijes_9859","citySlug":"vijes","name":"Paseo Principal","category":"ocio","lat":3.701265734080872,"lng":-76.44453842482956,"avgVisitMinutes":55,"estimatedCostEur":13,"score":2.8353951408164315},{"id":"vijes_1691","citySlug":"vijes","name":"Playa Norte","category":"playa","lat":3.692756338384268,"lng":-76.44458289392733,"avgVisitMinutes":67,"estimatedCostEur":23,"score":2.0505383814566924},{"id":"vijes_6425","citySlug":"vijes","name":"Centro Histórico","category":"historia","lat":3.7023380144122817,"lng":-76.43700909060597,"avgVisitMinutes":70,"estimatedCostEur":24,"score":3.184788701242308},{"id":"vijes_1736","citySlug":"vijes","name":"Parque Central","category":"ocio","lat":3.6977716673421552,"lng":-76.44282876155287,"avgVisitMinutes":59,"estimatedCostEur":0,"score":1.9168279420410377},{"id":"vijes_7183","citySlug":"vijes","name":"Ruta de Tapas","category":"gastronomia","lat":3.6907041258993933,"lng":-76.43487242277712,"avgVisitMinutes":75,"estimatedCostEur":5,"score":2.550844477918335},{"id":"vigia-del-fuerte_7187","citySlug":"vigia-del-fuerte","name":"Teatro Municipal","category":"cultura","lat":6.58241316601583,"lng":-76.89601350893258,"avgVisitMinutes":54,"estimatedCostEur":20,"score":3.3178727297576733},{"id":"vigia-del-fuerte_1565","citySlug":"vigia-del-fuerte","name":"Playa Norte","category":"playa","lat":6.595366212908095,"lng":-76.8954033938695,"avgVisitMinutes":60,"estimatedCostEur":6,"score":2.2308301336939396},{"id":"vigia-del-fuerte_9758","citySlug":"vigia-del-fuerte","name":"Paseo Principal","category":"ocio","lat":6.5907565968560995,"lng":-76.9003999299978,"avgVisitMinutes":36,"estimatedCostEur":1,"score":4.468368691768934},{"id":"vigia-del-fuerte_9065","citySlug":"vigia-del-fuerte","name":"Teatro Municipal","category":"cultura","lat":6.599192655245476,"lng":-76.89515945711572,"avgVisitMinutes":57,"estimatedCostEur":17,"score":4.667155769243589},{"id":"vigia-del-fuerte_4089","citySlug":"vigia-del-fuerte","name":"Playa Central","category":"playa","lat":6.5807813225407426,"lng":-76.8937257053446,"avgVisitMinutes":69,"estimatedCostEur":10,"score":2.031944374100139},{"id":"vigia-del-fuerte_1774","citySlug":"vigia-del-fuerte","name":"Teatro Municipal","category":"cultura","lat":6.5925227584618264,"lng":-76.886141526441,"avgVisitMinutes":51,"estimatedCostEur":13,"score":1.3262396735521444},{"id":"vigia-del-fuerte_6335","citySlug":"vigia-del-fuerte","name":"Murallas de Vigía del Fuerte","category":"historia","lat":6.580302505684423,"lng":-76.90300218094636,"avgVisitMinutes":74,"estimatedCostEur":0,"score":1.4021370901390031},{"id":"vigia-del-fuerte_4208","citySlug":"vigia-del-fuerte","name":"Mercado Gastronómico","category":"gastronomia","lat":6.592481755490331,"lng":-76.89351112270747,"avgVisitMinutes":80,"estimatedCostEur":8,"score":0.5851693143060908},{"id":"vigia-del-fuerte_9721","citySlug":"vigia-del-fuerte","name":"Vista Alta de Vigía del Fuerte","category":"mirador","lat":6.5960947768616345,"lng":-76.89703031708333,"avgVisitMinutes":23,"estimatedCostEur":1,"score":0.6483203606280203},{"id":"vigia-del-fuerte_5262","citySlug":"vigia-del-fuerte","name":"Playa Norte","category":"playa","lat":6.595956915195249,"lng":-76.9014829936467,"avgVisitMinutes":54,"estimatedCostEur":6,"score":1.9650315477436806},{"id":"vigia-del-fuerte_8115","citySlug":"vigia-del-fuerte","name":"Playa Norte","category":"playa","lat":6.590502698434485,"lng":-76.88605089006117,"avgVisitMinutes":25,"estimatedCostEur":23,"score":4.6136118864076945},{"id":"vigia-del-fuerte_3468","citySlug":"vigia-del-fuerte","name":"Teatro Municipal","category":"cultura","lat":6.580952291283018,"lng":-76.88701047262559,"avgVisitMinutes":26,"estimatedCostEur":2,"score":4.715431988849015},{"id":"victoria_1724","citySlug":"victoria","name":"Centro Histórico","category":"historia","lat":5.311425807732412,"lng":-74.91358512904304,"avgVisitMinutes":65,"estimatedCostEur":9,"score":3.1017171124637},{"id":"victoria_4233","citySlug":"victoria","name":"Mirador de Victoria","category":"mirador","lat":5.311347412651933,"lng":-74.90306106691831,"avgVisitMinutes":69,"estimatedCostEur":3,"score":1.6824564989842599},{"id":"victoria_4922","citySlug":"victoria","name":"Punto Panorámico","category":"mirador","lat":5.315301582984525,"lng":-74.91189422637525,"avgVisitMinutes":85,"estimatedCostEur":5,"score":1.797898264069193},{"id":"victoria_8599","citySlug":"victoria","name":"Parque Central","category":"ocio","lat":5.320812913152671,"lng":-74.91242781581367,"avgVisitMinutes":85,"estimatedCostEur":21,"score":4.113680404372107},{"id":"victoria_9711","citySlug":"victoria","name":"Museo Local de Victoria","category":"historia","lat":5.312000382160363,"lng":-74.9170014823489,"avgVisitMinutes":46,"estimatedCostEur":22,"score":3.9171535080499744},{"id":"victoria_3855","citySlug":"victoria","name":"Restaurante Típico de Victoria","category":"gastronomia","lat":5.313228385780147,"lng":-74.90469346259144,"avgVisitMinutes":75,"estimatedCostEur":18,"score":1.6578865797689073},{"id":"victoria_3571","citySlug":"victoria","name":"Zona Comercial","category":"ocio","lat":5.314764702719686,"lng":-74.9083957084745,"avgVisitMinutes":45,"estimatedCostEur":7,"score":4.70946388680996},{"id":"victoria_9771","citySlug":"victoria","name":"Murallas de Victoria","category":"historia","lat":5.313437388065765,"lng":-74.90526671485465,"avgVisitMinutes":77,"estimatedCostEur":12,"score":2.0712206287122488},{"id":"victoria_9131","citySlug":"victoria","name":"Museo Cultural de Victoria","category":"cultura","lat":5.319895783585164,"lng":-74.90991974502494,"avgVisitMinutes":22,"estimatedCostEur":0,"score":1.0481186424264406},{"id":"victoria_5698","citySlug":"victoria","name":"Playa Sur","category":"playa","lat":5.316376248456525,"lng":-74.91776110735718,"avgVisitMinutes":31,"estimatedCostEur":13,"score":0.6336058813054636},{"id":"victoria_6773","citySlug":"victoria","name":"Vista Alta de Victoria","category":"mirador","lat":5.310159983171695,"lng":-74.90252390577368,"avgVisitMinutes":69,"estimatedCostEur":7,"score":2.6494668310820373},{"id":"viani_3938","citySlug":"viani","name":"Centro Histórico","category":"historia","lat":4.878933611745772,"lng":-74.56130146385897,"avgVisitMinutes":75,"estimatedCostEur":20,"score":0.6779330274057916},{"id":"viani_5038","citySlug":"viani","name":"Centro de Arte de Vianí","category":"cultura","lat":4.872859447637163,"lng":-74.56386447835087,"avgVisitMinutes":38,"estimatedCostEur":0,"score":4.011250915642746},{"id":"viani_1950","citySlug":"viani","name":"Centro de Arte de Vianí","category":"cultura","lat":4.877181048044308,"lng":-74.56503431068232,"avgVisitMinutes":24,"estimatedCostEur":11,"score":3.9693695627640118},{"id":"viani_1113","citySlug":"viani","name":"Punto Panorámico","category":"mirador","lat":4.864667944895677,"lng":-74.55522901709288,"avgVisitMinutes":35,"estimatedCostEur":13,"score":1.7760782363953074},{"id":"viani_9592","citySlug":"viani","name":"Punto Panorámico","category":"mirador","lat":4.866004447866925,"lng":-74.57130136124044,"avgVisitMinutes":58,"estimatedCostEur":17,"score":1.4186872806253035},{"id":"viani_6770","citySlug":"viani","name":"Iglesia de Vianí","category":"historia","lat":4.876688543205688,"lng":-74.56365686214656,"avgVisitMinutes":31,"estimatedCostEur":5,"score":2.52116051737569},{"id":"vetas_2524","citySlug":"vetas","name":"Paseo Principal","category":"ocio","lat":7.318000024307496,"lng":-72.87397727821106,"avgVisitMinutes":78,"estimatedCostEur":25,"score":4.578716732791257},{"id":"vetas_1147","citySlug":"vetas","name":"Vista Alta de Vetas","category":"mirador","lat":7.302593554454443,"lng":-72.86714247680962,"avgVisitMinutes":72,"estimatedCostEur":1,"score":3.254816004690632},{"id":"vetas_7512","citySlug":"vetas","name":"Iglesia de Vetas","category":"historia","lat":7.31143271805081,"lng":-72.87001239983151,"avgVisitMinutes":27,"estimatedCostEur":7,"score":4.38270374389238},{"id":"vetas_3607","citySlug":"vetas","name":"Zona Comercial","category":"ocio","lat":7.309881922068034,"lng":-72.8732813448796,"avgVisitMinutes":41,"estimatedCostEur":13,"score":1.9280116075140001},{"id":"vetas_8420","citySlug":"vetas","name":"Parque Central","category":"ocio","lat":7.303002041706255,"lng":-72.87066238990006,"avgVisitMinutes":69,"estimatedCostEur":9,"score":3.6040038178885023},{"id":"vetas_9160","citySlug":"vetas","name":"Ruta de Tapas","category":"gastronomia","lat":7.3008248821335995,"lng":-72.87408880011752,"avgVisitMinutes":42,"estimatedCostEur":23,"score":0.7368410614422374},{"id":"vetas_5724","citySlug":"vetas","name":"Playa Norte","category":"playa","lat":7.3181661703252265,"lng":-72.87643016454004,"avgVisitMinutes":27,"estimatedCostEur":18,"score":0.8564019141493402},{"id":"vetas_1520","citySlug":"vetas","name":"Mercado Gastronómico","category":"gastronomia","lat":7.304822379078152,"lng":-72.86322152434315,"avgVisitMinutes":20,"estimatedCostEur":5,"score":1.9904152050977986},{"id":"vetas_2772","citySlug":"vetas","name":"Mirador de Vetas","category":"mirador","lat":7.300574680032079,"lng":-72.87864490200715,"avgVisitMinutes":81,"estimatedCostEur":15,"score":4.482436561537218},{"id":"versalles_7188","citySlug":"versalles","name":"Paseo Principal","category":"ocio","lat":4.574981103983784,"lng":-76.20145097654688,"avgVisitMinutes":52,"estimatedCostEur":5,"score":2.4029375583151857},{"id":"versalles_1914","citySlug":"versalles","name":"Mirador de Versalles","category":"mirador","lat":4.583410179107238,"lng":-76.19210549255678,"avgVisitMinutes":24,"estimatedCostEur":17,"score":3.9588831387095853},{"id":"versalles_8029","citySlug":"versalles","name":"Vista Alta de Versalles","category":"mirador","lat":4.569480585056891,"lng":-76.20256569100506,"avgVisitMinutes":70,"estimatedCostEur":20,"score":2.4252853774657304},{"id":"versalles_2839","citySlug":"versalles","name":"Zona Comercial","category":"ocio","lat":4.582421681576773,"lng":-76.19162947916014,"avgVisitMinutes":77,"estimatedCostEur":20,"score":0.80326824737156},{"id":"versalles_6938","citySlug":"versalles","name":"Playa Central","category":"playa","lat":4.573838113895045,"lng":-76.19678184288043,"avgVisitMinutes":58,"estimatedCostEur":18,"score":2.192221159734621},{"id":"versalles_6505","citySlug":"versalles","name":"Castillo de Versalles","category":"historia","lat":4.57496154755826,"lng":-76.1946085442186,"avgVisitMinutes":29,"estimatedCostEur":0,"score":2.8822257859978473},{"id":"versalles_4333","citySlug":"versalles","name":"Playa Sur","category":"playa","lat":4.579961470350093,"lng":-76.19703310183014,"avgVisitMinutes":80,"estimatedCostEur":4,"score":4.088875351283503},{"id":"versalles_2785","citySlug":"versalles","name":"Iglesia de Versalles","category":"historia","lat":4.578666781315918,"lng":-76.1932611505878,"avgVisitMinutes":63,"estimatedCostEur":7,"score":2.052063906819437},{"id":"versalles_3267","citySlug":"versalles","name":"Playa Norte","category":"playa","lat":4.582196909549208,"lng":-76.20468798489017,"avgVisitMinutes":46,"estimatedCostEur":9,"score":1.3615358010110805},{"id":"versalles_6077","citySlug":"versalles","name":"Parque Central","category":"ocio","lat":4.578556456929432,"lng":-76.20185537513734,"avgVisitMinutes":34,"estimatedCostEur":17,"score":1.2245538033052301},{"id":"vergara_3000","citySlug":"vergara","name":"Ruta de Tapas","category":"gastronomia","lat":5.117002194953827,"lng":-74.35227379924761,"avgVisitMinutes":76,"estimatedCostEur":10,"score":4.798064382586786},{"id":"vergara_2276","citySlug":"vergara","name":"Mirador de Vergara","category":"mirador","lat":5.124243879340792,"lng":-74.34591976877554,"avgVisitMinutes":23,"estimatedCostEur":22,"score":4.417228213118141},{"id":"vergara_2166","citySlug":"vergara","name":"Murallas de Vergara","category":"historia","lat":5.1118844445531595,"lng":-74.348699408282,"avgVisitMinutes":21,"estimatedCostEur":12,"score":4.684479893436308},{"id":"vergara_7478","citySlug":"vergara","name":"Centro de Arte de Vergara","category":"cultura","lat":5.126416503484472,"lng":-74.34697474186451,"avgVisitMinutes":65,"estimatedCostEur":10,"score":3.167770455512227},{"id":"vergara_4046","citySlug":"vergara","name":"Playa Central","category":"playa","lat":5.1278173650266154,"lng":-74.35417027163592,"avgVisitMinutes":54,"estimatedCostEur":1,"score":1.7910923350974},{"id":"vergara_7823","citySlug":"vergara","name":"Parque Central","category":"ocio","lat":5.1149473907550504,"lng":-74.3458641871674,"avgVisitMinutes":86,"estimatedCostEur":0,"score":3.9563657583939396},{"id":"vergara_5488","citySlug":"vergara","name":"Playa Central","category":"playa","lat":5.118860562077543,"lng":-74.34282425308551,"avgVisitMinutes":76,"estimatedCostEur":6,"score":3.4969963820279455},{"id":"vergara_7018","citySlug":"vergara","name":"Murallas de Vergara","category":"historia","lat":5.109955103913862,"lng":-74.35547826874311,"avgVisitMinutes":23,"estimatedCostEur":25,"score":1.7241314871432674},{"id":"vergara_9752","citySlug":"vergara","name":"Restaurante Típico de Vergara","category":"gastronomia","lat":5.109557369083583,"lng":-74.35322414476744,"avgVisitMinutes":62,"estimatedCostEur":18,"score":3.45295193602719},{"id":"vergara_2418","citySlug":"vergara","name":"Restaurante Típico de Vergara","category":"gastronomia","lat":5.127456394475831,"lng":-74.33875120402242,"avgVisitMinutes":27,"estimatedCostEur":19,"score":1.514900596327693},{"id":"vergara_5320","citySlug":"vergara","name":"Mercado Gastronómico","category":"gastronomia","lat":5.125238550190532,"lng":-74.34423257633878,"avgVisitMinutes":69,"estimatedCostEur":16,"score":2.921799112140083},{"id":"ventaquemada_9528","citySlug":"ventaquemada","name":"Restaurante Típico de Ventaquemada","category":"gastronomia","lat":5.361219310696912,"lng":-73.51247355338144,"avgVisitMinutes":28,"estimatedCostEur":7,"score":3.4656518643275023},{"id":"ventaquemada_1898","citySlug":"ventaquemada","name":"Murallas de Ventaquemada","category":"historia","lat":5.37131479936889,"lng":-73.51413490117078,"avgVisitMinutes":60,"estimatedCostEur":25,"score":0.784934796409664},{"id":"ventaquemada_9308","citySlug":"ventaquemada","name":"Restaurante Típico de Ventaquemada","category":"gastronomia","lat":5.363913604318337,"lng":-73.5128357556793,"avgVisitMinutes":28,"estimatedCostEur":21,"score":3.2826288072152447},{"id":"ventaquemada_8151","citySlug":"ventaquemada","name":"Ruta de Tapas","category":"gastronomia","lat":5.365911728325192,"lng":-73.52189542142125,"avgVisitMinutes":80,"estimatedCostEur":6,"score":2.974658978155918},{"id":"ventaquemada_5565","citySlug":"ventaquemada","name":"Playa Central","category":"playa","lat":5.3713741376141835,"lng":-73.52745680564195,"avgVisitMinutes":22,"estimatedCostEur":15,"score":1.6331169701095651},{"id":"ventaquemada_8544","citySlug":"ventaquemada","name":"Museo Cultural de Ventaquemada","category":"cultura","lat":5.3668406091907865,"lng":-73.52683258750389,"avgVisitMinutes":52,"estimatedCostEur":6,"score":1.6237939975380637},{"id":"ventaquemada_6006","citySlug":"ventaquemada","name":"Playa Sur","category":"playa","lat":5.368889366370868,"lng":-73.51343878869515,"avgVisitMinutes":33,"estimatedCostEur":13,"score":3.101003178360663},{"id":"venecia_2706","citySlug":"venecia","name":"Mirador de Venecia","category":"mirador","lat":5.953061719100155,"lng":-75.73405753712494,"avgVisitMinutes":34,"estimatedCostEur":3,"score":2.424435975841428},{"id":"venecia_6261","citySlug":"venecia","name":"Playa Norte","category":"playa","lat":5.9538835654507745,"lng":-75.73619971220498,"avgVisitMinutes":37,"estimatedCostEur":18,"score":3.898188604486805},{"id":"venecia_4062","citySlug":"venecia","name":"Museo Cultural de Venecia","category":"cultura","lat":5.956280653717561,"lng":-75.73822639623468,"avgVisitMinutes":47,"estimatedCostEur":6,"score":0.5505849934715474},{"id":"venecia_6264","citySlug":"venecia","name":"Ruta de Tapas","category":"gastronomia","lat":5.959107931329114,"lng":-75.73106530546917,"avgVisitMinutes":27,"estimatedCostEur":24,"score":1.5919182560399767},{"id":"venecia_7600","citySlug":"venecia","name":"Playa Norte","category":"playa","lat":5.966751018836581,"lng":-75.73999873126847,"avgVisitMinutes":69,"estimatedCostEur":25,"score":2.6469958389093273},{"id":"venecia_6941","citySlug":"venecia","name":"Galería de Arte","category":"cultura","lat":5.957488176094763,"lng":-75.73256521398217,"avgVisitMinutes":86,"estimatedCostEur":18,"score":2.1974486366535646},{"id":"venecia_9348","citySlug":"venecia","name":"Paseo Principal","category":"ocio","lat":5.95823873022619,"lng":-75.73130559761412,"avgVisitMinutes":27,"estimatedCostEur":21,"score":3.984486540654242},{"id":"venecia_7973","citySlug":"venecia","name":"Paseo Principal","category":"ocio","lat":5.962194520311523,"lng":-75.74009795996828,"avgVisitMinutes":52,"estimatedCostEur":9,"score":1.11609269869153},{"id":"venecia_3317","citySlug":"venecia","name":"Paseo Principal","category":"ocio","lat":5.970807839253234,"lng":-75.73597472957353,"avgVisitMinutes":86,"estimatedCostEur":21,"score":4.490001617743067},{"id":"venecia_5782","citySlug":"venecia","name":"Zona Comercial","category":"ocio","lat":4.088878363185879,"lng":-74.48004211024664,"avgVisitMinutes":70,"estimatedCostEur":4,"score":2.0373501993713967},{"id":"venecia_8657","citySlug":"venecia","name":"Galería de Arte","category":"cultura","lat":4.085672265048941,"lng":-74.47047259526109,"avgVisitMinutes":66,"estimatedCostEur":18,"score":1.3309290015221484},{"id":"venecia_3347","citySlug":"venecia","name":"Playa Norte","category":"playa","lat":4.082110365352337,"lng":-74.48617765405402,"avgVisitMinutes":49,"estimatedCostEur":24,"score":4.890781432942038},{"id":"venecia_1349","citySlug":"venecia","name":"Playa Central","category":"playa","lat":4.0940599626858125,"lng":-74.47387378040315,"avgVisitMinutes":76,"estimatedCostEur":4,"score":3.534117115465663},{"id":"venecia_6424","citySlug":"venecia","name":"Murallas de Venecia","category":"historia","lat":4.082363172967368,"lng":-74.47731037139121,"avgVisitMinutes":20,"estimatedCostEur":20,"score":3.175871276800961},{"id":"venecia_3077","citySlug":"venecia","name":"Museo Local de Venecia","category":"historia","lat":4.0803577078802125,"lng":-74.47593098873381,"avgVisitMinutes":81,"estimatedCostEur":8,"score":4.2281322569599915},{"id":"venecia_7713","citySlug":"venecia","name":"Vista Alta de Venecia","category":"mirador","lat":4.07938953608756,"lng":-74.47996500474956,"avgVisitMinutes":82,"estimatedCostEur":9,"score":3.4942492512938017},{"id":"venecia_9751","citySlug":"venecia","name":"Restaurante Típico de Venecia","category":"gastronomia","lat":4.081632988765072,"lng":-74.47862854801774,"avgVisitMinutes":80,"estimatedCostEur":17,"score":4.830982163737208},{"id":"venecia_1979","citySlug":"venecia","name":"Playa Sur","category":"playa","lat":4.078869591252004,"lng":-74.4689831091661,"avgVisitMinutes":71,"estimatedCostEur":13,"score":2.535792737464196},{"id":"venadillo_8411","citySlug":"venadillo","name":"Punto Panorámico","category":"mirador","lat":4.7241189031583755,"lng":-74.93182380906687,"avgVisitMinutes":55,"estimatedCostEur":19,"score":1.9177305103153324},{"id":"venadillo_8394","citySlug":"venadillo","name":"Playa Norte","category":"playa","lat":4.70985268841226,"lng":-74.92083270299953,"avgVisitMinutes":39,"estimatedCostEur":24,"score":2.244177691302638},{"id":"venadillo_1649","citySlug":"venadillo","name":"Iglesia de Venadillo","category":"historia","lat":4.724321468212605,"lng":-74.93734877675068,"avgVisitMinutes":33,"estimatedCostEur":8,"score":2.394323844883599},{"id":"venadillo_5579","citySlug":"venadillo","name":"Centro Histórico","category":"historia","lat":4.714012829313264,"lng":-74.93209374784159,"avgVisitMinutes":52,"estimatedCostEur":24,"score":2.802522123421573},{"id":"venadillo_5872","citySlug":"venadillo","name":"Restaurante Típico de Venadillo","category":"gastronomia","lat":4.721588303777934,"lng":-74.9246937536211,"avgVisitMinutes":83,"estimatedCostEur":18,"score":2.4945170643175896},{"id":"venadillo_9341","citySlug":"venadillo","name":"Mirador de Venadillo","category":"mirador","lat":4.718265676510599,"lng":-74.93585482305248,"avgVisitMinutes":26,"estimatedCostEur":4,"score":4.246695439863689},{"id":"venadillo_3041","citySlug":"venadillo","name":"Museo Cultural de Venadillo","category":"cultura","lat":4.726172807697168,"lng":-74.9227349313374,"avgVisitMinutes":77,"estimatedCostEur":16,"score":1.029756518350599},{"id":"venadillo_8516","citySlug":"venadillo","name":"Paseo Principal","category":"ocio","lat":4.721054575556729,"lng":-74.92883461357735,"avgVisitMinutes":64,"estimatedCostEur":17,"score":4.203776213918589},{"id":"venadillo_6100","citySlug":"venadillo","name":"Paseo Principal","category":"ocio","lat":4.7221502954833365,"lng":-74.93026276346043,"avgVisitMinutes":52,"estimatedCostEur":7,"score":3.015544393195144},{"id":"velez_2001","citySlug":"velez","name":"Centro de Arte de Vélez","category":"cultura","lat":6.004689122593672,"lng":-73.66975886687499,"avgVisitMinutes":80,"estimatedCostEur":18,"score":2.07335099430055},{"id":"velez_4811","citySlug":"velez","name":"Playa Sur","category":"playa","lat":6.0218917189585195,"lng":-73.67028940788128,"avgVisitMinutes":84,"estimatedCostEur":21,"score":0.5415946714882669},{"id":"velez_5608","citySlug":"velez","name":"Mercado Gastronómico","category":"gastronomia","lat":6.01738749752109,"lng":-73.6642836411118,"avgVisitMinutes":64,"estimatedCostEur":6,"score":1.7222907780684387},{"id":"velez_6635","citySlug":"velez","name":"Punto Panorámico","category":"mirador","lat":6.008667438862504,"lng":-73.66715736323869,"avgVisitMinutes":35,"estimatedCostEur":16,"score":4.80020969881994},{"id":"velez_8321","citySlug":"velez","name":"Paseo Principal","category":"ocio","lat":6.004322644074443,"lng":-73.67025098129633,"avgVisitMinutes":81,"estimatedCostEur":6,"score":1.7801350892149777},{"id":"velez_4353","citySlug":"velez","name":"Parque Central","category":"ocio","lat":6.006350562191967,"lng":-73.67066472815442,"avgVisitMinutes":28,"estimatedCostEur":22,"score":0.9066552998467361},{"id":"velez_5312","citySlug":"velez","name":"Playa Sur","category":"playa","lat":6.0125175365583825,"lng":-73.6805484547282,"avgVisitMinutes":85,"estimatedCostEur":13,"score":2.4721499693216957},{"id":"velez_9811","citySlug":"velez","name":"Museo Local de Vélez","category":"historia","lat":6.013801718317921,"lng":-73.68213149001724,"avgVisitMinutes":26,"estimatedCostEur":24,"score":4.189228092452449},{"id":"velez_4261","citySlug":"velez","name":"Punto Panorámico","category":"mirador","lat":6.021552148976438,"lng":-73.66666191684784,"avgVisitMinutes":35,"estimatedCostEur":9,"score":3.111873976832727},{"id":"valparaiso_6084","citySlug":"valparaiso","name":"Parque Central","category":"ocio","lat":5.614838108550307,"lng":-75.61487458520473,"avgVisitMinutes":87,"estimatedCostEur":18,"score":3.9334976022866646},{"id":"valparaiso_6415","citySlug":"valparaiso","name":"Paseo Principal","category":"ocio","lat":5.6181234952610835,"lng":-75.62078978458463,"avgVisitMinutes":45,"estimatedCostEur":25,"score":3.939360287456731},{"id":"valparaiso_6668","citySlug":"valparaiso","name":"Museo Cultural de Valparaíso","category":"cultura","lat":5.622410810111627,"lng":-75.61470983174979,"avgVisitMinutes":62,"estimatedCostEur":5,"score":1.9945713137464907},{"id":"valparaiso_7459","citySlug":"valparaiso","name":"Museo Cultural de Valparaíso","category":"cultura","lat":5.615497466860664,"lng":-75.62449769612823,"avgVisitMinutes":72,"estimatedCostEur":21,"score":3.2236177020646637},{"id":"valparaiso_5737","citySlug":"valparaiso","name":"Centro Histórico","category":"historia","lat":5.620507755094277,"lng":-75.62248199403618,"avgVisitMinutes":26,"estimatedCostEur":2,"score":3.3769299524557144},{"id":"valparaiso_5768","citySlug":"valparaiso","name":"Centro de Arte de Valparaíso","category":"cultura","lat":5.619785213653118,"lng":-75.62164018271223,"avgVisitMinutes":88,"estimatedCostEur":22,"score":4.4397180792476005},{"id":"valparaiso_4303","citySlug":"valparaiso","name":"Museo Cultural de Valparaíso","category":"cultura","lat":5.613371858345713,"lng":-75.63324885525873,"avgVisitMinutes":64,"estimatedCostEur":0,"score":1.4876414711640504},{"id":"valparaiso_3556","citySlug":"valparaiso","name":"Restaurante Típico de Valparaíso","category":"gastronomia","lat":5.605653581836265,"lng":-75.62393970620492,"avgVisitMinutes":25,"estimatedCostEur":3,"score":2.034799717804884},{"id":"valparaiso_4664","citySlug":"valparaiso","name":"Playa Sur","category":"playa","lat":5.614977145476455,"lng":-75.61904092014726,"avgVisitMinutes":80,"estimatedCostEur":1,"score":0.7244200883009755},{"id":"valparaiso_3943","citySlug":"valparaiso","name":"Mirador de Valparaíso","category":"mirador","lat":1.2000724496476234,"lng":-75.69945921598676,"avgVisitMinutes":67,"estimatedCostEur":1,"score":4.905713483564059},{"id":"valparaiso_7831","citySlug":"valparaiso","name":"Museo Cultural de Valparaíso","category":"cultura","lat":1.2017393584805793,"lng":-75.71497282450625,"avgVisitMinutes":46,"estimatedCostEur":13,"score":0.8268808522348263},{"id":"valparaiso_2138","citySlug":"valparaiso","name":"Galería de Arte","category":"cultura","lat":1.201636828712391,"lng":-75.7043973622413,"avgVisitMinutes":45,"estimatedCostEur":2,"score":4.772930956141827},{"id":"valparaiso_9728","citySlug":"valparaiso","name":"Iglesia de Valparaíso","category":"historia","lat":1.1937253982588325,"lng":-75.71077899150282,"avgVisitMinutes":41,"estimatedCostEur":13,"score":0.7380658477643326},{"id":"valparaiso_9383","citySlug":"valparaiso","name":"Vista Alta de Valparaíso","category":"mirador","lat":1.186249778037122,"lng":-75.71197975227585,"avgVisitMinutes":27,"estimatedCostEur":23,"score":4.893715616075071},{"id":"valparaiso_4221","citySlug":"valparaiso","name":"Punto Panorámico","category":"mirador","lat":1.2033725694185664,"lng":-75.70676171868833,"avgVisitMinutes":25,"estimatedCostEur":21,"score":2.0257037455610285},{"id":"valparaiso_7151","citySlug":"valparaiso","name":"Teatro Municipal","category":"cultura","lat":1.1847783887516827,"lng":-75.70045706367821,"avgVisitMinutes":90,"estimatedCostEur":0,"score":3.3831353098522357},{"id":"valparaiso_4278","citySlug":"valparaiso","name":"Restaurante Típico de Valparaíso","category":"gastronomia","lat":1.1998569156474372,"lng":-75.69936107566122,"avgVisitMinutes":21,"estimatedCostEur":21,"score":3.280470122167676},{"id":"valparaiso_6877","citySlug":"valparaiso","name":"Galería de Arte","category":"cultura","lat":1.197882819088567,"lng":-75.7150228476207,"avgVisitMinutes":85,"estimatedCostEur":7,"score":2.497202722465083},{"id":"valparaiso_4909","citySlug":"valparaiso","name":"Ruta de Tapas","category":"gastronomia","lat":1.1954314683743212,"lng":-75.70389865446904,"avgVisitMinutes":53,"estimatedCostEur":6,"score":0.6141475964594348},{"id":"valparaiso_4025","citySlug":"valparaiso","name":"Mercado Gastronómico","category":"gastronomia","lat":1.1926857612013513,"lng":-75.7133379383468,"avgVisitMinutes":79,"estimatedCostEur":20,"score":4.1295895957431155},{"id":"valparaiso_4389","citySlug":"valparaiso","name":"Parque Central","category":"ocio","lat":1.1913122612601779,"lng":-75.70664180267364,"avgVisitMinutes":57,"estimatedCostEur":15,"score":3.6866087746377465},{"id":"valledupar_5765","citySlug":"valledupar","name":"Restaurante Típico de Valledupar","category":"gastronomia","lat":10.457431295067991,"lng":-73.24353859495767,"avgVisitMinutes":50,"estimatedCostEur":15,"score":1.7250035099825103},{"id":"valledupar_2941","citySlug":"valledupar","name":"Iglesia de Valledupar","category":"historia","lat":10.455983909587662,"lng":-73.26168634171037,"avgVisitMinutes":44,"estimatedCostEur":0,"score":3.6123509140788004},{"id":"valledupar_6526","citySlug":"valledupar","name":"Galería de Arte","category":"cultura","lat":10.472850281777081,"lng":-73.24558615098073,"avgVisitMinutes":50,"estimatedCostEur":0,"score":4.992369528329317},{"id":"valledupar_7867","citySlug":"valledupar","name":"Mercado Gastronómico","category":"gastronomia","lat":10.45761363113686,"lng":-73.24923633587754,"avgVisitMinutes":81,"estimatedCostEur":25,"score":2.7378249061365905},{"id":"valledupar_6962","citySlug":"valledupar","name":"Restaurante Típico de Valledupar","category":"gastronomia","lat":10.471398827812509,"lng":-73.25926098092533,"avgVisitMinutes":42,"estimatedCostEur":5,"score":0.52721370211243},{"id":"valledupar_2380","citySlug":"valledupar","name":"Galería de Arte","category":"cultura","lat":10.455505736650453,"lng":-73.24716980101185,"avgVisitMinutes":40,"estimatedCostEur":24,"score":1.4892115420833343},{"id":"valledupar_5088","citySlug":"valledupar","name":"Vista Alta de Valledupar","category":"mirador","lat":10.47279407449041,"lng":-73.25977612592136,"avgVisitMinutes":82,"estimatedCostEur":6,"score":4.470034786778784},{"id":"valledupar_6377","citySlug":"valledupar","name":"Punto Panorámico","category":"mirador","lat":10.46653882085274,"lng":-73.24686348106822,"avgVisitMinutes":42,"estimatedCostEur":19,"score":3.6963151898878728},{"id":"valledupar_5704","citySlug":"valledupar","name":"Punto Panorámico","category":"mirador","lat":10.459997953599938,"lng":-73.2437624001867,"avgVisitMinutes":56,"estimatedCostEur":19,"score":4.876597987492328},{"id":"valledupar_8414","citySlug":"valledupar","name":"Playa Sur","category":"playa","lat":10.46773490121351,"lng":-73.24661743508634,"avgVisitMinutes":33,"estimatedCostEur":4,"score":4.76314708136468},{"id":"valledupar_4881","citySlug":"valledupar","name":"Playa Sur","category":"playa","lat":10.460339110462472,"lng":-73.24680110696113,"avgVisitMinutes":52,"estimatedCostEur":13,"score":3.40859409268513},{"id":"valle-de-san-juan_4789","citySlug":"valle-de-san-juan","name":"Zona Comercial","category":"ocio","lat":4.196726939739304,"lng":-75.11818722749315,"avgVisitMinutes":23,"estimatedCostEur":17,"score":1.3765723768840632},{"id":"valle-de-san-juan_4515","citySlug":"valle-de-san-juan","name":"Playa Norte","category":"playa","lat":4.202690388302427,"lng":-75.10739151545707,"avgVisitMinutes":70,"estimatedCostEur":23,"score":4.657231360747845},{"id":"valle-de-san-juan_2494","citySlug":"valle-de-san-juan","name":"Playa Sur","category":"playa","lat":4.193381276637603,"lng":-75.1116026474828,"avgVisitMinutes":46,"estimatedCostEur":20,"score":2.8626076174751156},{"id":"valle-de-san-juan_6823","citySlug":"valle-de-san-juan","name":"Museo Cultural de Valle de San Juan","category":"cultura","lat":4.200465889023781,"lng":-75.12437342686786,"avgVisitMinutes":22,"estimatedCostEur":1,"score":1.1679801827406406},{"id":"valle-de-san-juan_7857","citySlug":"valle-de-san-juan","name":"Parque Central","category":"ocio","lat":4.204122370110214,"lng":-75.1135333411918,"avgVisitMinutes":65,"estimatedCostEur":5,"score":3.04879061965246},{"id":"valle-de-san-juan_6591","citySlug":"valle-de-san-juan","name":"Zona Comercial","category":"ocio","lat":4.198297321361582,"lng":-75.10896344279206,"avgVisitMinutes":41,"estimatedCostEur":14,"score":4.546764057792126},{"id":"valle-de-san-juan_5485","citySlug":"valle-de-san-juan","name":"Iglesia de Valle de San Juan","category":"historia","lat":4.204487376396254,"lng":-75.12066148960373,"avgVisitMinutes":71,"estimatedCostEur":18,"score":4.493451122466052},{"id":"valle-de-san-juan_6854","citySlug":"valle-de-san-juan","name":"Zona Comercial","category":"ocio","lat":4.195875087852371,"lng":-75.12058891266479,"avgVisitMinutes":76,"estimatedCostEur":12,"score":2.386272151721145},{"id":"valle-de-san-juan_8098","citySlug":"valle-de-san-juan","name":"Zona Comercial","category":"ocio","lat":4.198533897484765,"lng":-75.12159814893784,"avgVisitMinutes":23,"estimatedCostEur":24,"score":3.152060610772633},{"id":"valle-de-san-jose_2963","citySlug":"valle-de-san-jose","name":"Vista Alta de Valle de San José","category":"mirador","lat":6.443286831057951,"lng":-73.15067414710053,"avgVisitMinutes":35,"estimatedCostEur":19,"score":4.284328102904272},{"id":"valle-de-san-jose_1167","citySlug":"valle-de-san-jose","name":"Parque Central","category":"ocio","lat":6.437900477206947,"lng":-73.14765093268169,"avgVisitMinutes":60,"estimatedCostEur":21,"score":0.6675384518352501},{"id":"valle-de-san-jose_1324","citySlug":"valle-de-san-jose","name":"Punto Panorámico","category":"mirador","lat":6.438958878203941,"lng":-73.1502952640781,"avgVisitMinutes":55,"estimatedCostEur":11,"score":0.9010844996221725},{"id":"valle-de-san-jose_2114","citySlug":"valle-de-san-jose","name":"Mirador de Valle de San José","category":"mirador","lat":6.439980023636264,"lng":-73.14002123638974,"avgVisitMinutes":59,"estimatedCostEur":1,"score":3.7458528796224364},{"id":"valle-de-san-jose_4632","citySlug":"valle-de-san-jose","name":"Centro Histórico","category":"historia","lat":6.44583184536235,"lng":-73.14656746751656,"avgVisitMinutes":50,"estimatedCostEur":19,"score":1.779200860517835},{"id":"valle-de-san-jose_8305","citySlug":"valle-de-san-jose","name":"Murallas de Valle de San José","category":"historia","lat":6.451232106777131,"lng":-73.14625563888681,"avgVisitMinutes":70,"estimatedCostEur":3,"score":2.6734748137259876},{"id":"valle-de-san-jose_4059","citySlug":"valle-de-san-jose","name":"Punto Panorámico","category":"mirador","lat":6.44876296630864,"lng":-73.14665534055764,"avgVisitMinutes":75,"estimatedCostEur":10,"score":4.831732719929198},{"id":"valle-de-san-jose_5725","citySlug":"valle-de-san-jose","name":"Murallas de Valle de San José","category":"historia","lat":6.4564727923117005,"lng":-73.14705147769969,"avgVisitMinutes":79,"estimatedCostEur":17,"score":3.2710128806898706},{"id":"valencia_6909","citySlug":"valencia","name":"Vista Alta de Valencia","category":"mirador","lat":8.259011885523604,"lng":-76.14854295025249,"avgVisitMinutes":90,"estimatedCostEur":11,"score":4.128051902085371},{"id":"valencia_9812","citySlug":"valencia","name":"Castillo de Valencia","category":"historia","lat":8.249775084482582,"lng":-76.1555837670611,"avgVisitMinutes":50,"estimatedCostEur":24,"score":4.944102693253611},{"id":"valencia_4281","citySlug":"valencia","name":"Castillo de Valencia","category":"historia","lat":8.251906422063424,"lng":-76.15006774736072,"avgVisitMinutes":54,"estimatedCostEur":13,"score":3.885296466186363},{"id":"valencia_3925","citySlug":"valencia","name":"Punto Panorámico","category":"mirador","lat":8.257698771389048,"lng":-76.15196174599588,"avgVisitMinutes":25,"estimatedCostEur":21,"score":1.6098841523880614},{"id":"valencia_5479","citySlug":"valencia","name":"Punto Panorámico","category":"mirador","lat":8.259563439910668,"lng":-76.15118576900815,"avgVisitMinutes":42,"estimatedCostEur":18,"score":4.54363827313637},{"id":"valencia_5410","citySlug":"valencia","name":"Playa Norte","category":"playa","lat":8.250398300580242,"lng":-76.14451368272043,"avgVisitMinutes":23,"estimatedCostEur":14,"score":3.4582537184818256},{"id":"valdivia_6818","citySlug":"valdivia","name":"Castillo de Valdivia","category":"historia","lat":7.299905730287961,"lng":-75.39013721336919,"avgVisitMinutes":88,"estimatedCostEur":10,"score":1.5736859194180148},{"id":"valdivia_6983","citySlug":"valdivia","name":"Centro Histórico","category":"historia","lat":7.302469435074143,"lng":-75.39647049783596,"avgVisitMinutes":45,"estimatedCostEur":24,"score":1.6045933680902085},{"id":"valdivia_5547","citySlug":"valdivia","name":"Vista Alta de Valdivia","category":"mirador","lat":7.2874790495595025,"lng":-75.3982211129005,"avgVisitMinutes":48,"estimatedCostEur":18,"score":3.0812826745134156},{"id":"valdivia_5932","citySlug":"valdivia","name":"Punto Panorámico","category":"mirador","lat":7.287763811696985,"lng":-75.40146074237173,"avgVisitMinutes":25,"estimatedCostEur":17,"score":4.315843411189927},{"id":"valdivia_9778","citySlug":"valdivia","name":"Ruta de Tapas","category":"gastronomia","lat":7.283904342536609,"lng":-75.40026136733903,"avgVisitMinutes":78,"estimatedCostEur":4,"score":3.7464318745898426},{"id":"valdivia_2885","citySlug":"valdivia","name":"Restaurante Típico de Valdivia","category":"gastronomia","lat":7.301794661559051,"lng":-75.39923373578803,"avgVisitMinutes":58,"estimatedCostEur":0,"score":3.3173346126266634},{"id":"valdivia_3388","citySlug":"valdivia","name":"Parque Central","category":"ocio","lat":7.300728060585846,"lng":-75.39701181589335,"avgVisitMinutes":48,"estimatedCostEur":8,"score":0.6428656072325645},{"id":"valdivia_1879","citySlug":"valdivia","name":"Galería de Arte","category":"cultura","lat":7.289271328213668,"lng":-75.40105770581647,"avgVisitMinutes":68,"estimatedCostEur":20,"score":1.769048177975096},{"id":"valdivia_2849","citySlug":"valdivia","name":"Zona Comercial","category":"ocio","lat":7.297149539984455,"lng":-75.4011471958941,"avgVisitMinutes":56,"estimatedCostEur":7,"score":2.4666287478145588},{"id":"utica_4892","citySlug":"utica","name":"Mirador de Útica","category":"mirador","lat":5.188093967020934,"lng":-74.47544542644405,"avgVisitMinutes":64,"estimatedCostEur":17,"score":3.1815638392673047},{"id":"utica_6706","citySlug":"utica","name":"Teatro Municipal","category":"cultura","lat":5.193774928619862,"lng":-74.48866193697356,"avgVisitMinutes":36,"estimatedCostEur":25,"score":4.837263529648364},{"id":"utica_1114","citySlug":"utica","name":"Mirador de Útica","category":"mirador","lat":5.186020045929545,"lng":-74.47605831598788,"avgVisitMinutes":36,"estimatedCostEur":23,"score":1.1554611138560953},{"id":"utica_9360","citySlug":"utica","name":"Iglesia de Útica","category":"historia","lat":5.18608758903731,"lng":-74.48270701684899,"avgVisitMinutes":31,"estimatedCostEur":11,"score":2.298808223989745},