{"country":"CU","pois":[{"id":"zaza-del-medio_3408","citySlug":"zaza-del-medio","name":"Centro de Arte de Zaza del Medio","category":"cultura","lat":21.989477300481465,"lng":-79.3595622715776,"avgVisitMinutes":67,"estimatedCostEur":8,"score":1.3976138446094963},{"id":"zaza-del-medio_5428","citySlug":"zaza-del-medio","name":"Teatro Municipal","category":"cultura","lat":22.001999132010738,"lng":-79.35805592127494,"avgVisitMinutes":34,"estimatedCostEur":22,"score":4.351836272352311},{"id":"zaza-del-medio_3969","citySlug":"zaza-del-medio","name":"Parque Central","category":"ocio","lat":21.99433291486038,"lng":-79.3642536874778,"avgVisitMinutes":28,"estimatedCostEur":24,"score":1.5863303689040489},{"id":"zaza-del-medio_9989","citySlug":"zaza-del-medio","name":"Teatro Municipal","category":"cultura","lat":21.993135010436262,"lng":-79.37448056158233,"avgVisitMinutes":41,"estimatedCostEur":21,"score":3.5489731207772843},{"id":"zaza-del-medio_6000","citySlug":"zaza-del-medio","name":"Playa Central","category":"playa","lat":21.99044546909148,"lng":-79.3701689368393,"avgVisitMinutes":62,"estimatedCostEur":13,"score":3.095612119012409},{"id":"zaza-del-medio_8018","citySlug":"zaza-del-medio","name":"Centro de Arte de Zaza del Medio","category":"cultura","lat":21.987248098023915,"lng":-79.36888905365797,"avgVisitMinutes":69,"estimatedCostEur":18,"score":4.148859180672236},{"id":"zaza-del-medio_2676","citySlug":"zaza-del-medio","name":"Galería de Arte","category":"cultura","lat":21.995117523241284,"lng":-79.37272509893916,"avgVisitMinutes":23,"estimatedCostEur":10,"score":4.894580114649158},{"id":"zaza-del-medio_7672","citySlug":"zaza-del-medio","name":"Galería de Arte","category":"cultura","lat":21.988649271706343,"lng":-79.3678592106238,"avgVisitMinutes":41,"estimatedCostEur":21,"score":4.7157100754055135},{"id":"zaza-del-medio_4609","citySlug":"zaza-del-medio","name":"Mirador de Zaza del Medio","category":"mirador","lat":22.006024100328606,"lng":-79.3650611680254,"avgVisitMinutes":47,"estimatedCostEur":6,"score":2.6250059807169333},{"id":"zaza-del-medio_8879","citySlug":"zaza-del-medio","name":"Parque Central","category":"ocio","lat":21.99737624531575,"lng":-79.36894230291453,"avgVisitMinutes":21,"estimatedCostEur":4,"score":1.476688551122142},{"id":"yara_5585","citySlug":"yara","name":"Ruta de Tapas","category":"gastronomia","lat":20.28096573644515,"lng":-76.94849970955886,"avgVisitMinutes":65,"estimatedCostEur":12,"score":1.3255375716551359},{"id":"yara_2697","citySlug":"yara","name":"Mirador de Yara","category":"mirador","lat":20.269129262353125,"lng":-76.96047882710306,"avgVisitMinutes":89,"estimatedCostEur":7,"score":2.1146174500038475},{"id":"yara_3811","citySlug":"yara","name":"Teatro Municipal","category":"cultura","lat":20.283587462660563,"lng":-76.94813575277959,"avgVisitMinutes":32,"estimatedCostEur":4,"score":2.208828716027544},{"id":"yara_2703","citySlug":"yara","name":"Vista Alta de Yara","category":"mirador","lat":20.27378725510484,"lng":-76.95991934003142,"avgVisitMinutes":77,"estimatedCostEur":13,"score":1.7146263258093164},{"id":"yara_9522","citySlug":"yara","name":"Iglesia de Yara","category":"historia","lat":20.266314550873815,"lng":-76.94878085868203,"avgVisitMinutes":45,"estimatedCostEur":6,"score":0.6775163805870341},{"id":"yara_6432","citySlug":"yara","name":"Parque Central","category":"ocio","lat":20.26593550611943,"lng":-76.96143581072114,"avgVisitMinutes":43,"estimatedCostEur":9,"score":0.7615997481595072},{"id":"yara_3241","citySlug":"yara","name":"Centro de Arte de Yara","category":"cultura","lat":20.28102741414933,"lng":-76.96060090958959,"avgVisitMinutes":45,"estimatedCostEur":8,"score":1.2432668296080018},{"id":"yaguajay_8894","citySlug":"yaguajay","name":"Parque Central","category":"ocio","lat":22.33302117118269,"lng":-79.24256376229117,"avgVisitMinutes":72,"estimatedCostEur":18,"score":4.730276007008107},{"id":"yaguajay_1781","citySlug":"yaguajay","name":"Museo Cultural de Yaguajay","category":"cultura","lat":22.336010747932576,"lng":-79.24603631545895,"avgVisitMinutes":21,"estimatedCostEur":15,"score":3.334781885777695},{"id":"yaguajay_9789","citySlug":"yaguajay","name":"Mercado Gastronómico","category":"gastronomia","lat":22.32044568965902,"lng":-79.23422249768672,"avgVisitMinutes":56,"estimatedCostEur":11,"score":1.6160477713488337},{"id":"yaguajay_2290","citySlug":"yaguajay","name":"Punto Panorámico","category":"mirador","lat":22.318072964900825,"lng":-79.22812461202192,"avgVisitMinutes":68,"estimatedCostEur":0,"score":1.1530887738076339},{"id":"yaguajay_5151","citySlug":"yaguajay","name":"Playa Sur","category":"playa","lat":22.317935465949464,"lng":-79.22748416374999,"avgVisitMinutes":68,"estimatedCostEur":11,"score":4.98212636270936},{"id":"yaguajay_5021","citySlug":"yaguajay","name":"Teatro Municipal","category":"cultura","lat":22.332911693925695,"lng":-79.23333851423476,"avgVisitMinutes":83,"estimatedCostEur":4,"score":3.98811317865211},{"id":"yaguajay_9753","citySlug":"yaguajay","name":"Murallas de Yaguajay","category":"historia","lat":22.332760806645595,"lng":-79.23036318637728,"avgVisitMinutes":72,"estimatedCostEur":11,"score":3.109250162763308},{"id":"yaguajay_3682","citySlug":"yaguajay","name":"Mirador de Yaguajay","category":"mirador","lat":22.331883075868348,"lng":-79.2356779708843,"avgVisitMinutes":67,"estimatedCostEur":18,"score":3.1065494287107973},{"id":"yaguajay_3167","citySlug":"yaguajay","name":"Parque Central","category":"ocio","lat":22.325452158483788,"lng":-79.2310308370505,"avgVisitMinutes":27,"estimatedCostEur":0,"score":3.4363031824552968},{"id":"yaguajay_8281","citySlug":"yaguajay","name":"Playa Norte","category":"playa","lat":22.326249588004476,"lng":-79.23561633024912,"avgVisitMinutes":29,"estimatedCostEur":9,"score":1.968113590289341},{"id":"vinales_5099","citySlug":"vinales","name":"Mirador de Viñales","category":"mirador","lat":22.613030787373905,"lng":-83.71229739656182,"avgVisitMinutes":50,"estimatedCostEur":23,"score":2.1861145709728573},{"id":"vinales_2609","citySlug":"vinales","name":"Punto Panorámico","category":"mirador","lat":22.61166490598966,"lng":-83.70142792154289,"avgVisitMinutes":85,"estimatedCostEur":7,"score":2.3728000334166977},{"id":"vinales_8157","citySlug":"vinales","name":"Restaurante Típico de Viñales","category":"gastronomia","lat":22.621494250815317,"lng":-83.71146938868897,"avgVisitMinutes":42,"estimatedCostEur":10,"score":3.9392673734187733},{"id":"vinales_3097","citySlug":"vinales","name":"Iglesia de Viñales","category":"historia","lat":22.62556855789825,"lng":-83.70907550461186,"avgVisitMinutes":21,"estimatedCostEur":25,"score":0.5700769579489654},{"id":"vinales_9412","citySlug":"vinales","name":"Parque Central","category":"ocio","lat":22.617161684622516,"lng":-83.71149465955433,"avgVisitMinutes":70,"estimatedCostEur":12,"score":2.4488012222940174},{"id":"vinales_2069","citySlug":"vinales","name":"Parque Central","category":"ocio","lat":22.612495206046876,"lng":-83.71170967788586,"avgVisitMinutes":40,"estimatedCostEur":0,"score":2.0911465054623424},{"id":"vinales_2508","citySlug":"vinales","name":"Mercado Gastronómico","category":"gastronomia","lat":22.62055889840743,"lng":-83.70083085736633,"avgVisitMinutes":47,"estimatedCostEur":12,"score":2.8717161956466444},{"id":"vinales_2423","citySlug":"vinales","name":"Parque Central","category":"ocio","lat":22.62306907745644,"lng":-83.70990439131903,"avgVisitMinutes":55,"estimatedCostEur":20,"score":4.7234607188325946},{"id":"vinales_6214","citySlug":"vinales","name":"Playa Sur","category":"playa","lat":22.616524281016343,"lng":-83.70500958371895,"avgVisitMinutes":67,"estimatedCostEur":23,"score":3.272809838587676},{"id":"vinales_9921","citySlug":"vinales","name":"Castillo de Viñales","category":"historia","lat":22.61646728348335,"lng":-83.69699972324713,"avgVisitMinutes":84,"estimatedCostEur":21,"score":3.239685110726756},{"id":"vinales_1188","citySlug":"vinales","name":"Centro Histórico","category":"historia","lat":22.628072589945155,"lng":-83.70866285866225,"avgVisitMinutes":26,"estimatedCostEur":4,"score":3.470011558038091},{"id":"vinales_8682","citySlug":"vinales","name":"Restaurante Típico de Viñales","category":"gastronomia","lat":22.614829338377483,"lng":-83.70555078321627,"avgVisitMinutes":23,"estimatedCostEur":25,"score":1.3714021521159268},{"id":"vertientes_2027","citySlug":"vertientes","name":"Playa Sur","category":"playa","lat":21.250498971677477,"lng":-78.15865104280337,"avgVisitMinutes":22,"estimatedCostEur":25,"score":3.0241882764327044},{"id":"vertientes_6021","citySlug":"vertientes","name":"Museo Local de Vertientes","category":"historia","lat":21.261303069281936,"lng":-78.14812970965512,"avgVisitMinutes":79,"estimatedCostEur":11,"score":0.8379397769319361},{"id":"vertientes_6720","citySlug":"vertientes","name":"Mercado Gastronómico","category":"gastronomia","lat":21.262269647443304,"lng":-78.14916760722735,"avgVisitMinutes":44,"estimatedCostEur":1,"score":1.6755505758102358},{"id":"vertientes_1162","citySlug":"vertientes","name":"Teatro Municipal","category":"cultura","lat":21.25102740209758,"lng":-78.14615494300607,"avgVisitMinutes":73,"estimatedCostEur":25,"score":1.8491606583420137},{"id":"vertientes_5732","citySlug":"vertientes","name":"Vista Alta de Vertientes","category":"mirador","lat":21.256244526873164,"lng":-78.14938143168801,"avgVisitMinutes":37,"estimatedCostEur":8,"score":3.8452126019219914},{"id":"vertientes_3195","citySlug":"vertientes","name":"Teatro Municipal","category":"cultura","lat":21.268212269921793,"lng":-78.14509610650893,"avgVisitMinutes":32,"estimatedCostEur":21,"score":4.45318293236172},{"id":"vertientes_5301","citySlug":"vertientes","name":"Museo Local de Vertientes","category":"historia","lat":21.266233436963844,"lng":-78.15210232836041,"avgVisitMinutes":58,"estimatedCostEur":8,"score":1.5249173757883294},{"id":"venezuela_7575","citySlug":"venezuela","name":"Parque Central","category":"ocio","lat":21.743637850431313,"lng":-78.78694357598282,"avgVisitMinutes":20,"estimatedCostEur":25,"score":4.482032030884065},{"id":"venezuela_5675","citySlug":"venezuela","name":"Parque Central","category":"ocio","lat":21.728545883638287,"lng":-78.7854361403246,"avgVisitMinutes":31,"estimatedCostEur":13,"score":4.6172234517843975},{"id":"venezuela_1498","citySlug":"venezuela","name":"Centro de Arte de Venezuela","category":"cultura","lat":21.743399565768268,"lng":-78.78906181927331,"avgVisitMinutes":31,"estimatedCostEur":21,"score":2.5270265560396825},{"id":"venezuela_2812","citySlug":"venezuela","name":"Mirador de Venezuela","category":"mirador","lat":21.739073619889467,"lng":-78.78827146869149,"avgVisitMinutes":79,"estimatedCostEur":5,"score":3.166175643666568},{"id":"venezuela_1559","citySlug":"venezuela","name":"Galería de Arte","category":"cultura","lat":21.74282488072994,"lng":-78.78540852299233,"avgVisitMinutes":82,"estimatedCostEur":12,"score":3.9457709139107116},{"id":"venezuela_7126","citySlug":"venezuela","name":"Museo Local de Venezuela","category":"historia","lat":21.729703675619042,"lng":-78.79035410532794,"avgVisitMinutes":54,"estimatedCostEur":11,"score":1.978000054589513},{"id":"venezuela_7759","citySlug":"venezuela","name":"Restaurante Típico de Venezuela","category":"gastronomia","lat":21.747787301350858,"lng":-78.78978610859174,"avgVisitMinutes":78,"estimatedCostEur":12,"score":1.8908744782282345},{"id":"vega-alta_7183","citySlug":"vega-alta","name":"Museo Local de Vega Alta","category":"historia","lat":22.544239496996923,"lng":-79.82296148278914,"avgVisitMinutes":68,"estimatedCostEur":0,"score":2.3550875956810495},{"id":"vega-alta_2464","citySlug":"vega-alta","name":"Vista Alta de Vega Alta","category":"mirador","lat":22.55932443748659,"lng":-79.81361243386374,"avgVisitMinutes":77,"estimatedCostEur":19,"score":3.3051812638753275},{"id":"vega-alta_2901","citySlug":"vega-alta","name":"Museo Cultural de Vega Alta","category":"cultura","lat":22.557364429446434,"lng":-79.82391532052739,"avgVisitMinutes":49,"estimatedCostEur":23,"score":3.5732583119586834},{"id":"vega-alta_1153","citySlug":"vega-alta","name":"Vista Alta de Vega Alta","category":"mirador","lat":22.546425045124398,"lng":-79.82472188399737,"avgVisitMinutes":80,"estimatedCostEur":7,"score":1.6042320846958558},{"id":"vega-alta_2774","citySlug":"vega-alta","name":"Restaurante Típico de Vega Alta","category":"gastronomia","lat":22.553059302733057,"lng":-79.81798896257074,"avgVisitMinutes":32,"estimatedCostEur":15,"score":2.1438390806695256},{"id":"vega-alta_7695","citySlug":"vega-alta","name":"Playa Central","category":"playa","lat":22.558908498234263,"lng":-79.81524199508978,"avgVisitMinutes":60,"estimatedCostEur":17,"score":4.724627872379177},{"id":"vega-alta_4781","citySlug":"vega-alta","name":"Museo Local de Vega Alta","category":"historia","lat":22.552945680406438,"lng":-79.81407458287124,"avgVisitMinutes":37,"estimatedCostEur":20,"score":4.505675516006285},{"id":"vega-alta_1498","citySlug":"vega-alta","name":"Mercado Gastronómico","category":"gastronomia","lat":22.552101127243873,"lng":-79.81790070071885,"avgVisitMinutes":30,"estimatedCostEur":20,"score":3.1570826201196307},{"id":"vega-alta_2982","citySlug":"vega-alta","name":"Vista Alta de Vega Alta","category":"mirador","lat":22.55318433231305,"lng":-79.82819209740545,"avgVisitMinutes":77,"estimatedCostEur":9,"score":4.457492157709099},{"id":"vega-alta_4890","citySlug":"vega-alta","name":"Mercado Gastronómico","category":"gastronomia","lat":22.550547690395824,"lng":-79.82703071585117,"avgVisitMinutes":37,"estimatedCostEur":9,"score":1.4097683732709925},{"id":"vega-alta_2011","citySlug":"vega-alta","name":"Murallas de Vega Alta","category":"historia","lat":22.553059765178837,"lng":-79.81533793873525,"avgVisitMinutes":68,"estimatedCostEur":12,"score":2.3288156843503716},{"id":"varadero_3598","citySlug":"varadero","name":"Restaurante Típico de Varadero","category":"gastronomia","lat":23.1627031948069,"lng":-81.23886778045248,"avgVisitMinutes":52,"estimatedCostEur":20,"score":1.1857365286876376},{"id":"varadero_6686","citySlug":"varadero","name":"Playa Norte","category":"playa","lat":23.15684028157482,"lng":-81.24805710701511,"avgVisitMinutes":57,"estimatedCostEur":19,"score":4.450408456624764},{"id":"varadero_8026","citySlug":"varadero","name":"Teatro Municipal","category":"cultura","lat":23.161439380348703,"lng":-81.23463396690941,"avgVisitMinutes":86,"estimatedCostEur":8,"score":2.165524907978779},{"id":"varadero_7975","citySlug":"varadero","name":"Murallas de Varadero","category":"historia","lat":23.147037498299603,"lng":-81.24670008648648,"avgVisitMinutes":31,"estimatedCostEur":19,"score":2.8719367527123723},{"id":"varadero_1346","citySlug":"varadero","name":"Ruta de Tapas","category":"gastronomia","lat":23.15018731700739,"lng":-81.23863594704436,"avgVisitMinutes":38,"estimatedCostEur":14,"score":4.437334832782618},{"id":"varadero_1824","citySlug":"varadero","name":"Mercado Gastronómico","category":"gastronomia","lat":23.146986720777274,"lng":-81.25376363097081,"avgVisitMinutes":86,"estimatedCostEur":3,"score":0.8452776747703354},{"id":"varadero_8649","citySlug":"varadero","name":"Castillo de Varadero","category":"historia","lat":23.15503149644176,"lng":-81.24778676331573,"avgVisitMinutes":30,"estimatedCostEur":25,"score":1.0149990505604811},{"id":"varadero_7727","citySlug":"varadero","name":"Mirador de Varadero","category":"mirador","lat":23.162522735013006,"lng":-81.24963394243576,"avgVisitMinutes":69,"estimatedCostEur":4,"score":4.575177588090029},{"id":"varadero_9314","citySlug":"varadero","name":"Castillo de Varadero","category":"historia","lat":23.158029487532765,"lng":-81.24308175366536,"avgVisitMinutes":31,"estimatedCostEur":19,"score":4.126183481147325},{"id":"san-german_2002","citySlug":"san-german","name":"Playa Central","category":"playa","lat":20.589760499050794,"lng":-76.14280020835346,"avgVisitMinutes":29,"estimatedCostEur":16,"score":3.0967609609748723},{"id":"san-german_2476","citySlug":"san-german","name":"Zona Comercial","category":"ocio","lat":20.601531754927304,"lng":-76.12689865039012,"avgVisitMinutes":32,"estimatedCostEur":25,"score":2.4646901743776635},{"id":"san-german_9179","citySlug":"san-german","name":"Teatro Municipal","category":"cultura","lat":20.608155657306973,"lng":-76.13976269632253,"avgVisitMinutes":25,"estimatedCostEur":22,"score":0.5499153903040374},{"id":"san-german_2465","citySlug":"san-german","name":"Teatro Municipal","category":"cultura","lat":20.60803607570269,"lng":-76.13938829975724,"avgVisitMinutes":70,"estimatedCostEur":18,"score":3.5950092164524943},{"id":"san-german_8009","citySlug":"san-german","name":"Restaurante Típico de San Germán","category":"gastronomia","lat":20.597101687186196,"lng":-76.13377753900095,"avgVisitMinutes":43,"estimatedCostEur":12,"score":1.3221210721854986},{"id":"san-german_3848","citySlug":"san-german","name":"Restaurante Típico de San Germán","category":"gastronomia","lat":20.60376702140481,"lng":-76.14070152976757,"avgVisitMinutes":67,"estimatedCostEur":6,"score":4.124787477161183},{"id":"san-german_4904","citySlug":"san-german","name":"Castillo de San Germán","category":"historia","lat":20.595091690787058,"lng":-76.13133615810673,"avgVisitMinutes":43,"estimatedCostEur":13,"score":4.093465717129317},{"id":"union-de-reyes_3094","citySlug":"union-de-reyes","name":"Ruta de Tapas","category":"gastronomia","lat":22.801320752670318,"lng":-81.53177725148888,"avgVisitMinutes":66,"estimatedCostEur":2,"score":3.8974695439950007},{"id":"union-de-reyes_9698","citySlug":"union-de-reyes","name":"Iglesia de Unión de Reyes","category":"historia","lat":22.801203219766318,"lng":-81.53629567706203,"avgVisitMinutes":30,"estimatedCostEur":14,"score":1.5452450061652518},{"id":"union-de-reyes_4143","citySlug":"union-de-reyes","name":"Mirador de Unión de Reyes","category":"mirador","lat":22.79756267212246,"lng":-81.530390203764,"avgVisitMinutes":45,"estimatedCostEur":1,"score":0.9208617928819492},{"id":"union-de-reyes_5231","citySlug":"union-de-reyes","name":"Playa Sur","category":"playa","lat":22.798018412720154,"lng":-81.53353121218369,"avgVisitMinutes":46,"estimatedCostEur":0,"score":3.8461569874405415},{"id":"union-de-reyes_6094","citySlug":"union-de-reyes","name":"Playa Central","category":"playa","lat":22.7952871587437,"lng":-81.54145597939731,"avgVisitMinutes":50,"estimatedCostEur":12,"score":4.566093031485171},{"id":"union-de-reyes_2795","citySlug":"union-de-reyes","name":"Centro de Arte de Unión de Reyes","category":"cultura","lat":22.78639124725922,"lng":-81.53654693205603,"avgVisitMinutes":49,"estimatedCostEur":13,"score":1.9554976463091451},{"id":"union-de-reyes_5777","citySlug":"union-de-reyes","name":"Zona Comercial","category":"ocio","lat":22.785754749306747,"lng":-81.52964704255535,"avgVisitMinutes":77,"estimatedCostEur":5,"score":4.862230421790286},{"id":"union-de-reyes_9757","citySlug":"union-de-reyes","name":"Punto Panorámico","category":"mirador","lat":22.79454983825051,"lng":-81.53398100315275,"avgVisitMinutes":37,"estimatedCostEur":25,"score":1.0769106827878967},{"id":"union-de-reyes_7057","citySlug":"union-de-reyes","name":"Punto Panorámico","category":"mirador","lat":22.795581444768168,"lng":-81.52819162078,"avgVisitMinutes":63,"estimatedCostEur":25,"score":3.689000966836926},{"id":"trinidad_8359","citySlug":"trinidad","name":"Teatro Municipal","category":"cultura","lat":21.806643357716897,"lng":-79.9874613004678,"avgVisitMinutes":57,"estimatedCostEur":12,"score":4.908078649137457},{"id":"trinidad_5266","citySlug":"trinidad","name":"Playa Central","category":"playa","lat":21.80203633471315,"lng":-79.98240072166973,"avgVisitMinutes":90,"estimatedCostEur":17,"score":0.5454311782213848},{"id":"trinidad_3131","citySlug":"trinidad","name":"Centro Histórico","category":"historia","lat":21.797540576557353,"lng":-79.9772438695416,"avgVisitMinutes":76,"estimatedCostEur":22,"score":4.31042322294979},{"id":"trinidad_8659","citySlug":"trinidad","name":"Playa Sur","category":"playa","lat":21.80104225506429,"lng":-79.99094060604816,"avgVisitMinutes":34,"estimatedCostEur":14,"score":3.2223178745831698},{"id":"trinidad_4928","citySlug":"trinidad","name":"Restaurante Típico de Trinidad","category":"gastronomia","lat":21.798264451356232,"lng":-79.99155352904376,"avgVisitMinutes":57,"estimatedCostEur":9,"score":4.707203074906814},{"id":"trinidad_2642","citySlug":"trinidad","name":"Playa Sur","category":"playa","lat":21.795796195008162,"lng":-79.99146212641003,"avgVisitMinutes":89,"estimatedCostEur":22,"score":2.31329194989973},{"id":"trinidad_5202","citySlug":"trinidad","name":"Restaurante Típico de Trinidad","category":"gastronomia","lat":21.809176914930216,"lng":-79.97786248202125,"avgVisitMinutes":47,"estimatedCostEur":3,"score":1.4706038643649677},{"id":"trinidad_5837","citySlug":"trinidad","name":"Parque Central","category":"ocio","lat":21.80641128815147,"lng":-79.97568443958305,"avgVisitMinutes":29,"estimatedCostEur":16,"score":2.0510992163523403},{"id":"trinidad_1720","citySlug":"trinidad","name":"Paseo Principal","category":"ocio","lat":21.805637710980083,"lng":-79.98548707721451,"avgVisitMinutes":54,"estimatedCostEur":4,"score":2.9823666862102787},{"id":"trinidad_6556","citySlug":"trinidad","name":"Centro Histórico","category":"historia","lat":21.79887612496425,"lng":-79.98012275240839,"avgVisitMinutes":78,"estimatedCostEur":9,"score":4.366471675244127},{"id":"trinidad_8699","citySlug":"trinidad","name":"Vista Alta de Trinidad","category":"mirador","lat":21.795187513227333,"lng":-79.9766373534561,"avgVisitMinutes":34,"estimatedCostEur":11,"score":1.8369905367763004},{"id":"topes-de-collantes_8209","citySlug":"topes-de-collantes","name":"Restaurante Típico de Topes de Collantes","category":"gastronomia","lat":21.916505892856765,"lng":-80.01421291217795,"avgVisitMinutes":49,"estimatedCostEur":14,"score":1.065442110728149},{"id":"topes-de-collantes_9109","citySlug":"topes-de-collantes","name":"Paseo Principal","category":"ocio","lat":21.91148026846857,"lng":-80.01480838144128,"avgVisitMinutes":22,"estimatedCostEur":2,"score":1.2671868184872603},{"id":"topes-de-collantes_9785","citySlug":"topes-de-collantes","name":"Punto Panorámico","category":"mirador","lat":21.916636553901352,"lng":-80.01286094984499,"avgVisitMinutes":57,"estimatedCostEur":8,"score":4.680416401888947},{"id":"topes-de-collantes_1599","citySlug":"topes-de-collantes","name":"Zona Comercial","category":"ocio","lat":21.91648144936074,"lng":-80.00960407630959,"avgVisitMinutes":29,"estimatedCostEur":13,"score":2.4777829415450405},{"id":"topes-de-collantes_1316","citySlug":"topes-de-collantes","name":"Galería de Arte","category":"cultura","lat":21.908699884313876,"lng":-80.01862751052225,"avgVisitMinutes":38,"estimatedCostEur":19,"score":1.2762259324577758},{"id":"topes-de-collantes_5665","citySlug":"topes-de-collantes","name":"Teatro Municipal","category":"cultura","lat":21.92325954706473,"lng":-80.02012352536094,"avgVisitMinutes":77,"estimatedCostEur":22,"score":1.2862391497843555},{"id":"topes-de-collantes_9511","citySlug":"topes-de-collantes","name":"Centro de Arte de Topes de Collantes","category":"cultura","lat":21.922396528565873,"lng":-80.01297346940848,"avgVisitMinutes":89,"estimatedCostEur":16,"score":4.566387078001909},{"id":"topes-de-collantes_4190","citySlug":"topes-de-collantes","name":"Parque Central","category":"ocio","lat":21.906260257368398,"lng":-80.00914500480862,"avgVisitMinutes":24,"estimatedCostEur":5,"score":4.764378896492158},{"id":"tarara_8834","citySlug":"tarara","name":"Restaurante Típico de Tarará","category":"gastronomia","lat":23.174672164761635,"lng":-82.19718202211503,"avgVisitMinutes":32,"estimatedCostEur":14,"score":1.2657586576634647},{"id":"tarara_3652","citySlug":"tarara","name":"Zona Comercial","category":"ocio","lat":23.18349012274371,"lng":-82.2156889238439,"avgVisitMinutes":49,"estimatedCostEur":11,"score":1.009023426208406},{"id":"tarara_1807","citySlug":"tarara","name":"Mercado Gastronómico","category":"gastronomia","lat":23.17208817074649,"lng":-82.20010306348526,"avgVisitMinutes":76,"estimatedCostEur":13,"score":2.290684199956706},{"id":"tarara_4087","citySlug":"tarara","name":"Centro de Arte de Tarará","category":"cultura","lat":23.17344641179301,"lng":-82.2018296259188,"avgVisitMinutes":65,"estimatedCostEur":1,"score":4.836898697333776},{"id":"tarara_8875","citySlug":"tarara","name":"Castillo de Tarará","category":"historia","lat":23.168371247168373,"lng":-82.214793345553,"avgVisitMinutes":82,"estimatedCostEur":22,"score":1.9417697322697793},{"id":"tarara_3043","citySlug":"tarara","name":"Parque Central","category":"ocio","lat":23.166683127087335,"lng":-82.21111562320081,"avgVisitMinutes":75,"estimatedCostEur":19,"score":0.906682876906453},{"id":"tarara_7713","citySlug":"tarara","name":"Murallas de Tarará","category":"historia","lat":23.17371868457805,"lng":-82.21044641659275,"avgVisitMinutes":84,"estimatedCostEur":22,"score":2.932391482828712},{"id":"tarara_9588","citySlug":"tarara","name":"Mirador de Tarará","category":"mirador","lat":23.177499944525476,"lng":-82.20953276972678,"avgVisitMinutes":54,"estimatedCostEur":25,"score":1.2210276091629595},{"id":"tarara_5152","citySlug":"tarara","name":"Playa Central","category":"playa","lat":23.166422551122743,"lng":-82.20626389267053,"avgVisitMinutes":82,"estimatedCostEur":10,"score":4.425581970902458},{"id":"tarara_4001","citySlug":"tarara","name":"Zona Comercial","category":"ocio","lat":23.171934810881872,"lng":-82.20230310612918,"avgVisitMinutes":50,"estimatedCostEur":13,"score":2.392667656312342},{"id":"soroa_1592","citySlug":"soroa","name":"Parque Central","category":"ocio","lat":22.791313596515106,"lng":-83.00261116497576,"avgVisitMinutes":90,"estimatedCostEur":18,"score":4.989072203049061},{"id":"soroa_8997","citySlug":"soroa","name":"Centro de Arte de Soroa","category":"cultura","lat":22.798071528280683,"lng":-83.0199690227714,"avgVisitMinutes":42,"estimatedCostEur":24,"score":1.3312322458354324},{"id":"soroa_4356","citySlug":"soroa","name":"Ruta de Tapas","category":"gastronomia","lat":22.79339825160772,"lng":-83.01521961850902,"avgVisitMinutes":43,"estimatedCostEur":25,"score":3.5810347343689224},{"id":"soroa_1840","citySlug":"soroa","name":"Galería de Arte","category":"cultura","lat":22.801197440109817,"lng":-83.01786006040207,"avgVisitMinutes":79,"estimatedCostEur":10,"score":1.8166705362587021},{"id":"soroa_9985","citySlug":"soroa","name":"Murallas de Soroa","category":"historia","lat":22.80149273894294,"lng":-83.00342280639624,"avgVisitMinutes":76,"estimatedCostEur":2,"score":1.7802256963232248},{"id":"soroa_5965","citySlug":"soroa","name":"Mirador de Soroa","category":"mirador","lat":22.79301376433347,"lng":-83.01878260192068,"avgVisitMinutes":20,"estimatedCostEur":25,"score":0.8348399839383938},{"id":"sibanicu_4211","citySlug":"sibanicu","name":"Punto Panorámico","category":"mirador","lat":21.240427204373656,"lng":-77.53237415006514,"avgVisitMinutes":25,"estimatedCostEur":4,"score":3.5952002746706824},{"id":"sibanicu_2550","citySlug":"sibanicu","name":"Zona Comercial","category":"ocio","lat":21.226416891759786,"lng":-77.52511411029235,"avgVisitMinutes":70,"estimatedCostEur":24,"score":2.5655228630045612},{"id":"sibanicu_7431","citySlug":"sibanicu","name":"Teatro Municipal","category":"cultura","lat":21.228613709953574,"lng":-77.52490457524733,"avgVisitMinutes":90,"estimatedCostEur":20,"score":3.1730932622535417},{"id":"sibanicu_1247","citySlug":"sibanicu","name":"Playa Sur","category":"playa","lat":21.237133433116096,"lng":-77.5232261708097,"avgVisitMinutes":57,"estimatedCostEur":19,"score":1.2148909839801956},{"id":"sibanicu_1397","citySlug":"sibanicu","name":"Playa Norte","category":"playa","lat":21.241448368823626,"lng":-77.52223060491725,"avgVisitMinutes":64,"estimatedCostEur":19,"score":4.849953880667412},{"id":"sibanicu_9792","citySlug":"sibanicu","name":"Museo Cultural de Sibanicú","category":"cultura","lat":21.228926275598624,"lng":-77.52123464111858,"avgVisitMinutes":30,"estimatedCostEur":25,"score":0.6687006176910628},{"id":"santo-domingo_7687","citySlug":"santo-domingo","name":"Paseo Principal","category":"ocio","lat":22.59425041346806,"lng":-80.25241560724453,"avgVisitMinutes":77,"estimatedCostEur":15,"score":2.255302501843703},{"id":"santo-domingo_7620","citySlug":"santo-domingo","name":"Playa Central","category":"playa","lat":22.580732333422507,"lng":-80.24077268343257,"avgVisitMinutes":88,"estimatedCostEur":3,"score":4.266926493728864},{"id":"santo-domingo_4982","citySlug":"santo-domingo","name":"Castillo de Santo Domingo","category":"historia","lat":22.580439884622702,"lng":-80.25028362451403,"avgVisitMinutes":64,"estimatedCostEur":7,"score":3.026092365182179},{"id":"santo-domingo_6275","citySlug":"santo-domingo","name":"Castillo de Santo Domingo","category":"historia","lat":22.588383555304617,"lng":-80.2394894350295,"avgVisitMinutes":76,"estimatedCostEur":21,"score":0.5233094485694456},{"id":"santo-domingo_5025","citySlug":"santo-domingo","name":"Playa Central","category":"playa","lat":22.584574075477057,"lng":-80.24033908446408,"avgVisitMinutes":35,"estimatedCostEur":8,"score":4.6498529813258065},{"id":"santo-domingo_3449","citySlug":"santo-domingo","name":"Vista Alta de Santo Domingo","category":"mirador","lat":22.579870064919927,"lng":-80.24999649650805,"avgVisitMinutes":48,"estimatedCostEur":9,"score":3.9128767721280773},{"id":"santo-domingo_4804","citySlug":"santo-domingo","name":"Ruta de Tapas","category":"gastronomia","lat":22.5932128882174,"lng":-80.24360980581613,"avgVisitMinutes":71,"estimatedCostEur":24,"score":1.0183257901876526},{"id":"santo-domingo_4302","citySlug":"santo-domingo","name":"Playa Central","category":"playa","lat":22.594096566198598,"lng":-80.24840257326613,"avgVisitMinutes":47,"estimatedCostEur":1,"score":1.3833624491523087},{"id":"santo-domingo_6543","citySlug":"santo-domingo","name":"Museo Cultural de Santo Domingo","category":"cultura","lat":22.57746179557938,"lng":-80.24231292711032,"avgVisitMinutes":24,"estimatedCostEur":13,"score":0.6870136247486209},{"id":"santiago-de-las-vegas_2829","citySlug":"santiago-de-las-vegas","name":"Parque Central","category":"ocio","lat":22.97600272642914,"lng":-82.3937197803395,"avgVisitMinutes":76,"estimatedCostEur":2,"score":2.052100144268139},{"id":"santiago-de-las-vegas_8510","citySlug":"santiago-de-las-vegas","name":"Ruta de Tapas","category":"gastronomia","lat":22.964286240626432,"lng":-82.37876715945897,"avgVisitMinutes":85,"estimatedCostEur":7,"score":2.587515747055702},{"id":"santiago-de-las-vegas_8289","citySlug":"santiago-de-las-vegas","name":"Parque Central","category":"ocio","lat":22.97813422126812,"lng":-82.38098547355254,"avgVisitMinutes":41,"estimatedCostEur":2,"score":1.4238306964398324},{"id":"santiago-de-las-vegas_1638","citySlug":"santiago-de-las-vegas","name":"Punto Panorámico","category":"mirador","lat":22.9787220265137,"lng":-82.39652539885641,"avgVisitMinutes":72,"estimatedCostEur":6,"score":1.6778275004562153},{"id":"santiago-de-las-vegas_6562","citySlug":"santiago-de-las-vegas","name":"Restaurante Típico de Santiago de las Vegas","category":"gastronomia","lat":22.96941785653259,"lng":-82.38108558329698,"avgVisitMinutes":33,"estimatedCostEur":7,"score":2.747956282682956},{"id":"santiago-de-las-vegas_9344","citySlug":"santiago-de-las-vegas","name":"Mercado Gastronómico","category":"gastronomia","lat":22.964734857284498,"lng":-82.39552464641014,"avgVisitMinutes":24,"estimatedCostEur":21,"score":4.612129147668762},{"id":"santiago-de-las-vegas_4227","citySlug":"santiago-de-las-vegas","name":"Playa Sur","category":"playa","lat":22.976870075850414,"lng":-82.38885668348021,"avgVisitMinutes":59,"estimatedCostEur":19,"score":2.6132912622535005},{"id":"santiago-de-las-vegas_9028","citySlug":"santiago-de-las-vegas","name":"Zona Comercial","category":"ocio","lat":22.961293858178806,"lng":-82.39453829975409,"avgVisitMinutes":59,"estimatedCostEur":21,"score":2.8339149172169633},{"id":"santiago-de-las-vegas_4056","citySlug":"santiago-de-las-vegas","name":"Zona Comercial","category":"ocio","lat":22.961077693921172,"lng":-82.3843074170234,"avgVisitMinutes":88,"estimatedCostEur":0,"score":3.389897583309933},{"id":"santiago-de-cuba_2011","citySlug":"santiago-de-cuba","name":"Parque Central","category":"ocio","lat":20.021983192305058,"lng":-75.82249928062795,"avgVisitMinutes":37,"estimatedCostEur":21,"score":4.585517210805722},{"id":"santiago-de-cuba_7233","citySlug":"santiago-de-cuba","name":"Restaurante Típico de Santiago de Cuba","category":"gastronomia","lat":20.02152286400438,"lng":-75.82536306349117,"avgVisitMinutes":27,"estimatedCostEur":16,"score":0.8684849805373789},{"id":"santiago-de-cuba_2240","citySlug":"santiago-de-cuba","name":"Parque Central","category":"ocio","lat":20.02124587246696,"lng":-75.82459500933597,"avgVisitMinutes":23,"estimatedCostEur":10,"score":2.65256905342439},{"id":"santiago-de-cuba_1107","citySlug":"santiago-de-cuba","name":"Playa Central","category":"playa","lat":20.019895208193734,"lng":-75.8120397439111,"avgVisitMinutes":54,"estimatedCostEur":5,"score":4.3649585077247455},{"id":"santiago-de-cuba_3099","citySlug":"santiago-de-cuba","name":"Museo Cultural de Santiago de Cuba","category":"cultura","lat":20.02374636384,"lng":-75.8153809620863,"avgVisitMinutes":52,"estimatedCostEur":8,"score":0.9383148346166368},{"id":"santiago-de-cuba_9087","citySlug":"santiago-de-cuba","name":"Museo Cultural de Santiago de Cuba","category":"cultura","lat":20.025793664984054,"lng":-75.81453472407618,"avgVisitMinutes":31,"estimatedCostEur":20,"score":0.7715983014957885},{"id":"santiago-de-cuba_5570","citySlug":"santiago-de-cuba","name":"Museo Local de Santiago de Cuba","category":"historia","lat":20.029669057837786,"lng":-75.82193875753185,"avgVisitMinutes":72,"estimatedCostEur":6,"score":0.8734502807054794},{"id":"santiago-de-cuba_9360","citySlug":"santiago-de-cuba","name":"Mercado Gastronómico","category":"gastronomia","lat":20.01636421925086,"lng":-75.81741131853347,"avgVisitMinutes":51,"estimatedCostEur":12,"score":2.7369770142026497},{"id":"santiago-de-cuba_7150","citySlug":"santiago-de-cuba","name":"Castillo de Santiago de Cuba","category":"historia","lat":20.01436777682862,"lng":-75.81592070993368,"avgVisitMinutes":32,"estimatedCostEur":1,"score":1.0763594946090573},{"id":"santiago-de-cuba_5609","citySlug":"santiago-de-cuba","name":"Ruta de Tapas","category":"gastronomia","lat":20.020189564590485,"lng":-75.82831757326468,"avgVisitMinutes":26,"estimatedCostEur":24,"score":2.928693865559504},{"id":"santa-cruz-del-sur_5530","citySlug":"santa-cruz-del-sur","name":"Punto Panorámico","category":"mirador","lat":20.720082163310654,"lng":-77.99364512916549,"avgVisitMinutes":78,"estimatedCostEur":3,"score":4.037219518526136},{"id":"santa-cruz-del-sur_6728","citySlug":"santa-cruz-del-sur","name":"Murallas de Santa Cruz del Sur","category":"historia","lat":20.705764136340516,"lng":-78.00334011906442,"avgVisitMinutes":35,"estimatedCostEur":20,"score":1.2576528722582787},{"id":"santa-cruz-del-sur_2558","citySlug":"santa-cruz-del-sur","name":"Paseo Principal","category":"ocio","lat":20.715397984377862,"lng":-77.9881246663521,"avgVisitMinutes":31,"estimatedCostEur":21,"score":2.232648167886858},{"id":"santa-cruz-del-sur_9716","citySlug":"santa-cruz-del-sur","name":"Vista Alta de Santa Cruz del Sur","category":"mirador","lat":20.71379323240042,"lng":-78.00132778781517,"avgVisitMinutes":83,"estimatedCostEur":20,"score":2.7585963084056595},{"id":"santa-cruz-del-sur_1539","citySlug":"santa-cruz-del-sur","name":"Mirador de Santa Cruz del Sur","category":"mirador","lat":20.710710075208993,"lng":-77.99895358243467,"avgVisitMinutes":88,"estimatedCostEur":23,"score":0.9011758453355803},{"id":"santa-cruz-del-sur_8383","citySlug":"santa-cruz-del-sur","name":"Mirador de Santa Cruz del Sur","category":"mirador","lat":20.72390984038181,"lng":-78.00327546103578,"avgVisitMinutes":40,"estimatedCostEur":11,"score":3.7319552939825407},{"id":"santa-cruz-del-sur_7702","citySlug":"santa-cruz-del-sur","name":"Punto Panorámico","category":"mirador","lat":20.715526599714124,"lng":-78.00185505969411,"avgVisitMinutes":30,"estimatedCostEur":19,"score":3.384739608804363},{"id":"santa-cruz-del-sur_4338","citySlug":"santa-cruz-del-sur","name":"Playa Norte","category":"playa","lat":20.719962184730285,"lng":-78.00057461760744,"avgVisitMinutes":59,"estimatedCostEur":23,"score":1.679417602742816},{"id":"santa-cruz-del-sur_7949","citySlug":"santa-cruz-del-sur","name":"Playa Sur","category":"playa","lat":20.72401000021289,"lng":-78.00405211555902,"avgVisitMinutes":76,"estimatedCostEur":16,"score":2.5890014216844235},{"id":"santa-cruz-del-sur_1987","citySlug":"santa-cruz-del-sur","name":"Ruta de Tapas","category":"gastronomia","lat":20.70810914482774,"lng":-78.00539012435478,"avgVisitMinutes":54,"estimatedCostEur":23,"score":1.3718895076346824},{"id":"santa-cruz-del-sur_3004","citySlug":"santa-cruz-del-sur","name":"Museo Local de Santa Cruz del Sur","category":"historia","lat":20.717991437122944,"lng":-77.98566738927744,"avgVisitMinutes":36,"estimatedCostEur":17,"score":3.938957496297461},{"id":"santa-cruz-del-norte_8071","citySlug":"santa-cruz-del-norte","name":"Ruta de Tapas","category":"gastronomia","lat":23.147785649428197,"lng":-81.92761781503039,"avgVisitMinutes":47,"estimatedCostEur":9,"score":4.360342018489154},{"id":"santa-cruz-del-norte_3692","citySlug":"santa-cruz-del-norte","name":"Teatro Municipal","category":"cultura","lat":23.147856659768628,"lng":-81.92389393550076,"avgVisitMinutes":42,"estimatedCostEur":9,"score":3.116884432133818},{"id":"santa-cruz-del-norte_2088","citySlug":"santa-cruz-del-norte","name":"Ruta de Tapas","category":"gastronomia","lat":23.158385821462428,"lng":-81.92995783964733,"avgVisitMinutes":70,"estimatedCostEur":13,"score":4.528254107847254},{"id":"santa-cruz-del-norte_6857","citySlug":"santa-cruz-del-norte","name":"Mirador de Santa Cruz del Norte","category":"mirador","lat":23.1536868629442,"lng":-81.92690093983761,"avgVisitMinutes":32,"estimatedCostEur":6,"score":3.804578772459843},{"id":"santa-cruz-del-norte_1331","citySlug":"santa-cruz-del-norte","name":"Vista Alta de Santa Cruz del Norte","category":"mirador","lat":23.155646835293105,"lng":-81.92765177520265,"avgVisitMinutes":64,"estimatedCostEur":22,"score":2.889432918124173},{"id":"santa-cruz-del-norte_1156","citySlug":"santa-cruz-del-norte","name":"Iglesia de Santa Cruz del Norte","category":"historia","lat":23.16097679550617,"lng":-81.93083132692061,"avgVisitMinutes":89,"estimatedCostEur":4,"score":4.386815593676695},{"id":"santa-clara_5504","citySlug":"santa-clara","name":"Parque Central","category":"ocio","lat":22.413917197958817,"lng":-79.95628927902845,"avgVisitMinutes":26,"estimatedCostEur":8,"score":4.058156283412815},{"id":"santa-clara_2755","citySlug":"santa-clara","name":"Punto Panorámico","category":"mirador","lat":22.40587352766049,"lng":-79.97428897267727,"avgVisitMinutes":89,"estimatedCostEur":4,"score":2.46144532882292},{"id":"santa-clara_7621","citySlug":"santa-clara","name":"Museo Cultural de Santa Clara","category":"cultura","lat":22.403226468662265,"lng":-79.97233781331558,"avgVisitMinutes":64,"estimatedCostEur":3,"score":1.3543088707573094},{"id":"santa-clara_8735","citySlug":"santa-clara","name":"Centro de Arte de Santa Clara","category":"cultura","lat":22.408788273128753,"lng":-79.95831824774181,"avgVisitMinutes":87,"estimatedCostEur":13,"score":4.759566171077576},{"id":"santa-clara_5466","citySlug":"santa-clara","name":"Parque Central","category":"ocio","lat":22.40224398360779,"lng":-79.97185939211744,"avgVisitMinutes":34,"estimatedCostEur":13,"score":0.9541545791144417},{"id":"santa-clara_2568","citySlug":"santa-clara","name":"Restaurante Típico de Santa Clara","category":"gastronomia","lat":22.410105890266717,"lng":-79.97433074471404,"avgVisitMinutes":84,"estimatedCostEur":2,"score":2.0436734581247076},{"id":"santa-clara_6041","citySlug":"santa-clara","name":"Centro de Arte de Santa Clara","category":"cultura","lat":22.40712095174844,"lng":-79.96555314552633,"avgVisitMinutes":78,"estimatedCostEur":14,"score":1.8352716232873862},{"id":"santa-clara_9379","citySlug":"santa-clara","name":"Centro Histórico","category":"historia","lat":22.406460633317927,"lng":-79.97339693189977,"avgVisitMinutes":45,"estimatedCostEur":15,"score":1.6150298372256722},{"id":"santa-clara_1769","citySlug":"santa-clara","name":"Iglesia de Santa Clara","category":"historia","lat":22.405882541007664,"lng":-79.95930159531319,"avgVisitMinutes":38,"estimatedCostEur":25,"score":1.3344704246487664},{"id":"san-nicolas-de-bari_6122","citySlug":"san-nicolas-de-bari","name":"Teatro Municipal","category":"cultura","lat":22.78905499294372,"lng":-81.92065574062404,"avgVisitMinutes":54,"estimatedCostEur":8,"score":1.0484883984201763},{"id":"san-nicolas-de-bari_1758","citySlug":"san-nicolas-de-bari","name":"Playa Sur","category":"playa","lat":22.785050554398456,"lng":-81.90467259859224,"avgVisitMinutes":64,"estimatedCostEur":16,"score":3.3741572786788727},{"id":"san-nicolas-de-bari_7644","citySlug":"san-nicolas-de-bari","name":"Teatro Municipal","category":"cultura","lat":22.778244127874,"lng":-81.91237124670899,"avgVisitMinutes":23,"estimatedCostEur":2,"score":2.05948516269643},{"id":"san-nicolas-de-bari_4808","citySlug":"san-nicolas-de-bari","name":"Playa Norte","category":"playa","lat":22.792818839424893,"lng":-81.90334367990016,"avgVisitMinutes":47,"estimatedCostEur":20,"score":1.6193060166428577},{"id":"san-nicolas-de-bari_2675","citySlug":"san-nicolas-de-bari","name":"Zona Comercial","category":"ocio","lat":22.78768329203911,"lng":-81.90544188628544,"avgVisitMinutes":24,"estimatedCostEur":23,"score":3.747749348340359},{"id":"san-nicolas-de-bari_3624","citySlug":"san-nicolas-de-bari","name":"Parque Central","category":"ocio","lat":22.777350569552276,"lng":-81.90880295689793,"avgVisitMinutes":67,"estimatedCostEur":16,"score":2.3820774669490947},{"id":"san-nicolas-de-bari_7336","citySlug":"san-nicolas-de-bari","name":"Parque Central","category":"ocio","lat":22.78253351433398,"lng":-81.90843322756139,"avgVisitMinutes":79,"estimatedCostEur":20,"score":2.5188960312564017},{"id":"san-nicolas-de-bari_6913","citySlug":"san-nicolas-de-bari","name":"Ruta de Tapas","category":"gastronomia","lat":22.776304326787987,"lng":-81.91318477888017,"avgVisitMinutes":57,"estimatedCostEur":24,"score":0.9757783842458014},{"id":"san-nicolas-de-bari_6736","citySlug":"san-nicolas-de-bari","name":"Centro Histórico","category":"historia","lat":22.782776311743703,"lng":-81.92256883704425,"avgVisitMinutes":87,"estimatedCostEur":21,"score":1.5026848502750472},{"id":"san-nicolas-de-bari_7170","citySlug":"san-nicolas-de-bari","name":"Mercado Gastronómico","category":"gastronomia","lat":22.781693586474802,"lng":-81.91987725652321,"avgVisitMinutes":61,"estimatedCostEur":19,"score":3.202554222589856},{"id":"san-nicolas-de-bari_2325","citySlug":"san-nicolas-de-bari","name":"Playa Sur","category":"playa","lat":22.78708918284447,"lng":-81.91340619650757,"avgVisitMinutes":38,"estimatedCostEur":22,"score":2.3323716365650777},{"id":"san-miguel-del-padron_2889","citySlug":"san-miguel-del-padron","name":"Centro de Arte de San Miguel del Padrón","category":"cultura","lat":23.09055451576251,"lng":-82.33324492754002,"avgVisitMinutes":27,"estimatedCostEur":20,"score":2.65195607256023},{"id":"san-miguel-del-padron_9714","citySlug":"san-miguel-del-padron","name":"Iglesia de San Miguel del Padrón","category":"historia","lat":23.091612433317543,"lng":-82.33050608706253,"avgVisitMinutes":86,"estimatedCostEur":21,"score":2.78287371605714},{"id":"san-miguel-del-padron_8349","citySlug":"san-miguel-del-padron","name":"Restaurante Típico de San Miguel del Padrón","category":"gastronomia","lat":23.10513704376197,"lng":-82.32371649388834,"avgVisitMinutes":47,"estimatedCostEur":0,"score":4.492516130211972},{"id":"san-miguel-del-padron_9932","citySlug":"san-miguel-del-padron","name":"Vista Alta de San Miguel del Padrón","category":"mirador","lat":23.101943381013754,"lng":-82.33526937759758,"avgVisitMinutes":66,"estimatedCostEur":12,"score":4.8527972244048705},{"id":"san-miguel-del-padron_7880","citySlug":"san-miguel-del-padron","name":"Zona Comercial","category":"ocio","lat":23.09591986399929,"lng":-82.31925984717326,"avgVisitMinutes":77,"estimatedCostEur":15,"score":3.1040405062122485},{"id":"san-miguel-del-padron_8042","citySlug":"san-miguel-del-padron","name":"Museo Cultural de San Miguel del Padrón","category":"cultura","lat":23.095975525547182,"lng":-82.31925357869746,"avgVisitMinutes":59,"estimatedCostEur":6,"score":0.5325579127935898},{"id":"san-miguel-del-padron_4605","citySlug":"san-miguel-del-padron","name":"Museo Cultural de San Miguel del Padrón","category":"cultura","lat":23.09734486235922,"lng":-82.32793429057394,"avgVisitMinutes":45,"estimatedCostEur":10,"score":1.8486053247589478},{"id":"san-miguel-del-padron_3496","citySlug":"san-miguel-del-padron","name":"Galería de Arte","category":"cultura","lat":23.101714207821093,"lng":-82.32666188000178,"avgVisitMinutes":24,"estimatedCostEur":12,"score":3.5418729272328764},{"id":"san-miguel-del-padron_5606","citySlug":"san-miguel-del-padron","name":"Punto Panorámico","category":"mirador","lat":23.08655204682899,"lng":-82.33388553106299,"avgVisitMinutes":32,"estimatedCostEur":0,"score":2.9964416842829342},{"id":"san-miguel-del-padron_1324","citySlug":"san-miguel-del-padron","name":"Parque Central","category":"ocio","lat":23.10329392327338,"lng":-82.32727127141244,"avgVisitMinutes":55,"estimatedCostEur":15,"score":1.1376204273066166},{"id":"san-luis_8488","citySlug":"san-luis","name":"Mercado Gastronómico","category":"gastronomia","lat":22.276672049690877,"lng":-83.75378709086749,"avgVisitMinutes":57,"estimatedCostEur":9,"score":4.375622162976896},{"id":"san-luis_5173","citySlug":"san-luis","name":"Centro Histórico","category":"historia","lat":22.270784822320373,"lng":-83.76758575298899,"avgVisitMinutes":26,"estimatedCostEur":21,"score":2.2623770278770468},{"id":"san-luis_5958","citySlug":"san-luis","name":"Playa Sur","category":"playa","lat":22.270015734459076,"lng":-83.7514373544197,"avgVisitMinutes":49,"estimatedCostEur":12,"score":0.6561311550506997},{"id":"san-luis_6361","citySlug":"san-luis","name":"Galería de Arte","category":"cultura","lat":22.275348620300438,"lng":-83.75473160602043,"avgVisitMinutes":56,"estimatedCostEur":5,"score":3.731233889115763},{"id":"san-luis_3509","citySlug":"san-luis","name":"Mirador de San Luis","category":"mirador","lat":22.287818075685692,"lng":-83.75744733209937,"avgVisitMinutes":86,"estimatedCostEur":15,"score":4.818166416526696},{"id":"san-luis_2378","citySlug":"san-luis","name":"Zona Comercial","category":"ocio","lat":22.284960438638187,"lng":-83.75667495497797,"avgVisitMinutes":50,"estimatedCostEur":10,"score":1.0973180622357908},{"id":"san-luis_8757","citySlug":"san-luis","name":"Playa Central","category":"playa","lat":20.18222421553259,"lng":-75.854250966673,"avgVisitMinutes":22,"estimatedCostEur":14,"score":0.5330408124013558},{"id":"san-luis_5326","citySlug":"san-luis","name":"Vista Alta de San Luis","category":"mirador","lat":20.18616407170999,"lng":-75.85033319017545,"avgVisitMinutes":31,"estimatedCostEur":24,"score":3.6291361587054327},{"id":"san-luis_6167","citySlug":"san-luis","name":"Murallas de San Luis","category":"historia","lat":20.187068754390346,"lng":-75.84285096680765,"avgVisitMinutes":63,"estimatedCostEur":3,"score":0.923172805186037},{"id":"san-luis_1264","citySlug":"san-luis","name":"Teatro Municipal","category":"cultura","lat":20.196421032665846,"lng":-75.84356531602278,"avgVisitMinutes":39,"estimatedCostEur":10,"score":0.5003700921892023},{"id":"san-luis_4078","citySlug":"san-luis","name":"Mirador de San Luis","category":"mirador","lat":20.198043777939795,"lng":-75.84857028728159,"avgVisitMinutes":57,"estimatedCostEur":17,"score":2.9958386187362676},{"id":"san-jose-de-las-lajas_5949","citySlug":"san-jose-de-las-lajas","name":"Restaurante Típico de San José de las Lajas","category":"gastronomia","lat":22.957198656788794,"lng":-82.15395078385558,"avgVisitMinutes":79,"estimatedCostEur":9,"score":1.2042236974562752},{"id":"san-jose-de-las-lajas_2444","citySlug":"san-jose-de-las-lajas","name":"Parque Central","category":"ocio","lat":22.962552941645466,"lng":-82.14834531747583,"avgVisitMinutes":66,"estimatedCostEur":19,"score":2.127999565408379},{"id":"san-jose-de-las-lajas_7247","citySlug":"san-jose-de-las-lajas","name":"Museo Cultural de San José de las Lajas","category":"cultura","lat":22.966182613723173,"lng":-82.15397759367879,"avgVisitMinutes":26,"estimatedCostEur":15,"score":4.936278343654165},{"id":"san-jose-de-las-lajas_9610","citySlug":"san-jose-de-las-lajas","name":"Teatro Municipal","category":"cultura","lat":22.955604397988786,"lng":-82.14767412302349,"avgVisitMinutes":55,"estimatedCostEur":22,"score":3.0697143970848697},{"id":"san-jose-de-las-lajas_2675","citySlug":"san-jose-de-las-lajas","name":"Mirador de San José de las Lajas","category":"mirador","lat":22.969994031802088,"lng":-82.1598679026476,"avgVisitMinutes":28,"estimatedCostEur":13,"score":4.281008585550193},{"id":"san-francisco-de-paula_1709","citySlug":"san-francisco-de-paula","name":"Zona Comercial","category":"ocio","lat":23.067357674628035,"lng":-82.29385329947448,"avgVisitMinutes":81,"estimatedCostEur":18,"score":2.8448461563023604},{"id":"san-francisco-de-paula_6385","citySlug":"san-francisco-de-paula","name":"Castillo de San Francisco de Paula","category":"historia","lat":23.05368055136585,"lng":-82.29030678291636,"avgVisitMinutes":84,"estimatedCostEur":6,"score":3.90780771616897},{"id":"san-francisco-de-paula_5285","citySlug":"san-francisco-de-paula","name":"Mirador de San Francisco de Paula","category":"mirador","lat":23.07220953064781,"lng":-82.30481099113933,"avgVisitMinutes":65,"estimatedCostEur":24,"score":2.2866588246888533},{"id":"san-francisco-de-paula_5716","citySlug":"san-francisco-de-paula","name":"Murallas de San Francisco de Paula","category":"historia","lat":23.054856870211758,"lng":-82.29892132951399,"avgVisitMinutes":39,"estimatedCostEur":4,"score":2.303475219615482},{"id":"san-francisco-de-paula_4136","citySlug":"san-francisco-de-paula","name":"Playa Norte","category":"playa","lat":23.05584581907327,"lng":-82.29830761198215,"avgVisitMinutes":84,"estimatedCostEur":10,"score":3.0489402203041176},{"id":"san-francisco-de-paula_9931","citySlug":"san-francisco-de-paula","name":"Iglesia de San Francisco de Paula","category":"historia","lat":23.057303035434593,"lng":-82.30425847443898,"avgVisitMinutes":45,"estimatedCostEur":9,"score":2.0645509812876783},{"id":"san-francisco-de-paula_9600","citySlug":"san-francisco-de-paula","name":"Punto Panorámico","category":"mirador","lat":23.058746994858613,"lng":-82.29022110190307,"avgVisitMinutes":25,"estimatedCostEur":15,"score":1.3779674041613315},{"id":"san-francisco-de-paula_1324","citySlug":"san-francisco-de-paula","name":"Centro de Arte de San Francisco de Paula","category":"cultura","lat":23.06499909045903,"lng":-82.28695876833821,"avgVisitMinutes":69,"estimatedCostEur":23,"score":4.629497773052941},{"id":"san-francisco-de-paula_5419","citySlug":"san-francisco-de-paula","name":"Mercado Gastronómico","category":"gastronomia","lat":23.069200042723814,"lng":-82.29771941016573,"avgVisitMinutes":30,"estimatedCostEur":4,"score":1.0981646893452348},{"id":"san-francisco-de-paula_3975","citySlug":"san-francisco-de-paula","name":"Paseo Principal","category":"ocio","lat":23.05375141317883,"lng":-82.30314584834797,"avgVisitMinutes":44,"estimatedCostEur":10,"score":3.329054353347584},{"id":"san-diego-de-los-banos_6762","citySlug":"san-diego-de-los-banos","name":"Teatro Municipal","category":"cultura","lat":22.653575512352297,"lng":-83.37119257173039,"avgVisitMinutes":52,"estimatedCostEur":4,"score":4.035294038637875},{"id":"san-diego-de-los-banos_2760","citySlug":"san-diego-de-los-banos","name":"Ruta de Tapas","category":"gastronomia","lat":22.637992251119506,"lng":-83.36744916597642,"avgVisitMinutes":49,"estimatedCostEur":23,"score":3.3563900564317253},{"id":"san-diego-de-los-banos_9243","citySlug":"san-diego-de-los-banos","name":"Mercado Gastronómico","category":"gastronomia","lat":22.64252257100479,"lng":-83.36818723827008,"avgVisitMinutes":60,"estimatedCostEur":20,"score":2.94647121576829},{"id":"san-diego-de-los-banos_6750","citySlug":"san-diego-de-los-banos","name":"Centro Histórico","category":"historia","lat":22.64531265674254,"lng":-83.37547408133356,"avgVisitMinutes":33,"estimatedCostEur":1,"score":0.7604581108392394},{"id":"san-diego-de-los-banos_5389","citySlug":"san-diego-de-los-banos","name":"Centro Histórico","category":"historia","lat":22.653243780617913,"lng":-83.36976395846679,"avgVisitMinutes":87,"estimatedCostEur":9,"score":2.7719814412223833},{"id":"san-diego-de-los-banos_6675","citySlug":"san-diego-de-los-banos","name":"Ruta de Tapas","category":"gastronomia","lat":22.646959199387158,"lng":-83.3776018188188,"avgVisitMinutes":48,"estimatedCostEur":8,"score":2.775378652763756},{"id":"san-diego-de-los-banos_3351","citySlug":"san-diego-de-los-banos","name":"Playa Sur","category":"playa","lat":22.638673041767767,"lng":-83.37040746331931,"avgVisitMinutes":41,"estimatedCostEur":25,"score":1.70471455523341},{"id":"san-diego-de-los-banos_6533","citySlug":"san-diego-de-los-banos","name":"Playa Central","category":"playa","lat":22.64926977111709,"lng":-83.36750394617572,"avgVisitMinutes":66,"estimatedCostEur":17,"score":1.387223525859244},{"id":"san-diego-de-los-banos_8347","citySlug":"san-diego-de-los-banos","name":"Murallas de San Diego de Los Baños","category":"historia","lat":22.65236353476627,"lng":-83.37729578058944,"avgVisitMinutes":88,"estimatedCostEur":13,"score":1.1902685146403895},{"id":"sancti-spiritus_6086","citySlug":"sancti-spiritus","name":"Museo Local de Sancti Spíritus","category":"historia","lat":21.939569236111005,"lng":-79.44303401088055,"avgVisitMinutes":32,"estimatedCostEur":6,"score":2.9123723029530897},{"id":"sancti-spiritus_5345","citySlug":"sancti-spiritus","name":"Playa Central","category":"playa","lat":21.93494647537109,"lng":-79.44779329605603,"avgVisitMinutes":72,"estimatedCostEur":14,"score":1.9496325127220753},{"id":"sancti-spiritus_9860","citySlug":"sancti-spiritus","name":"Vista Alta de Sancti Spíritus","category":"mirador","lat":21.937973735500048,"lng":-79.44429900232257,"avgVisitMinutes":89,"estimatedCostEur":22,"score":3.6215346282084084},{"id":"sancti-spiritus_8550","citySlug":"sancti-spiritus","name":"Playa Central","category":"playa","lat":21.92768420258019,"lng":-79.4423606689911,"avgVisitMinutes":55,"estimatedCostEur":25,"score":4.090280994737439},{"id":"sancti-spiritus_9804","citySlug":"sancti-spiritus","name":"Playa Central","category":"playa","lat":21.931318447612576,"lng":-79.44419990083867,"avgVisitMinutes":89,"estimatedCostEur":4,"score":2.229342138147178},{"id":"sancti-spiritus_1101","citySlug":"sancti-spiritus","name":"Teatro Municipal","category":"cultura","lat":21.926609999457387,"lng":-79.44073253976245,"avgVisitMinutes":47,"estimatedCostEur":25,"score":2.9459043752900427},{"id":"sancti-spiritus_2951","citySlug":"sancti-spiritus","name":"Parque Central","category":"ocio","lat":21.935440398153222,"lng":-79.4328599392205,"avgVisitMinutes":61,"estimatedCostEur":3,"score":2.153091115896086},{"id":"sancti-spiritus_7427","citySlug":"sancti-spiritus","name":"Museo Cultural de Sancti Spíritus","category":"cultura","lat":21.9258165500102,"lng":-79.44828442255275,"avgVisitMinutes":52,"estimatedCostEur":9,"score":2.8736872854480917},{"id":"sancti-spiritus_7723","citySlug":"sancti-spiritus","name":"Vista Alta de Sancti Spíritus","category":"mirador","lat":21.934470161531223,"lng":-79.43049721909105,"avgVisitMinutes":54,"estimatedCostEur":22,"score":3.6476311123652625},{"id":"sancti-spiritus_2044","citySlug":"sancti-spiritus","name":"Parque Central","category":"ocio","lat":21.94360285597555,"lng":-79.44207023698938,"avgVisitMinutes":33,"estimatedCostEur":12,"score":4.728844921551332},{"id":"sancti-spiritus_2751","citySlug":"sancti-spiritus","name":"Paseo Principal","category":"ocio","lat":21.933119830183006,"lng":-79.44458973238768,"avgVisitMinutes":42,"estimatedCostEur":15,"score":3.6007605873322714},{"id":"san-cristobal_5477","citySlug":"san-cristobal","name":"Ruta de Tapas","category":"gastronomia","lat":22.71319495779492,"lng":-83.04994837491505,"avgVisitMinutes":23,"estimatedCostEur":7,"score":0.5847840105748581},{"id":"san-cristobal_7153","citySlug":"san-cristobal","name":"Playa Sur","category":"playa","lat":22.709308896111562,"lng":-83.0500652201716,"avgVisitMinutes":62,"estimatedCostEur":19,"score":4.753795844378052},{"id":"san-cristobal_7890","citySlug":"san-cristobal","name":"Vista Alta de San Cristobal","category":"mirador","lat":22.711287181263103,"lng":-83.05859390912362,"avgVisitMinutes":24,"estimatedCostEur":16,"score":2.185396925297444},{"id":"san-cristobal_6829","citySlug":"san-cristobal","name":"Paseo Principal","category":"ocio","lat":22.71182455419478,"lng":-83.06428193999918,"avgVisitMinutes":49,"estimatedCostEur":22,"score":4.3502535010186145},{"id":"san-cristobal_1466","citySlug":"san-cristobal","name":"Ruta de Tapas","category":"gastronomia","lat":22.709540009579197,"lng":-83.04878399003402,"avgVisitMinutes":50,"estimatedCostEur":5,"score":0.9525871088016666},{"id":"san-antonio-de-los-banos_2664","citySlug":"san-antonio-de-los-banos","name":"Mercado Gastronómico","category":"gastronomia","lat":22.896687830261993,"lng":-82.49655763060265,"avgVisitMinutes":28,"estimatedCostEur":23,"score":4.545957663631068},{"id":"san-antonio-de-los-banos_8465","citySlug":"san-antonio-de-los-banos","name":"Vista Alta de San Antonio de los Baños","category":"mirador","lat":22.883382251066806,"lng":-82.50506875277107,"avgVisitMinutes":30,"estimatedCostEur":3,"score":2.538976278338023},{"id":"san-antonio-de-los-banos_4276","citySlug":"san-antonio-de-los-banos","name":"Paseo Principal","category":"ocio","lat":22.88997560860084,"lng":-82.50139437451608,"avgVisitMinutes":49,"estimatedCostEur":19,"score":1.8595034239883987},{"id":"san-antonio-de-los-banos_2356","citySlug":"san-antonio-de-los-banos","name":"Ruta de Tapas","category":"gastronomia","lat":22.892131220741742,"lng":-82.51088070403979,"avgVisitMinutes":58,"estimatedCostEur":0,"score":2.551400465444169},{"id":"san-antonio-de-los-banos_9480","citySlug":"san-antonio-de-los-banos","name":"Murallas de San Antonio de los Baños","category":"historia","lat":22.89394396663487,"lng":-82.49736980364236,"avgVisitMinutes":69,"estimatedCostEur":10,"score":2.888411115409712},{"id":"sagua-la-grande_1019","citySlug":"sagua-la-grande","name":"Museo Local de Sagua la Grande","category":"historia","lat":22.811850446465108,"lng":-80.06640407056001,"avgVisitMinutes":79,"estimatedCostEur":21,"score":1.6872987312413188},{"id":"sagua-la-grande_3829","citySlug":"sagua-la-grande","name":"Galería de Arte","category":"cultura","lat":22.801283970702972,"lng":-80.07791135556826,"avgVisitMinutes":70,"estimatedCostEur":20,"score":4.83577516027265},{"id":"sagua-la-grande_2880","citySlug":"sagua-la-grande","name":"Vista Alta de Sagua la Grande","category":"mirador","lat":22.8105228413031,"lng":-80.06666404319498,"avgVisitMinutes":78,"estimatedCostEur":23,"score":3.261426408803785},{"id":"sagua-la-grande_3571","citySlug":"sagua-la-grande","name":"Castillo de Sagua la Grande","category":"historia","lat":22.809888676616616,"lng":-80.07670524695214,"avgVisitMinutes":25,"estimatedCostEur":20,"score":3.567530643687828},{"id":"sagua-la-grande_9574","citySlug":"sagua-la-grande","name":"Mirador de Sagua la Grande","category":"mirador","lat":22.796181830199394,"lng":-80.07889869619196,"avgVisitMinutes":30,"estimatedCostEur":8,"score":2.4580521634578085},{"id":"sagua-la-grande_9074","citySlug":"sagua-la-grande","name":"Castillo de Sagua la Grande","category":"historia","lat":22.803881671141326,"lng":-80.07824685797216,"avgVisitMinutes":65,"estimatedCostEur":22,"score":1.2249645522574206},{"id":"sagua-la-grande_1216","citySlug":"sagua-la-grande","name":"Ruta de Tapas","category":"gastronomia","lat":22.800576435239094,"lng":-80.0813781098197,"avgVisitMinutes":58,"estimatedCostEur":2,"score":4.367633774422364},{"id":"sagua-la-grande_4057","citySlug":"sagua-la-grande","name":"Punto Panorámico","category":"mirador","lat":22.803465046310045,"lng":-80.08175678523781,"avgVisitMinutes":82,"estimatedCostEur":6,"score":1.2497019308773103},{"id":"sagua-de-tanamo_1994","citySlug":"sagua-de-tanamo","name":"Iglesia de Sagua de Tánamo","category":"historia","lat":20.5872525980634,"lng":-75.23867922898546,"avgVisitMinutes":67,"estimatedCostEur":7,"score":3.511994294506229},{"id":"sagua-de-tanamo_5753","citySlug":"sagua-de-tanamo","name":"Vista Alta de Sagua de Tánamo","category":"mirador","lat":20.581677173789974,"lng":-75.23389360797594,"avgVisitMinutes":88,"estimatedCostEur":1,"score":1.3596059159870792},{"id":"sagua-de-tanamo_7595","citySlug":"sagua-de-tanamo","name":"Paseo Principal","category":"ocio","lat":20.588270203985214,"lng":-75.24480240300521,"avgVisitMinutes":41,"estimatedCostEur":8,"score":1.1260083750691274},{"id":"sagua-de-tanamo_8742","citySlug":"sagua-de-tanamo","name":"Murallas de Sagua de Tánamo","category":"historia","lat":20.58435173273489,"lng":-75.23908791864437,"avgVisitMinutes":77,"estimatedCostEur":22,"score":3.603100328278926},{"id":"sagua-de-tanamo_2339","citySlug":"sagua-de-tanamo","name":"Iglesia de Sagua de Tánamo","category":"historia","lat":20.57726125011231,"lng":-75.23625269996619,"avgVisitMinutes":47,"estimatedCostEur":17,"score":2.2064612243954533},{"id":"rodas_2432","citySlug":"rodas","name":"Punto Panorámico","category":"mirador","lat":22.34788746670617,"lng":-80.5635122043837,"avgVisitMinutes":62,"estimatedCostEur":17,"score":4.2673677854099035},{"id":"rodas_8267","citySlug":"rodas","name":"Restaurante Típico de Rodas","category":"gastronomia","lat":22.333605833504983,"lng":-80.55728994196097,"avgVisitMinutes":41,"estimatedCostEur":14,"score":1.1462431823571504},{"id":"rodas_4098","citySlug":"rodas","name":"Vista Alta de Rodas","category":"mirador","lat":22.337456553680845,"lng":-80.56043203386767,"avgVisitMinutes":85,"estimatedCostEur":21,"score":1.53336607171233},{"id":"rodas_7565","citySlug":"rodas","name":"Parque Central","category":"ocio","lat":22.338593927084133,"lng":-80.55639903739325,"avgVisitMinutes":60,"estimatedCostEur":1,"score":2.3735350615210518},{"id":"rodas_8743","citySlug":"rodas","name":"Mirador de Rodas","category":"mirador","lat":22.33265672132731,"lng":-80.55747064067619,"avgVisitMinutes":59,"estimatedCostEur":23,"score":4.003378595233384},{"id":"rodas_6338","citySlug":"rodas","name":"Playa Norte","category":"playa","lat":22.340533791393646,"lng":-80.55436802287682,"avgVisitMinutes":48,"estimatedCostEur":13,"score":2.0013316055777093},{"id":"rodas_2819","citySlug":"rodas","name":"Ruta de Tapas","category":"gastronomia","lat":22.332069103173094,"lng":-80.55687751917509,"avgVisitMinutes":43,"estimatedCostEur":4,"score":3.7027349104915133},{"id":"rodas_8688","citySlug":"rodas","name":"Punto Panorámico","category":"mirador","lat":22.349923964604773,"lng":-80.56327392834203,"avgVisitMinutes":46,"estimatedCostEur":5,"score":0.6941102304576421},{"id":"rio-cauto_9406","citySlug":"rio-cauto","name":"Playa Sur","category":"playa","lat":20.562979298005022,"lng":-76.91749068322507,"avgVisitMinutes":36,"estimatedCostEur":23,"score":0.7913746706378624},{"id":"rio-cauto_7244","citySlug":"rio-cauto","name":"Parque Central","category":"ocio","lat":20.559300400318143,"lng":-76.91276702058327,"avgVisitMinutes":87,"estimatedCostEur":23,"score":1.3041469012441405},{"id":"rio-cauto_9299","citySlug":"rio-cauto","name":"Iglesia de Río Cauto","category":"historia","lat":20.555190110055626,"lng":-76.9201574827749,"avgVisitMinutes":28,"estimatedCostEur":24,"score":4.764507723468888},{"id":"rio-cauto_2671","citySlug":"rio-cauto","name":"Galería de Arte","category":"cultura","lat":20.5655251831463,"lng":-76.90710726775013,"avgVisitMinutes":82,"estimatedCostEur":20,"score":2.0681699200388874},{"id":"rio-cauto_3626","citySlug":"rio-cauto","name":"Vista Alta de Río Cauto","category":"mirador","lat":20.557639310332164,"lng":-76.92467917836784,"avgVisitMinutes":82,"estimatedCostEur":16,"score":0.8091073428616034},{"id":"remedios_2483","citySlug":"remedios","name":"Mercado Gastronómico","category":"gastronomia","lat":22.50105940070641,"lng":-79.54284728663113,"avgVisitMinutes":57,"estimatedCostEur":1,"score":2.8702833132085837},{"id":"remedios_5123","citySlug":"remedios","name":"Playa Sur","category":"playa","lat":22.492109296349113,"lng":-79.54913814169834,"avgVisitMinutes":73,"estimatedCostEur":23,"score":2.8753216287027534},{"id":"remedios_7368","citySlug":"remedios","name":"Museo Cultural de Remedios","category":"cultura","lat":22.5013990405222,"lng":-79.54293539421981,"avgVisitMinutes":29,"estimatedCostEur":15,"score":1.4369796317654744},{"id":"remedios_3677","citySlug":"remedios","name":"Restaurante Típico de Remedios","category":"gastronomia","lat":22.48723129833727,"lng":-79.55290499503995,"avgVisitMinutes":72,"estimatedCostEur":3,"score":2.2248147996777927},{"id":"remedios_9550","citySlug":"remedios","name":"Vista Alta de Remedios","category":"mirador","lat":22.49084154406149,"lng":-79.54877965228748,"avgVisitMinutes":84,"estimatedCostEur":23,"score":4.434407040573688},{"id":"remedios_6144","citySlug":"remedios","name":"Restaurante Típico de Remedios","category":"gastronomia","lat":22.503787255440333,"lng":-79.53918835120001,"avgVisitMinutes":85,"estimatedCostEur":25,"score":0.7213478709832594},{"id":"remedios_1580","citySlug":"remedios","name":"Zona Comercial","category":"ocio","lat":22.495764487135848,"lng":-79.54933725098604,"avgVisitMinutes":39,"estimatedCostEur":18,"score":0.8276719878150154},{"id":"regla_6924","citySlug":"regla","name":"Punto Panorámico","category":"mirador","lat":23.1271681841979,"lng":-82.32641131934027,"avgVisitMinutes":21,"estimatedCostEur":7,"score":1.281630234811875},{"id":"regla_6514","citySlug":"regla","name":"Playa Sur","category":"playa","lat":23.134673272066937,"lng":-82.32276487285189,"avgVisitMinutes":68,"estimatedCostEur":24,"score":3.9014239630235483},{"id":"regla_6804","citySlug":"regla","name":"Zona Comercial","category":"ocio","lat":23.12001592724107,"lng":-82.32634267016283,"avgVisitMinutes":20,"estimatedCostEur":25,"score":4.005471694228354},{"id":"regla_8525","citySlug":"regla","name":"Playa Norte","category":"playa","lat":23.12215195568902,"lng":-82.33246980291847,"avgVisitMinutes":29,"estimatedCostEur":17,"score":1.0606510050122284},{"id":"regla_9130","citySlug":"regla","name":"Parque Central","category":"ocio","lat":23.12889030015451,"lng":-82.32298019467908,"avgVisitMinutes":83,"estimatedCostEur":18,"score":2.5934895269156857},{"id":"regla_8022","citySlug":"regla","name":"Playa Norte","category":"playa","lat":23.123973799682304,"lng":-82.3263821425275,"avgVisitMinutes":58,"estimatedCostEur":3,"score":3.7664362088008776},{"id":"regla_3937","citySlug":"regla","name":"Ruta de Tapas","category":"gastronomia","lat":23.129725126941405,"lng":-82.32122624892821,"avgVisitMinutes":60,"estimatedCostEur":22,"score":3.3947121799542446},{"id":"regla_5341","citySlug":"regla","name":"Vista Alta de Regla","category":"mirador","lat":23.12254268092809,"lng":-82.32085117093953,"avgVisitMinutes":63,"estimatedCostEur":23,"score":2.96339412682658},{"id":"ranchuelo_9548","citySlug":"ranchuelo","name":"Galería de Arte","category":"cultura","lat":22.372180240995025,"lng":-80.14607205587468,"avgVisitMinutes":86,"estimatedCostEur":21,"score":3.685131288810878},{"id":"ranchuelo_9545","citySlug":"ranchuelo","name":"Centro Histórico","category":"historia","lat":22.37949951384402,"lng":-80.14515689489772,"avgVisitMinutes":86,"estimatedCostEur":2,"score":2.47928105598211},{"id":"ranchuelo_4225","citySlug":"ranchuelo","name":"Parque Central","category":"ocio","lat":22.364044535931928,"lng":-80.14109296432302,"avgVisitMinutes":74,"estimatedCostEur":16,"score":1.742158401323664},{"id":"ranchuelo_7982","citySlug":"ranchuelo","name":"Zona Comercial","category":"ocio","lat":22.377333552727812,"lng":-80.16027590649381,"avgVisitMinutes":26,"estimatedCostEur":24,"score":1.9105130952378155},{"id":"ranchuelo_4277","citySlug":"ranchuelo","name":"Zona Comercial","category":"ocio","lat":22.371840226696825,"lng":-80.14670989885505,"avgVisitMinutes":27,"estimatedCostEur":18,"score":3.665881896120993},{"id":"ranchuelo_3603","citySlug":"ranchuelo","name":"Mercado Gastronómico","category":"gastronomia","lat":22.37098514221437,"lng":-80.15297888352232,"avgVisitMinutes":48,"estimatedCostEur":17,"score":4.409075873136724},{"id":"ranchuelo_5424","citySlug":"ranchuelo","name":"Centro de Arte de Ranchuelo","category":"cultura","lat":22.372071892174333,"lng":-80.14838711628975,"avgVisitMinutes":32,"estimatedCostEur":25,"score":0.5766146242218517},{"id":"rancho-veloz_8220","citySlug":"rancho-veloz","name":"Museo Local de Rancho Veloz","category":"historia","lat":22.883551561652148,"lng":-80.39584761618667,"avgVisitMinutes":82,"estimatedCostEur":9,"score":2.9402102184029064},{"id":"rancho-veloz_5828","citySlug":"rancho-veloz","name":"Mercado Gastronómico","category":"gastronomia","lat":22.881341707621832,"lng":-80.3997375563906,"avgVisitMinutes":65,"estimatedCostEur":19,"score":1.518749109126179},{"id":"rancho-veloz_3719","citySlug":"rancho-veloz","name":"Mirador de Rancho Veloz","category":"mirador","lat":22.87590252021542,"lng":-80.3930958802394,"avgVisitMinutes":71,"estimatedCostEur":6,"score":4.2258784832431875},{"id":"rancho-veloz_3959","citySlug":"rancho-veloz","name":"Castillo de Rancho Veloz","category":"historia","lat":22.87830047882433,"lng":-80.39572390282575,"avgVisitMinutes":42,"estimatedCostEur":5,"score":4.008856465715311},{"id":"rancho-veloz_1498","citySlug":"rancho-veloz","name":"Centro de Arte de Rancho Veloz","category":"cultura","lat":22.871350054902948,"lng":-80.39551995976825,"avgVisitMinutes":40,"estimatedCostEur":23,"score":2.5667049454469706},{"id":"rancho-veloz_7915","citySlug":"rancho-veloz","name":"Galería de Arte","category":"cultura","lat":22.880119799928785,"lng":-80.39355297322628,"avgVisitMinutes":62,"estimatedCostEur":6,"score":4.7107420886575735},{"id":"rancho-veloz_1493","citySlug":"rancho-veloz","name":"Punto Panorámico","category":"mirador","lat":22.87582234518461,"lng":-80.39277819051782,"avgVisitMinutes":90,"estimatedCostEur":1,"score":2.077547002882011},{"id":"rancho-veloz_8389","citySlug":"rancho-veloz","name":"Mirador de Rancho Veloz","category":"mirador","lat":22.87214422134051,"lng":-80.38893727507552,"avgVisitMinutes":65,"estimatedCostEur":14,"score":3.6339566659378506},{"id":"quivican_2706","citySlug":"quivican","name":"Parque Central","category":"ocio","lat":22.817177530678013,"lng":-82.35500908535573,"avgVisitMinutes":72,"estimatedCostEur":2,"score":1.6732665305028385},{"id":"quivican_9189","citySlug":"quivican","name":"Ruta de Tapas","category":"gastronomia","lat":22.814090476173984,"lng":-82.34660565114025,"avgVisitMinutes":75,"estimatedCostEur":8,"score":4.079611546839256},{"id":"quivican_9870","citySlug":"quivican","name":"Vista Alta de Quivicán","category":"mirador","lat":22.826346347267,"lng":-82.35179580593041,"avgVisitMinutes":34,"estimatedCostEur":22,"score":1.8684026975838057},{"id":"quivican_6007","citySlug":"quivican","name":"Museo Local de Quivicán","category":"historia","lat":22.821668399111058,"lng":-82.35911826100683,"avgVisitMinutes":44,"estimatedCostEur":6,"score":0.599175251426354},{"id":"quivican_5964","citySlug":"quivican","name":"Punto Panorámico","category":"mirador","lat":22.829962830937557,"lng":-82.34697200731573,"avgVisitMinutes":88,"estimatedCostEur":6,"score":3.877536703592583},{"id":"quivican_8152","citySlug":"quivican","name":"Teatro Municipal","category":"cultura","lat":22.827729766968396,"lng":-82.34862249299307,"avgVisitMinutes":32,"estimatedCostEur":8,"score":1.7643287647249153},{"id":"quivican_2058","citySlug":"quivican","name":"Galería de Arte","category":"cultura","lat":22.820813360248376,"lng":-82.34640043029546,"avgVisitMinutes":47,"estimatedCostEur":24,"score":2.422545052260701},{"id":"quemado-de-guines_8546","citySlug":"quemado-de-guines","name":"Mercado Gastronómico","category":"gastronomia","lat":22.784522356488953,"lng":-80.24440767940926,"avgVisitMinutes":90,"estimatedCostEur":20,"score":1.4839179250539285},{"id":"quemado-de-guines_9928","citySlug":"quemado-de-guines","name":"Iglesia de Quemado de Güines","category":"historia","lat":22.78660611374006,"lng":-80.2444533650792,"avgVisitMinutes":63,"estimatedCostEur":15,"score":2.868004914865459},{"id":"quemado-de-guines_7790","citySlug":"quemado-de-guines","name":"Museo Cultural de Quemado de Güines","category":"cultura","lat":22.7862707795136,"lng":-80.24413930119277,"avgVisitMinutes":67,"estimatedCostEur":15,"score":3.990510912225777},{"id":"quemado-de-guines_6975","citySlug":"quemado-de-guines","name":"Punto Panorámico","category":"mirador","lat":22.792077571748838,"lng":-80.24745928389582,"avgVisitMinutes":45,"estimatedCostEur":0,"score":4.04441283740676},{"id":"quemado-de-guines_2096","citySlug":"quemado-de-guines","name":"Mirador de Quemado de Güines","category":"mirador","lat":22.787007681660384,"lng":-80.25973241735605,"avgVisitMinutes":67,"estimatedCostEur":14,"score":2.5015346891625496},{"id":"quemado-de-guines_4449","citySlug":"quemado-de-guines","name":"Playa Sur","category":"playa","lat":22.798298977447885,"lng":-80.25928296088641,"avgVisitMinutes":86,"estimatedCostEur":6,"score":3.6820162829109147},{"id":"quemado-de-guines_9080","citySlug":"quemado-de-guines","name":"Ruta de Tapas","category":"gastronomia","lat":22.77916506554325,"lng":-80.25690788617999,"avgVisitMinutes":29,"estimatedCostEur":25,"score":3.5903811012982825},{"id":"quemado-de-guines_4158","citySlug":"quemado-de-guines","name":"Mercado Gastronómico","category":"gastronomia","lat":22.78785559728185,"lng":-80.25410484166811,"avgVisitMinutes":37,"estimatedCostEur":13,"score":1.9746367951910342},{"id":"quemado-de-guines_6497","citySlug":"quemado-de-guines","name":"Centro Histórico","category":"historia","lat":22.791587879788608,"lng":-80.25021245991485,"avgVisitMinutes":22,"estimatedCostEur":8,"score":4.398330172061307},{"id":"quemado-de-guines_4836","citySlug":"quemado-de-guines","name":"Paseo Principal","category":"ocio","lat":22.789837134253055,"lng":-80.24738720015046,"avgVisitMinutes":44,"estimatedCostEur":18,"score":2.671345656819346},{"id":"quemado-de-guines_3925","citySlug":"quemado-de-guines","name":"Museo Cultural de Quemado de Güines","category":"cultura","lat":22.79596008199065,"lng":-80.25687916023038,"avgVisitMinutes":55,"estimatedCostEur":3,"score":0.7977600325236396},{"id":"quemado-de-guines_5659","citySlug":"quemado-de-guines","name":"Playa Central","category":"playa","lat":22.783705378977114,"lng":-80.2475592917322,"avgVisitMinutes":30,"estimatedCostEur":4,"score":2.3146646669758426},{"id":"puerto-padre_7029","citySlug":"puerto-padre","name":"Parque Central","category":"ocio","lat":21.20348899165198,"lng":-76.60304587331369,"avgVisitMinutes":56,"estimatedCostEur":14,"score":2.5290724703306298},{"id":"puerto-padre_8880","citySlug":"puerto-padre","name":"Paseo Principal","category":"ocio","lat":21.191924245723385,"lng":-76.59653701715881,"avgVisitMinutes":52,"estimatedCostEur":18,"score":0.7208892824571911},{"id":"puerto-padre_2673","citySlug":"puerto-padre","name":"Zona Comercial","category":"ocio","lat":21.189818828303657,"lng":-76.59519231204756,"avgVisitMinutes":34,"estimatedCostEur":15,"score":3.801936416670635},{"id":"puerto-padre_1778","citySlug":"puerto-padre","name":"Iglesia de Puerto Padre","category":"historia","lat":21.202852813200124,"lng":-76.60902368437108,"avgVisitMinutes":56,"estimatedCostEur":15,"score":2.969697240120439},{"id":"puerto-padre_9641","citySlug":"puerto-padre","name":"Ruta de Tapas","category":"gastronomia","lat":21.196037272121345,"lng":-76.59961822618588,"avgVisitMinutes":52,"estimatedCostEur":2,"score":4.962044245264231},{"id":"puerto-padre_3249","citySlug":"puerto-padre","name":"Mercado Gastronómico","category":"gastronomia","lat":21.202021586153716,"lng":-76.60321791267405,"avgVisitMinutes":43,"estimatedCostEur":9,"score":1.3154242505841394},{"id":"puerto-padre_1041","citySlug":"puerto-padre","name":"Centro Histórico","category":"historia","lat":21.19025243405022,"lng":-76.59844169425457,"avgVisitMinutes":38,"estimatedCostEur":19,"score":2.6865496005736187},{"id":"puerto-padre_4277","citySlug":"puerto-padre","name":"Playa Sur","category":"playa","lat":21.19196865676067,"lng":-76.61043105253768,"avgVisitMinutes":53,"estimatedCostEur":4,"score":4.886720504341867},{"id":"puerto-padre_1554","citySlug":"puerto-padre","name":"Murallas de Puerto Padre","category":"historia","lat":21.205776267802236,"lng":-76.60118966424079,"avgVisitMinutes":37,"estimatedCostEur":13,"score":4.920836869505948},{"id":"primero-de-enero_2556","citySlug":"primero-de-enero","name":"Parque Central","category":"ocio","lat":21.942571421221032,"lng":-78.42567755886184,"avgVisitMinutes":25,"estimatedCostEur":18,"score":4.211657392510395},{"id":"primero-de-enero_9505","citySlug":"primero-de-enero","name":"Museo Cultural de Primero de Enero","category":"cultura","lat":21.947781780427704,"lng":-78.4216253020523,"avgVisitMinutes":26,"estimatedCostEur":18,"score":1.8898884335431065},{"id":"primero-de-enero_6813","citySlug":"primero-de-enero","name":"Museo Cultural de Primero de Enero","category":"cultura","lat":21.944069537349996,"lng":-78.43580837117503,"avgVisitMinutes":41,"estimatedCostEur":18,"score":4.485291468962909},{"id":"primero-de-enero_3331","citySlug":"primero-de-enero","name":"Castillo de Primero de Enero","category":"historia","lat":21.9482535409645,"lng":-78.43066672407608,"avgVisitMinutes":74,"estimatedCostEur":23,"score":2.0454158266256712},{"id":"primero-de-enero_4603","citySlug":"primero-de-enero","name":"Centro de Arte de Primero de Enero","category":"cultura","lat":21.946533920096908,"lng":-78.4275307928454,"avgVisitMinutes":39,"estimatedCostEur":7,"score":2.7169362939658637},{"id":"primero-de-enero_2366","citySlug":"primero-de-enero","name":"Playa Sur","category":"playa","lat":21.94673274366789,"lng":-78.43217059156568,"avgVisitMinutes":59,"estimatedCostEur":4,"score":3.162898152427014},{"id":"primero-de-enero_9357","citySlug":"primero-de-enero","name":"Museo Cultural de Primero de Enero","category":"cultura","lat":21.95437535390709,"lng":-78.42271189696186,"avgVisitMinutes":34,"estimatedCostEur":22,"score":3.130519123664729},{"id":"playa-baracoa_6296","citySlug":"playa-baracoa","name":"Playa Sur","category":"playa","lat":23.048779909191687,"lng":-82.55994485543702,"avgVisitMinutes":44,"estimatedCostEur":2,"score":1.0452785474485384},{"id":"playa-baracoa_9357","citySlug":"playa-baracoa","name":"Playa Norte","category":"playa","lat":23.039523936130042,"lng":-82.56612719074661,"avgVisitMinutes":51,"estimatedCostEur":14,"score":4.060789929845395},{"id":"playa-baracoa_7815","citySlug":"playa-baracoa","name":"Vista Alta de Playa Baracoa","category":"mirador","lat":23.052695154494447,"lng":-82.56727558711124,"avgVisitMinutes":70,"estimatedCostEur":14,"score":2.0987084878250735},{"id":"playa-baracoa_2129","citySlug":"playa-baracoa","name":"Parque Central","category":"ocio","lat":23.049478970632116,"lng":-82.57067518575055,"avgVisitMinutes":75,"estimatedCostEur":5,"score":3.1399621009615792},{"id":"playa-baracoa_5653","citySlug":"playa-baracoa","name":"Parque Central","category":"ocio","lat":23.05597785380502,"lng":-82.56438139388969,"avgVisitMinutes":89,"estimatedCostEur":3,"score":3.410354504874564},{"id":"playa-baracoa_9787","citySlug":"playa-baracoa","name":"Playa Central","category":"playa","lat":23.04984828106999,"lng":-82.56174978844571,"avgVisitMinutes":60,"estimatedCostEur":23,"score":3.4868363680519057},{"id":"playa-baracoa_6385","citySlug":"playa-baracoa","name":"Paseo Principal","category":"ocio","lat":23.049446725274183,"lng":-82.57442698246471,"avgVisitMinutes":29,"estimatedCostEur":3,"score":0.5855571470026926},{"id":"placetas_8152","citySlug":"placetas","name":"Centro Histórico","category":"historia","lat":22.323445747279774,"lng":-79.65622446610438,"avgVisitMinutes":29,"estimatedCostEur":14,"score":1.548920410108761},{"id":"placetas_1589","citySlug":"placetas","name":"Punto Panorámico","category":"mirador","lat":22.321276308136557,"lng":-79.64759772534667,"avgVisitMinutes":37,"estimatedCostEur":5,"score":4.7027191129747505},{"id":"placetas_5419","citySlug":"placetas","name":"Paseo Principal","category":"ocio","lat":22.31638526713624,"lng":-79.6581814711861,"avgVisitMinutes":56,"estimatedCostEur":11,"score":4.468639863544647},{"id":"placetas_7512","citySlug":"placetas","name":"Paseo Principal","category":"ocio","lat":22.313282120262745,"lng":-79.65810168742958,"avgVisitMinutes":37,"estimatedCostEur":19,"score":3.6581764191831727},{"id":"placetas_8894","citySlug":"placetas","name":"Vista Alta de Placetas","category":"mirador","lat":22.31382454363894,"lng":-79.64832957851482,"avgVisitMinutes":83,"estimatedCostEur":1,"score":3.663000428677169},{"id":"placetas_5430","citySlug":"placetas","name":"Iglesia de Placetas","category":"historia","lat":22.30812144690953,"lng":-79.65858326613017,"avgVisitMinutes":67,"estimatedCostEur":11,"score":4.828586536196808},{"id":"pinar-del-rio_5650","citySlug":"pinar-del-rio","name":"Ruta de Tapas","category":"gastronomia","lat":22.40955480878214,"lng":-83.70341902804837,"avgVisitMinutes":88,"estimatedCostEur":5,"score":2.385375015724153},{"id":"pinar-del-rio_1608","citySlug":"pinar-del-rio","name":"Parque Central","category":"ocio","lat":22.419897822430688,"lng":-83.68917514902746,"avgVisitMinutes":70,"estimatedCostEur":7,"score":3.881917528325672},{"id":"pinar-del-rio_7780","citySlug":"pinar-del-rio","name":"Iglesia de Pinar del Río","category":"historia","lat":22.420008156272416,"lng":-83.70069071511996,"avgVisitMinutes":80,"estimatedCostEur":4,"score":0.688306933453345},{"id":"pinar-del-rio_8346","citySlug":"pinar-del-rio","name":"Centro Histórico","category":"historia","lat":22.411335276720596,"lng":-83.69851641818568,"avgVisitMinutes":46,"estimatedCostEur":16,"score":3.572212080632261},{"id":"pinar-del-rio_9998","citySlug":"pinar-del-rio","name":"Museo Local de Pinar del Río","category":"historia","lat":22.411587716770768,"lng":-83.69484451124649,"avgVisitMinutes":46,"estimatedCostEur":14,"score":4.345094721262143},{"id":"pinar-del-rio_9922","citySlug":"pinar-del-rio","name":"Restaurante Típico de Pinar del Río","category":"gastronomia","lat":22.413873301578377,"lng":-83.7006125260124,"avgVisitMinutes":81,"estimatedCostEur":17,"score":1.2890870002188402},{"id":"pinar-del-rio_6314","citySlug":"pinar-del-rio","name":"Mirador de Pinar del Río","category":"mirador","lat":22.414216629642784,"lng":-83.70405828472413,"avgVisitMinutes":37,"estimatedCostEur":10,"score":2.9094034469466465},{"id":"pinar-del-rio_8966","citySlug":"pinar-del-rio","name":"Mercado Gastronómico","category":"gastronomia","lat":22.41179123914839,"lng":-83.69493670934145,"avgVisitMinutes":57,"estimatedCostEur":19,"score":3.114642771044008},{"id":"pilon_2135","citySlug":"pilon","name":"Mirador de Pilón","category":"mirador","lat":19.90516370592695,"lng":-77.31188788679844,"avgVisitMinutes":23,"estimatedCostEur":16,"score":0.9498947912478511},{"id":"pilon_9724","citySlug":"pilon","name":"Museo Cultural de Pilón","category":"cultura","lat":19.90916391371291,"lng":-77.31255090479901,"avgVisitMinutes":22,"estimatedCostEur":7,"score":1.2146387377003238},{"id":"pilon_6875","citySlug":"pilon","name":"Iglesia de Pilón","category":"historia","lat":19.910027138394796,"lng":-77.31808020733462,"avgVisitMinutes":23,"estimatedCostEur":24,"score":0.749583002827569},{"id":"pilon_2411","citySlug":"pilon","name":"Galería de Arte","category":"cultura","lat":19.898872923053077,"lng":-77.32447376277403,"avgVisitMinutes":75,"estimatedCostEur":11,"score":2.777991657799534},{"id":"pilon_1870","citySlug":"pilon","name":"Punto Panorámico","category":"mirador","lat":19.90631898840419,"lng":-77.31548708756527,"avgVisitMinutes":54,"estimatedCostEur":25,"score":4.431191439940628},{"id":"pilon_8562","citySlug":"pilon","name":"Restaurante Típico de Pilón","category":"gastronomia","lat":19.908417754942498,"lng":-77.31388714730575,"avgVisitMinutes":57,"estimatedCostEur":24,"score":1.6943590993894566},{"id":"pilon_7011","citySlug":"pilon","name":"Vista Alta de Pilón","category":"mirador","lat":19.897465424725805,"lng":-77.32865128384485,"avgVisitMinutes":32,"estimatedCostEur":22,"score":3.643146712823185},{"id":"pilon_6925","citySlug":"pilon","name":"Centro de Arte de Pilón","category":"cultura","lat":19.899492191581214,"lng":-77.32125469032185,"avgVisitMinutes":82,"estimatedCostEur":4,"score":4.83013594744006},{"id":"pilon_9862","citySlug":"pilon","name":"Galería de Arte","category":"cultura","lat":19.895541021747064,"lng":-77.32841919892718,"avgVisitMinutes":55,"estimatedCostEur":9,"score":0.9461667553849931},{"id":"pilon_7987","citySlug":"pilon","name":"Centro Histórico","category":"historia","lat":19.898280193630615,"lng":-77.32233506996616,"avgVisitMinutes":34,"estimatedCostEur":24,"score":3.691379239132147},{"id":"pilon_4054","citySlug":"pilon","name":"Ruta de Tapas","category":"gastronomia","lat":19.89631089251632,"lng":-77.32058470181468,"avgVisitMinutes":37,"estimatedCostEur":12,"score":4.38603903047521},{"id":"pilon_6879","citySlug":"pilon","name":"Punto Panorámico","category":"mirador","lat":19.899118444042575,"lng":-77.32806446648668,"avgVisitMinutes":29,"estimatedCostEur":24,"score":2.1844158105195186},{"id":"perico_9749","citySlug":"perico","name":"Ruta de Tapas","category":"gastronomia","lat":22.770331369513926,"lng":-81.01478146488503,"avgVisitMinutes":37,"estimatedCostEur":9,"score":0.7621964990141084},{"id":"perico_7419","citySlug":"perico","name":"Ruta de Tapas","category":"gastronomia","lat":22.76181067464007,"lng":-81.02205420241157,"avgVisitMinutes":58,"estimatedCostEur":16,"score":4.587522002331205},{"id":"perico_6863","citySlug":"perico","name":"Ruta de Tapas","category":"gastronomia","lat":22.764243607300443,"lng":-81.0194355560634,"avgVisitMinutes":27,"estimatedCostEur":13,"score":4.374879178678166},{"id":"perico_1126","citySlug":"perico","name":"Parque Central","category":"ocio","lat":22.767294831465087,"lng":-81.02131951058793,"avgVisitMinutes":55,"estimatedCostEur":20,"score":0.9869947328516185},{"id":"perico_7694","citySlug":"perico","name":"Galería de Arte","category":"cultura","lat":22.77100311776903,"lng":-81.01913803390732,"avgVisitMinutes":36,"estimatedCostEur":14,"score":0.9885855525609204},{"id":"perico_7297","citySlug":"perico","name":"Restaurante Típico de Perico","category":"gastronomia","lat":22.761327709320813,"lng":-81.02453390946094,"avgVisitMinutes":28,"estimatedCostEur":9,"score":2.3814785565008973},{"id":"perico_1432","citySlug":"perico","name":"Centro Histórico","category":"historia","lat":22.77231240684844,"lng":-81.01832547235843,"avgVisitMinutes":87,"estimatedCostEur":23,"score":1.5192293782219475},{"id":"perico_2297","citySlug":"perico","name":"Playa Central","category":"playa","lat":22.7768111582792,"lng":-81.02837908991215,"avgVisitMinutes":64,"estimatedCostEur":24,"score":2.6832507780055814},{"id":"pedro-betancourt_4823","citySlug":"pedro-betancourt","name":"Centro Histórico","category":"historia","lat":22.723634323091225,"lng":-81.28366214381822,"avgVisitMinutes":49,"estimatedCostEur":22,"score":1.022402755512612},{"id":"pedro-betancourt_9733","citySlug":"pedro-betancourt","name":"Museo Cultural de Pedro Betancourt","category":"cultura","lat":22.73144688514745,"lng":-81.29675575163088,"avgVisitMinutes":55,"estimatedCostEur":18,"score":2.7961409202723098},{"id":"pedro-betancourt_5231","citySlug":"pedro-betancourt","name":"Centro de Arte de Pedro Betancourt","category":"cultura","lat":22.725463374764544,"lng":-81.29720171783657,"avgVisitMinutes":23,"estimatedCostEur":2,"score":3.4284242837675265},{"id":"pedro-betancourt_1053","citySlug":"pedro-betancourt","name":"Galería de Arte","category":"cultura","lat":22.737693026114712,"lng":-81.28475425618767,"avgVisitMinutes":83,"estimatedCostEur":11,"score":4.10625863661469},{"id":"pedro-betancourt_1098","citySlug":"pedro-betancourt","name":"Centro de Arte de Pedro Betancourt","category":"cultura","lat":22.734052459070664,"lng":-81.27976042634361,"avgVisitMinutes":47,"estimatedCostEur":20,"score":3.352291853367463},{"id":"pedro-betancourt_3947","citySlug":"pedro-betancourt","name":"Playa Norte","category":"playa","lat":22.73639246939157,"lng":-81.29813878693062,"avgVisitMinutes":21,"estimatedCostEur":16,"score":3.49969429656996},{"id":"pedro-betancourt_1173","citySlug":"pedro-betancourt","name":"Castillo de Pedro Betancourt","category":"historia","lat":22.720755687368246,"lng":-81.28747212885153,"avgVisitMinutes":67,"estimatedCostEur":2,"score":3.1204655007723234},{"id":"palmira_7764","citySlug":"palmira","name":"Punto Panorámico","category":"mirador","lat":22.241951503051528,"lng":-80.39252626637459,"avgVisitMinutes":36,"estimatedCostEur":21,"score":1.2128058987652581},{"id":"palmira_8035","citySlug":"palmira","name":"Paseo Principal","category":"ocio","lat":22.241945075790333,"lng":-80.38404300170365,"avgVisitMinutes":49,"estimatedCostEur":20,"score":3.7226246037712327},{"id":"palmira_7580","citySlug":"palmira","name":"Playa Central","category":"playa","lat":22.241918444370345,"lng":-80.38657643783537,"avgVisitMinutes":48,"estimatedCostEur":3,"score":2.053490819620551},{"id":"palmira_9675","citySlug":"palmira","name":"Galería de Arte","category":"cultura","lat":22.25163973302765,"lng":-80.40050115255329,"avgVisitMinutes":27,"estimatedCostEur":4,"score":3.614391470220367},{"id":"palmira_8865","citySlug":"palmira","name":"Centro Histórico","category":"historia","lat":22.240236647334843,"lng":-80.40008661245797,"avgVisitMinutes":62,"estimatedCostEur":0,"score":3.4737763088034783},{"id":"palmira_9996","citySlug":"palmira","name":"Zona Comercial","category":"ocio","lat":22.24008232267564,"lng":-80.40032297103281,"avgVisitMinutes":84,"estimatedCostEur":17,"score":1.8413087723591868},{"id":"palmira_6543","citySlug":"palmira","name":"Centro de Arte de Palmira","category":"cultura","lat":22.243964645035962,"lng":-80.39542229851041,"avgVisitMinutes":28,"estimatedCostEur":2,"score":4.13778573514829},{"id":"palma-soriano_8496","citySlug":"palma-soriano","name":"Teatro Municipal","category":"cultura","lat":20.202380557788178,"lng":-75.98523264379267,"avgVisitMinutes":64,"estimatedCostEur":6,"score":3.5058857687650122},{"id":"palma-soriano_1805","citySlug":"palma-soriano","name":"Zona Comercial","category":"ocio","lat":20.21509868965026,"lng":-75.99875448401961,"avgVisitMinutes":35,"estimatedCostEur":5,"score":2.0993147143872886},{"id":"palma-soriano_4426","citySlug":"palma-soriano","name":"Museo Local de Palma Soriano","category":"historia","lat":20.205435727014866,"lng":-75.98598956642336,"avgVisitMinutes":68,"estimatedCostEur":6,"score":3.0054993844327274},{"id":"palma-soriano_2563","citySlug":"palma-soriano","name":"Castillo de Palma Soriano","category":"historia","lat":20.21521553762499,"lng":-75.98551385083745,"avgVisitMinutes":52,"estimatedCostEur":22,"score":0.8482029670114215},{"id":"palma-soriano_5429","citySlug":"palma-soriano","name":"Museo Local de Palma Soriano","category":"historia","lat":20.221340972950564,"lng":-75.99505613243029,"avgVisitMinutes":50,"estimatedCostEur":25,"score":1.023132049746022},{"id":"palma-soriano_1901","citySlug":"palma-soriano","name":"Restaurante Típico de Palma Soriano","category":"gastronomia","lat":20.218214054062734,"lng":-75.98550355612376,"avgVisitMinutes":67,"estimatedCostEur":22,"score":1.0576892360263386},{"id":"palma-soriano_1088","citySlug":"palma-soriano","name":"Playa Norte","category":"playa","lat":20.217303864348533,"lng":-75.99158279783798,"avgVisitMinutes":56,"estimatedCostEur":12,"score":2.136268037325719},{"id":"palma-soriano_7385","citySlug":"palma-soriano","name":"Restaurante Típico de Palma Soriano","category":"gastronomia","lat":20.20491215183699,"lng":-75.99501109174506,"avgVisitMinutes":40,"estimatedCostEur":5,"score":2.5209542811770382},{"id":"palma-soriano_5853","citySlug":"palma-soriano","name":"Mercado Gastronómico","category":"gastronomia","lat":20.219475029925132,"lng":-75.99946250511982,"avgVisitMinutes":45,"estimatedCostEur":23,"score":0.5706431227749182},{"id":"palma-soriano_6991","citySlug":"palma-soriano","name":"Parque Central","category":"ocio","lat":20.21734896450821,"lng":-75.98708698891592,"avgVisitMinutes":22,"estimatedCostEur":22,"score":0.5488061268805604},{"id":"nuevitas_8119","citySlug":"nuevitas","name":"Zona Comercial","category":"ocio","lat":21.550821664691185,"lng":-77.26458409249062,"avgVisitMinutes":33,"estimatedCostEur":18,"score":2.910562539741642},{"id":"nuevitas_7898","citySlug":"nuevitas","name":"Playa Central","category":"playa","lat":21.552805831137746,"lng":-77.26185341126092,"avgVisitMinutes":67,"estimatedCostEur":4,"score":1.8639926976769028},{"id":"nuevitas_4936","citySlug":"nuevitas","name":"Centro Histórico","category":"historia","lat":21.53972200362647,"lng":-77.27313330681767,"avgVisitMinutes":66,"estimatedCostEur":6,"score":1.7420294383170496},{"id":"nuevitas_3033","citySlug":"nuevitas","name":"Murallas de Nuevitas","category":"historia","lat":21.545550669088676,"lng":-77.26437695131726,"avgVisitMinutes":76,"estimatedCostEur":5,"score":2.957633646471854},{"id":"nuevitas_8325","citySlug":"nuevitas","name":"Paseo Principal","category":"ocio","lat":21.545274366673357,"lng":-77.27034438729783,"avgVisitMinutes":36,"estimatedCostEur":24,"score":3.844647320846871},{"id":"nuevitas_6570","citySlug":"nuevitas","name":"Centro Histórico","category":"historia","lat":21.552323656032378,"lng":-77.27237803465792,"avgVisitMinutes":31,"estimatedCostEur":15,"score":1.9020934276484773},{"id":"nuevitas_3660","citySlug":"nuevitas","name":"Playa Sur","category":"playa","lat":21.544178956988553,"lng":-77.2579612575576,"avgVisitMinutes":29,"estimatedCostEur":11,"score":0.9797445085510954},{"id":"nuevitas_7027","citySlug":"nuevitas","name":"Punto Panorámico","category":"mirador","lat":21.552274444294937,"lng":-77.27288627051581,"avgVisitMinutes":66,"estimatedCostEur":4,"score":4.341638065452422},{"id":"nuevitas_3132","citySlug":"nuevitas","name":"Restaurante Típico de Nuevitas","category":"gastronomia","lat":21.537026028101067,"lng":-77.26979703068564,"avgVisitMinutes":53,"estimatedCostEur":0,"score":4.290363683480768},{"id":"nuevitas_8969","citySlug":"nuevitas","name":"Playa Sur","category":"playa","lat":21.551278236840986,"lng":-77.25767451547644,"avgVisitMinutes":82,"estimatedCostEur":9,"score":3.586967663044202},{"id":"nuevitas_9562","citySlug":"nuevitas","name":"Playa Sur","category":"playa","lat":21.54907304569638,"lng":-77.27058905617197,"avgVisitMinutes":59,"estimatedCostEur":11,"score":0.78058806223206},{"id":"nuevitas_2919","citySlug":"nuevitas","name":"Mercado Gastronómico","category":"gastronomia","lat":21.54093380097561,"lng":-77.26444874124304,"avgVisitMinutes":56,"estimatedCostEur":0,"score":4.434848802499035},{"id":"nueva-gerona_9494","citySlug":"nueva-gerona","name":"Teatro Municipal","category":"cultura","lat":21.892297594187255,"lng":-82.7974750996501,"avgVisitMinutes":51,"estimatedCostEur":10,"score":1.1982252667862414},{"id":"nueva-gerona_1884","citySlug":"nueva-gerona","name":"Punto Panorámico","category":"mirador","lat":21.883217639667105,"lng":-82.8114979262723,"avgVisitMinutes":32,"estimatedCostEur":0,"score":2.882670602582062},{"id":"nueva-gerona_2708","citySlug":"nueva-gerona","name":"Punto Panorámico","category":"mirador","lat":21.88994082971822,"lng":-82.81318515076116,"avgVisitMinutes":84,"estimatedCostEur":0,"score":2.3681788164387396},{"id":"nueva-gerona_1541","citySlug":"nueva-gerona","name":"Playa Central","category":"playa","lat":21.884294459214097,"lng":-82.80774762226314,"avgVisitMinutes":73,"estimatedCostEur":10,"score":0.665694752814874},{"id":"nueva-gerona_4030","citySlug":"nueva-gerona","name":"Parque Central","category":"ocio","lat":21.888976170006888,"lng":-82.81296606724004,"avgVisitMinutes":70,"estimatedCostEur":11,"score":1.4246645826792121},{"id":"nueva-gerona_4536","citySlug":"nueva-gerona","name":"Restaurante Típico de Nueva Gerona","category":"gastronomia","lat":21.880773631409546,"lng":-82.81579841911748,"avgVisitMinutes":63,"estimatedCostEur":19,"score":2.3817491918070592},{"id":"nueva-gerona_5818","citySlug":"nueva-gerona","name":"Museo Cultural de Nueva Gerona","category":"cultura","lat":21.89294804410493,"lng":-82.80080096042796,"avgVisitMinutes":32,"estimatedCostEur":13,"score":3.7963011879624697},{"id":"nueva-gerona_1159","citySlug":"nueva-gerona","name":"Castillo de Nueva Gerona","category":"historia","lat":21.895649472651403,"lng":-82.81408599103489,"avgVisitMinutes":67,"estimatedCostEur":5,"score":1.5943125379198175},{"id":"nueva-gerona_7700","citySlug":"nueva-gerona","name":"Zona Comercial","category":"ocio","lat":21.883356593859773,"lng":-82.80428834409346,"avgVisitMinutes":78,"estimatedCostEur":1,"score":4.845985637799114},{"id":"nueva-gerona_6966","citySlug":"nueva-gerona","name":"Murallas de Nueva Gerona","category":"historia","lat":21.879848041519722,"lng":-82.80418279909495,"avgVisitMinutes":27,"estimatedCostEur":16,"score":2.0618346334947413},{"id":"nueva-gerona_9292","citySlug":"nueva-gerona","name":"Playa Sur","category":"playa","lat":21.88114552384185,"lng":-82.80693864984545,"avgVisitMinutes":89,"estimatedCostEur":18,"score":4.557816082670409},{"id":"nueva-gerona_4512","citySlug":"nueva-gerona","name":"Paseo Principal","category":"ocio","lat":21.881790551800563,"lng":-82.80635432589717,"avgVisitMinutes":42,"estimatedCostEur":18,"score":2.8259911664032087},{"id":"niquero_9488","citySlug":"niquero","name":"Museo Cultural de Niquero","category":"cultura","lat":20.048997191408887,"lng":-77.57901610015449,"avgVisitMinutes":34,"estimatedCostEur":1,"score":4.684945470242413},{"id":"niquero_4668","citySlug":"niquero","name":"Mercado Gastronómico","category":"gastronomia","lat":20.045883214359954,"lng":-77.57224675320728,"avgVisitMinutes":26,"estimatedCostEur":8,"score":4.791547583075815},{"id":"niquero_2073","citySlug":"niquero","name":"Restaurante Típico de Niquero","category":"gastronomia","lat":20.050003120660133,"lng":-77.58185426727013,"avgVisitMinutes":52,"estimatedCostEur":5,"score":1.371531526864389},{"id":"niquero_5892","citySlug":"niquero","name":"Zona Comercial","category":"ocio","lat":20.037116002733267,"lng":-77.57699844344639,"avgVisitMinutes":75,"estimatedCostEur":3,"score":0.8404371282011404},{"id":"niquero_9761","citySlug":"niquero","name":"Restaurante Típico de Niquero","category":"gastronomia","lat":20.04292181162838,"lng":-77.57988292750018,"avgVisitMinutes":66,"estimatedCostEur":10,"score":2.98599801396672},{"id":"niquero_9085","citySlug":"niquero","name":"Ruta de Tapas","category":"gastronomia","lat":20.04712376143154,"lng":-77.58761569931819,"avgVisitMinutes":79,"estimatedCostEur":17,"score":2.6817091356363965},{"id":"moron_5161","citySlug":"moron","name":"Museo Local de Morón","category":"historia","lat":22.117038480746054,"lng":-78.62556839257084,"avgVisitMinutes":87,"estimatedCostEur":23,"score":1.1435516000519848},{"id":"moron_7811","citySlug":"moron","name":"Murallas de Morón","category":"historia","lat":22.113522427343266,"lng":-78.62744903693515,"avgVisitMinutes":88,"estimatedCostEur":11,"score":4.461121482794239},