{"country":"EE","pois":[{"id":"vandra_8990","citySlug":"vandra","name":"Mirador de Vändra","category":"mirador","lat":58.65319682737771,"lng":25.03940872924826,"avgVisitMinutes":84,"estimatedCostEur":9,"score":4.430375321265189},{"id":"vandra_4557","citySlug":"vandra","name":"Parque Central","category":"ocio","lat":58.64537800098184,"lng":25.028738961613715,"avgVisitMinutes":23,"estimatedCostEur":4,"score":4.808227713362118},{"id":"vandra_3491","citySlug":"vandra","name":"Restaurante Típico de Vändra","category":"gastronomia","lat":58.657269715193095,"lng":25.0317039156685,"avgVisitMinutes":46,"estimatedCostEur":24,"score":4.689222081886341},{"id":"vandra_4577","citySlug":"vandra","name":"Museo Cultural de Vändra","category":"cultura","lat":58.64396908978727,"lng":25.03858623222991,"avgVisitMinutes":50,"estimatedCostEur":19,"score":2.178954959193936},{"id":"vandra_3840","citySlug":"vandra","name":"Playa Central","category":"playa","lat":58.645045741255615,"lng":25.04348676240605,"avgVisitMinutes":87,"estimatedCostEur":17,"score":1.1959161111450152},{"id":"vandra_4558","citySlug":"vandra","name":"Playa Central","category":"playa","lat":58.65084304804847,"lng":25.031481923805618,"avgVisitMinutes":82,"estimatedCostEur":8,"score":2.810187919476785},{"id":"vandra_1810","citySlug":"vandra","name":"Playa Norte","category":"playa","lat":58.650499897387206,"lng":25.03090964198784,"avgVisitMinutes":41,"estimatedCostEur":9,"score":0.6833611173056138},{"id":"vandra_8711","citySlug":"vandra","name":"Mercado Gastronómico","category":"gastronomia","lat":58.64184820090731,"lng":25.04333387747252,"avgVisitMinutes":77,"estimatedCostEur":24,"score":3.18335854742481},{"id":"vosu_8496","citySlug":"vosu","name":"Paseo Principal","category":"ocio","lat":59.57042793441898,"lng":25.98067836932071,"avgVisitMinutes":36,"estimatedCostEur":25,"score":2.9255307929126344},{"id":"vosu_4361","citySlug":"vosu","name":"Restaurante Típico de Võsu","category":"gastronomia","lat":59.5769994871997,"lng":25.980535510171098,"avgVisitMinutes":29,"estimatedCostEur":18,"score":1.0808143408686346},{"id":"vosu_1500","citySlug":"vosu","name":"Museo Cultural de Võsu","category":"cultura","lat":59.57526286396372,"lng":25.973077457242326,"avgVisitMinutes":40,"estimatedCostEur":11,"score":3.138658208696037},{"id":"vosu_9009","citySlug":"vosu","name":"Ruta de Tapas","category":"gastronomia","lat":59.56860419963988,"lng":25.973634625006362,"avgVisitMinutes":31,"estimatedCostEur":16,"score":3.5319858301958935},{"id":"vosu_2152","citySlug":"vosu","name":"Playa Sur","category":"playa","lat":59.582047948464286,"lng":25.98515200881645,"avgVisitMinutes":79,"estimatedCostEur":1,"score":1.1658418607523493},{"id":"vosu_5815","citySlug":"vosu","name":"Punto Panorámico","category":"mirador","lat":59.56397980486771,"lng":25.972295847582977,"avgVisitMinutes":48,"estimatedCostEur":14,"score":2.5965067343279795},{"id":"vosu_6870","citySlug":"vosu","name":"Restaurante Típico de Võsu","category":"gastronomia","lat":59.57182259164166,"lng":25.976148813590182,"avgVisitMinutes":34,"estimatedCostEur":8,"score":1.4197002401638872},{"id":"vosu_1867","citySlug":"vosu","name":"Playa Central","category":"playa","lat":59.577846983645074,"lng":25.977029613406252,"avgVisitMinutes":43,"estimatedCostEur":2,"score":4.877553229121548},{"id":"vosu_3551","citySlug":"vosu","name":"Museo Cultural de Võsu","category":"cultura","lat":59.581767169185404,"lng":25.974844855025864,"avgVisitMinutes":67,"estimatedCostEur":23,"score":2.25288477207838},{"id":"vosu_1172","citySlug":"vosu","name":"Vista Alta de Võsu","category":"mirador","lat":59.57707089670646,"lng":25.980760755752772,"avgVisitMinutes":48,"estimatedCostEur":17,"score":1.9246953524976795},{"id":"voru_4606","citySlug":"voru","name":"Museo Cultural de Võru","category":"cultura","lat":57.835331239937545,"lng":27.01095998799233,"avgVisitMinutes":88,"estimatedCostEur":18,"score":1.7712812458201457},{"id":"voru_5287","citySlug":"voru","name":"Restaurante Típico de Võru","category":"gastronomia","lat":57.83374535903319,"lng":27.014700172410237,"avgVisitMinutes":34,"estimatedCostEur":16,"score":4.198581586491731},{"id":"voru_1819","citySlug":"voru","name":"Museo Cultural de Võru","category":"cultura","lat":57.82856832115445,"lng":27.016857506117958,"avgVisitMinutes":30,"estimatedCostEur":16,"score":2.478839507246362},{"id":"voru_3165","citySlug":"voru","name":"Playa Sur","category":"playa","lat":57.827753891423775,"lng":27.021054893177936,"avgVisitMinutes":80,"estimatedCostEur":17,"score":1.2305318780970715},{"id":"voru_4761","citySlug":"voru","name":"Restaurante Típico de Võru","category":"gastronomia","lat":57.825149628863414,"lng":27.02028400051222,"avgVisitMinutes":83,"estimatedCostEur":19,"score":1.4744535420234866},{"id":"voru_5650","citySlug":"voru","name":"Ruta de Tapas","category":"gastronomia","lat":57.843688441273386,"lng":27.024438232388068,"avgVisitMinutes":30,"estimatedCostEur":24,"score":1.59818437377843},{"id":"voru_1132","citySlug":"voru","name":"Parque Central","category":"ocio","lat":57.836471404241856,"lng":27.02334798981702,"avgVisitMinutes":77,"estimatedCostEur":17,"score":2.1818896846301574},{"id":"voru_8734","citySlug":"voru","name":"Mirador de Võru","category":"mirador","lat":57.82836732222545,"lng":27.014118674898633,"avgVisitMinutes":83,"estimatedCostEur":8,"score":4.523460735157598},{"id":"voru_9501","citySlug":"voru","name":"Mercado Gastronómico","category":"gastronomia","lat":57.83949779937449,"lng":27.022761334720908,"avgVisitMinutes":53,"estimatedCostEur":10,"score":1.8946389146904157},{"id":"voru_4780","citySlug":"voru","name":"Mercado Gastronómico","category":"gastronomia","lat":57.84040355929263,"lng":27.012105169723753,"avgVisitMinutes":75,"estimatedCostEur":14,"score":2.0255506875513793},{"id":"voru_7662","citySlug":"voru","name":"Galería de Arte","category":"cultura","lat":57.839589470114696,"lng":27.023859433837995,"avgVisitMinutes":69,"estimatedCostEur":16,"score":1.6622524463561115},{"id":"voru_4011","citySlug":"voru","name":"Ruta de Tapas","category":"gastronomia","lat":57.84109786442,"lng":27.01399272685228,"avgVisitMinutes":77,"estimatedCostEur":5,"score":1.8030347621107539},{"id":"vormsi_7788","citySlug":"vormsi","name":"Playa Norte","category":"playa","lat":58.99291092977228,"lng":23.22196853625928,"avgVisitMinutes":70,"estimatedCostEur":19,"score":2.0784012774077345},{"id":"vormsi_1324","citySlug":"vormsi","name":"Zona Comercial","category":"ocio","lat":59.003034192771445,"lng":23.208937808886844,"avgVisitMinutes":81,"estimatedCostEur":20,"score":1.5961534163669486},{"id":"vormsi_5001","citySlug":"vormsi","name":"Punto Panorámico","category":"mirador","lat":58.99282339864228,"lng":23.21677151246169,"avgVisitMinutes":23,"estimatedCostEur":14,"score":1.5353639801231358},{"id":"vormsi_4479","citySlug":"vormsi","name":"Ruta de Tapas","category":"gastronomia","lat":59.000104023347674,"lng":23.22252834712225,"avgVisitMinutes":34,"estimatedCostEur":0,"score":3.166317439971665},{"id":"vormsi_8526","citySlug":"vormsi","name":"Mirador de Vormsi","category":"mirador","lat":58.994922550858995,"lng":23.2207117680285,"avgVisitMinutes":41,"estimatedCostEur":16,"score":2.964364093593159},{"id":"vormsi_3830","citySlug":"vormsi","name":"Restaurante Típico de Vormsi","category":"gastronomia","lat":59.000724333420536,"lng":23.214266947646216,"avgVisitMinutes":42,"estimatedCostEur":1,"score":4.526041920143835},{"id":"vormsi_8760","citySlug":"vormsi","name":"Mercado Gastronómico","category":"gastronomia","lat":59.00595383959582,"lng":23.20845440083924,"avgVisitMinutes":26,"estimatedCostEur":21,"score":2.9403892515696173},{"id":"vormsi_7836","citySlug":"vormsi","name":"Playa Central","category":"playa","lat":59.00799399713245,"lng":23.22326573592883,"avgVisitMinutes":45,"estimatedCostEur":6,"score":2.467756873639029},{"id":"vormsi_2381","citySlug":"vormsi","name":"Galería de Arte","category":"cultura","lat":58.9996104098857,"lng":23.2072632586351,"avgVisitMinutes":42,"estimatedCostEur":20,"score":3.07794816689087},{"id":"vorbuse_9538","citySlug":"vorbuse","name":"Centro Histórico","category":"historia","lat":58.41929485472935,"lng":26.658973709530088,"avgVisitMinutes":53,"estimatedCostEur":17,"score":0.9613692632647937},{"id":"vorbuse_3234","citySlug":"vorbuse","name":"Playa Sur","category":"playa","lat":58.407288150894274,"lng":26.64991461579357,"avgVisitMinutes":55,"estimatedCostEur":5,"score":4.478723252194733},{"id":"vorbuse_4821","citySlug":"vorbuse","name":"Paseo Principal","category":"ocio","lat":58.414199791344494,"lng":26.654090559551605,"avgVisitMinutes":66,"estimatedCostEur":10,"score":4.365434345845147},{"id":"vorbuse_2713","citySlug":"vorbuse","name":"Restaurante Típico de Vorbuse","category":"gastronomia","lat":58.417307432008826,"lng":26.658873885780228,"avgVisitMinutes":76,"estimatedCostEur":0,"score":3.166836095017643},{"id":"vorbuse_9271","citySlug":"vorbuse","name":"Paseo Principal","category":"ocio","lat":58.41703015690941,"lng":26.650747676616994,"avgVisitMinutes":80,"estimatedCostEur":8,"score":0.9888158952075865},{"id":"vorbuse_3569","citySlug":"vorbuse","name":"Restaurante Típico de Vorbuse","category":"gastronomia","lat":58.42588004366682,"lng":26.66639766953301,"avgVisitMinutes":68,"estimatedCostEur":10,"score":2.1770504014201815},{"id":"vorbuse_8793","citySlug":"vorbuse","name":"Ruta de Tapas","category":"gastronomia","lat":58.41137963526109,"lng":26.65956114316143,"avgVisitMinutes":77,"estimatedCostEur":22,"score":3.2006580724027094},{"id":"vorbuse_3811","citySlug":"vorbuse","name":"Museo Cultural de Vorbuse","category":"cultura","lat":58.423424502247514,"lng":26.663526602254755,"avgVisitMinutes":20,"estimatedCostEur":11,"score":2.914792305864877},{"id":"vorbuse_5331","citySlug":"vorbuse","name":"Iglesia de Vorbuse","category":"historia","lat":58.42263038639385,"lng":26.654340862852703,"avgVisitMinutes":30,"estimatedCostEur":11,"score":0.6103162370091788},{"id":"vorbuse_9972","citySlug":"vorbuse","name":"Playa Sur","category":"playa","lat":58.417707574667745,"lng":26.64933197294054,"avgVisitMinutes":75,"estimatedCostEur":17,"score":3.846774600232333},{"id":"vorbuse_7430","citySlug":"vorbuse","name":"Mirador de Vorbuse","category":"mirador","lat":58.4159809798032,"lng":26.65074288706196,"avgVisitMinutes":65,"estimatedCostEur":21,"score":1.5238513138092111},{"id":"vonnu_9238","citySlug":"vonnu","name":"Playa Sur","category":"playa","lat":58.27745971740616,"lng":27.05548948210723,"avgVisitMinutes":34,"estimatedCostEur":0,"score":1.8625377333957835},{"id":"vonnu_3001","citySlug":"vonnu","name":"Murallas de Võnnu","category":"historia","lat":58.28603721894662,"lng":27.04665172851714,"avgVisitMinutes":30,"estimatedCostEur":14,"score":2.4253354321557197},{"id":"vonnu_8517","citySlug":"vonnu","name":"Centro Histórico","category":"historia","lat":58.280259436793735,"lng":27.04589274406883,"avgVisitMinutes":34,"estimatedCostEur":6,"score":2.5424344767893965},{"id":"vonnu_8601","citySlug":"vonnu","name":"Playa Norte","category":"playa","lat":58.26891574592862,"lng":27.057735921751316,"avgVisitMinutes":45,"estimatedCostEur":13,"score":3.854175185086892},{"id":"vonnu_3301","citySlug":"vonnu","name":"Restaurante Típico de Võnnu","category":"gastronomia","lat":58.268827025206306,"lng":27.04274902373244,"avgVisitMinutes":82,"estimatedCostEur":21,"score":2.4039319043806247},{"id":"vonnu_3380","citySlug":"vonnu","name":"Iglesia de Võnnu","category":"historia","lat":58.268417102219416,"lng":27.052830154538736,"avgVisitMinutes":87,"estimatedCostEur":17,"score":2.9516434914856005},{"id":"vonnu_9417","citySlug":"vonnu","name":"Playa Central","category":"playa","lat":58.27570307219182,"lng":27.048619559844095,"avgVisitMinutes":29,"estimatedCostEur":8,"score":2.352631294369653},{"id":"vonnu_4257","citySlug":"vonnu","name":"Museo Cultural de Võnnu","category":"cultura","lat":58.285486313345736,"lng":27.049885105669134,"avgVisitMinutes":59,"estimatedCostEur":16,"score":4.775329075053665},{"id":"vonnu_9032","citySlug":"vonnu","name":"Castillo de Võnnu","category":"historia","lat":58.270740749643025,"lng":27.04601819554281,"avgVisitMinutes":33,"estimatedCostEur":12,"score":3.127709296560811},{"id":"voka_7480","citySlug":"voka","name":"Paseo Principal","category":"ocio","lat":59.41457950342686,"lng":27.581756269946315,"avgVisitMinutes":49,"estimatedCostEur":23,"score":2.6648011463560475},{"id":"voka_9188","citySlug":"voka","name":"Parque Central","category":"ocio","lat":59.39877889805718,"lng":27.581171393747788,"avgVisitMinutes":54,"estimatedCostEur":18,"score":3.06380481661848},{"id":"voka_4838","citySlug":"voka","name":"Galería de Arte","category":"cultura","lat":59.39954744293111,"lng":27.576411877335467,"avgVisitMinutes":75,"estimatedCostEur":22,"score":3.3716935121150704},{"id":"voka_3747","citySlug":"voka","name":"Vista Alta de Voka","category":"mirador","lat":59.40169397624391,"lng":27.57675551184047,"avgVisitMinutes":36,"estimatedCostEur":12,"score":3.0153734453112646},{"id":"voka_3820","citySlug":"voka","name":"Playa Norte","category":"playa","lat":59.40319591332163,"lng":27.574338563068697,"avgVisitMinutes":75,"estimatedCostEur":1,"score":0.5106479308315988},{"id":"voka_3107","citySlug":"voka","name":"Ruta de Tapas","category":"gastronomia","lat":59.40300710920817,"lng":27.57903995718064,"avgVisitMinutes":43,"estimatedCostEur":11,"score":0.9632464248118777},{"id":"voka_5655","citySlug":"voka","name":"Playa Norte","category":"playa","lat":59.403587575735365,"lng":27.577361785377644,"avgVisitMinutes":34,"estimatedCostEur":10,"score":1.693068615299494},{"id":"voka_5707","citySlug":"voka","name":"Playa Sur","category":"playa","lat":59.40363295716983,"lng":27.578619511159573,"avgVisitMinutes":20,"estimatedCostEur":7,"score":3.905574692722854},{"id":"voiste_8795","citySlug":"voiste","name":"Playa Norte","category":"playa","lat":58.4644543045714,"lng":24.476401885955966,"avgVisitMinutes":55,"estimatedCostEur":6,"score":1.7839889603024495},{"id":"voiste_6331","citySlug":"voiste","name":"Mercado Gastronómico","category":"gastronomia","lat":58.47204561395716,"lng":24.479436390410477,"avgVisitMinutes":80,"estimatedCostEur":3,"score":1.4793422711801898},{"id":"voiste_8934","citySlug":"voiste","name":"Vista Alta de Võiste","category":"mirador","lat":58.474617909004365,"lng":24.479067973179887,"avgVisitMinutes":55,"estimatedCostEur":2,"score":2.7210873710410297},{"id":"voiste_6133","citySlug":"voiste","name":"Playa Norte","category":"playa","lat":58.45965649545013,"lng":24.485098779160573,"avgVisitMinutes":31,"estimatedCostEur":2,"score":0.8305192756840918},{"id":"voiste_7120","citySlug":"voiste","name":"Mercado Gastronómico","category":"gastronomia","lat":58.474868179722584,"lng":24.49212395277791,"avgVisitMinutes":76,"estimatedCostEur":0,"score":3.731803161929209},{"id":"voiste_8459","citySlug":"voiste","name":"Playa Sur","category":"playa","lat":58.460612401250245,"lng":24.491407816896643,"avgVisitMinutes":71,"estimatedCostEur":13,"score":0.8040756254376773},{"id":"voiste_8104","citySlug":"voiste","name":"Centro de Arte de Võiste","category":"cultura","lat":58.47342966720718,"lng":24.490672198048436,"avgVisitMinutes":40,"estimatedCostEur":21,"score":2.5751661909588943},{"id":"voiste_5884","citySlug":"voiste","name":"Ruta de Tapas","category":"gastronomia","lat":58.473043670950844,"lng":24.479799405809,"avgVisitMinutes":89,"estimatedCostEur":9,"score":3.6187533591768397},{"id":"voiste_5194","citySlug":"voiste","name":"Mirador de Võiste","category":"mirador","lat":58.47587634102195,"lng":24.48769543431892,"avgVisitMinutes":66,"estimatedCostEur":15,"score":3.363418977058984},{"id":"voiste_8662","citySlug":"voiste","name":"Iglesia de Võiste","category":"historia","lat":58.47066617035307,"lng":24.47819159579851,"avgVisitMinutes":81,"estimatedCostEur":9,"score":3.9089537709265842},{"id":"voiste_2806","citySlug":"voiste","name":"Museo Local de Võiste","category":"historia","lat":58.45830379812062,"lng":24.473999744147445,"avgVisitMinutes":63,"estimatedCostEur":13,"score":2.0377544732652155},{"id":"voisiku_9911","citySlug":"voisiku","name":"Paseo Principal","category":"ocio","lat":58.62122780716287,"lng":25.92859270072082,"avgVisitMinutes":20,"estimatedCostEur":20,"score":2.6198967634621684},{"id":"voisiku_1564","citySlug":"voisiku","name":"Playa Sur","category":"playa","lat":58.62670629456075,"lng":25.917077754788107,"avgVisitMinutes":89,"estimatedCostEur":14,"score":4.118016927155763},{"id":"voisiku_1305","citySlug":"voisiku","name":"Paseo Principal","category":"ocio","lat":58.62375250199931,"lng":25.91636213869057,"avgVisitMinutes":59,"estimatedCostEur":23,"score":1.3332248630206767},{"id":"voisiku_1631","citySlug":"voisiku","name":"Mercado Gastronómico","category":"gastronomia","lat":58.63687530780963,"lng":25.920288185651636,"avgVisitMinutes":20,"estimatedCostEur":18,"score":4.997940404217663},{"id":"voisiku_5624","citySlug":"voisiku","name":"Playa Sur","category":"playa","lat":58.637265786863345,"lng":25.919705522762627,"avgVisitMinutes":72,"estimatedCostEur":2,"score":0.8900218935927642},{"id":"voisiku_3999","citySlug":"voisiku","name":"Murallas de Võisiku","category":"historia","lat":58.62618120455884,"lng":25.913061921363003,"avgVisitMinutes":46,"estimatedCostEur":24,"score":2.3013264520821664},{"id":"vohma_6344","citySlug":"vohma","name":"Vista Alta de Võhma","category":"mirador","lat":58.63266420554927,"lng":25.551897494896252,"avgVisitMinutes":57,"estimatedCostEur":13,"score":3.9329991415194576},{"id":"vohma_4949","citySlug":"vohma","name":"Centro Histórico","category":"historia","lat":58.62361770858731,"lng":25.550795660086415,"avgVisitMinutes":79,"estimatedCostEur":19,"score":2.0560551645923457},{"id":"vohma_5603","citySlug":"vohma","name":"Centro Histórico","category":"historia","lat":58.624644965874985,"lng":25.55320306889954,"avgVisitMinutes":43,"estimatedCostEur":24,"score":3.3832998609325693},{"id":"vohma_4578","citySlug":"vohma","name":"Mercado Gastronómico","category":"gastronomia","lat":58.6328235772768,"lng":25.553192146614553,"avgVisitMinutes":23,"estimatedCostEur":14,"score":3.4708256625356513},{"id":"vohma_4393","citySlug":"vohma","name":"Centro de Arte de Võhma","category":"cultura","lat":58.638268010728005,"lng":25.547358772171922,"avgVisitMinutes":75,"estimatedCostEur":12,"score":2.7320014129772248},{"id":"vohma_6249","citySlug":"vohma","name":"Centro de Arte de Võhma","category":"cultura","lat":58.63057039788446,"lng":25.540397300916453,"avgVisitMinutes":85,"estimatedCostEur":10,"score":1.9578670544107788},{"id":"vohma_9359","citySlug":"vohma","name":"Mirador de Võhma","category":"mirador","lat":58.62562583078419,"lng":25.557686254385477,"avgVisitMinutes":68,"estimatedCostEur":17,"score":1.4836496120442213},{"id":"vohma_1397","citySlug":"vohma","name":"Ruta de Tapas","category":"gastronomia","lat":58.63706302086046,"lng":25.553012454185524,"avgVisitMinutes":23,"estimatedCostEur":7,"score":2.61746519727304},{"id":"roela_9600","citySlug":"roela","name":"Vista Alta de Roela","category":"mirador","lat":59.17980837835425,"lng":26.593082772756684,"avgVisitMinutes":84,"estimatedCostEur":7,"score":3.3351357470429854},{"id":"roela_9323","citySlug":"roela","name":"Mercado Gastronómico","category":"gastronomia","lat":59.18001203875267,"lng":26.595385079513722,"avgVisitMinutes":22,"estimatedCostEur":8,"score":4.419459189976299},{"id":"roela_5322","citySlug":"roela","name":"Centro de Arte de Roela","category":"cultura","lat":59.18014680299841,"lng":26.595313563749315,"avgVisitMinutes":83,"estimatedCostEur":16,"score":4.225394865829793},{"id":"roela_9364","citySlug":"roela","name":"Mercado Gastronómico","category":"gastronomia","lat":59.17708786851398,"lng":26.592325312234262,"avgVisitMinutes":28,"estimatedCostEur":23,"score":1.513741155558212},{"id":"roela_6838","citySlug":"roela","name":"Murallas de Roela","category":"historia","lat":59.16606365154789,"lng":26.608774243692704,"avgVisitMinutes":57,"estimatedCostEur":22,"score":1.6341493125570343},{"id":"roela_6043","citySlug":"roela","name":"Restaurante Típico de Roela","category":"gastronomia","lat":59.17740282301416,"lng":26.606601811960473,"avgVisitMinutes":39,"estimatedCostEur":21,"score":4.824838813026088},{"id":"roela_8277","citySlug":"roela","name":"Vista Alta de Roela","category":"mirador","lat":59.17494629147829,"lng":26.609960141684155,"avgVisitMinutes":89,"estimatedCostEur":19,"score":3.521116284941603},{"id":"roela_8367","citySlug":"roela","name":"Murallas de Roela","category":"historia","lat":59.16080673309024,"lng":26.59529250392648,"avgVisitMinutes":50,"estimatedCostEur":2,"score":0.7362063935222323},{"id":"roela_8995","citySlug":"roela","name":"Ruta de Tapas","category":"gastronomia","lat":59.17402179301499,"lng":26.597270768298387,"avgVisitMinutes":21,"estimatedCostEur":1,"score":4.119366382739822},{"id":"viru-nigula_4316","citySlug":"viru-nigula","name":"Centro de Arte de Viru-Nigula","category":"cultura","lat":59.44024946935842,"lng":26.687716460951037,"avgVisitMinutes":75,"estimatedCostEur":21,"score":3.5220870252660923},{"id":"viru-nigula_7140","citySlug":"viru-nigula","name":"Vista Alta de Viru-Nigula","category":"mirador","lat":59.44139377059923,"lng":26.6887511749077,"avgVisitMinutes":25,"estimatedCostEur":2,"score":4.312289574919592},{"id":"viru-nigula_6867","citySlug":"viru-nigula","name":"Mirador de Viru-Nigula","category":"mirador","lat":59.44655029602926,"lng":26.678714520707885,"avgVisitMinutes":50,"estimatedCostEur":17,"score":1.924187809758496},{"id":"viru-nigula_9918","citySlug":"viru-nigula","name":"Museo Local de Viru-Nigula","category":"historia","lat":59.44321037484633,"lng":26.69721404122207,"avgVisitMinutes":67,"estimatedCostEur":17,"score":2.1102571911409065},{"id":"viru-nigula_1107","citySlug":"viru-nigula","name":"Zona Comercial","category":"ocio","lat":59.44183061700199,"lng":26.682685694946485,"avgVisitMinutes":33,"estimatedCostEur":15,"score":3.310079892434658},{"id":"viru-nigula_2919","citySlug":"viru-nigula","name":"Mercado Gastronómico","category":"gastronomia","lat":59.452223117848376,"lng":26.683538853585308,"avgVisitMinutes":22,"estimatedCostEur":6,"score":3.6893585761127285},{"id":"viru-nigula_2520","citySlug":"viru-nigula","name":"Museo Local de Viru-Nigula","category":"historia","lat":59.44017859127285,"lng":26.67866062609621,"avgVisitMinutes":75,"estimatedCostEur":10,"score":4.900750545908203},{"id":"viru-nigula_3961","citySlug":"viru-nigula","name":"Punto Panorámico","category":"mirador","lat":59.44688956454487,"lng":26.683411063493285,"avgVisitMinutes":30,"estimatedCostEur":23,"score":2.2972446098734487},{"id":"viru-nigula_7205","citySlug":"viru-nigula","name":"Playa Central","category":"playa","lat":59.437235887977984,"lng":26.682243728461255,"avgVisitMinutes":89,"estimatedCostEur":4,"score":1.5250179695893393},{"id":"viru-jaagupi_5829","citySlug":"viru-jaagupi","name":"Playa Sur","category":"playa","lat":59.2343465314002,"lng":26.46622445517004,"avgVisitMinutes":79,"estimatedCostEur":18,"score":1.3005759231180178},{"id":"viru-jaagupi_1806","citySlug":"viru-jaagupi","name":"Centro de Arte de Viru-Jaagupi","category":"cultura","lat":59.24229297873903,"lng":26.484671602495524,"avgVisitMinutes":43,"estimatedCostEur":9,"score":1.064480117105264},{"id":"viru-jaagupi_8529","citySlug":"viru-jaagupi","name":"Playa Norte","category":"playa","lat":59.24202323467997,"lng":26.479803605867566,"avgVisitMinutes":81,"estimatedCostEur":25,"score":2.2836423331880704},{"id":"viru-jaagupi_4068","citySlug":"viru-jaagupi","name":"Playa Norte","category":"playa","lat":59.237500234705145,"lng":26.4742211191567,"avgVisitMinutes":59,"estimatedCostEur":24,"score":1.8955571679976673},{"id":"viru-jaagupi_5840","citySlug":"viru-jaagupi","name":"Centro Histórico","category":"historia","lat":59.23342720775453,"lng":26.47274057978343,"avgVisitMinutes":33,"estimatedCostEur":7,"score":3.3578814678885847},{"id":"viru-jaagupi_3974","citySlug":"viru-jaagupi","name":"Castillo de Viru-Jaagupi","category":"historia","lat":59.25146082842676,"lng":26.47982001047545,"avgVisitMinutes":73,"estimatedCostEur":25,"score":3.790171688928741},{"id":"virtsu_8941","citySlug":"virtsu","name":"Paseo Principal","category":"ocio","lat":58.57666900148505,"lng":23.519484012814093,"avgVisitMinutes":73,"estimatedCostEur":4,"score":3.277177840985437},{"id":"virtsu_1170","citySlug":"virtsu","name":"Punto Panorámico","category":"mirador","lat":58.56309909930352,"lng":23.52295167629035,"avgVisitMinutes":35,"estimatedCostEur":25,"score":1.5609017113137664},{"id":"virtsu_2285","citySlug":"virtsu","name":"Teatro Municipal","category":"cultura","lat":58.5740074999468,"lng":23.515919601797226,"avgVisitMinutes":73,"estimatedCostEur":9,"score":4.987202679038104},{"id":"virtsu_9256","citySlug":"virtsu","name":"Mirador de Virtsu","category":"mirador","lat":58.56068914759154,"lng":23.518614675298814,"avgVisitMinutes":31,"estimatedCostEur":23,"score":3.4036661451556327},{"id":"virtsu_8488","citySlug":"virtsu","name":"Mirador de Virtsu","category":"mirador","lat":58.57483643925266,"lng":23.52928077164603,"avgVisitMinutes":38,"estimatedCostEur":3,"score":2.872264238194525},{"id":"virtsu_7588","citySlug":"virtsu","name":"Punto Panorámico","category":"mirador","lat":58.579194498354966,"lng":23.520317644329356,"avgVisitMinutes":74,"estimatedCostEur":2,"score":2.9028046475578755},{"id":"virtsu_6023","citySlug":"virtsu","name":"Galería de Arte","category":"cultura","lat":58.57577448558257,"lng":23.514124431197583,"avgVisitMinutes":43,"estimatedCostEur":10,"score":3.8984062053340147},{"id":"virtsu_2577","citySlug":"virtsu","name":"Teatro Municipal","category":"cultura","lat":58.56785247995357,"lng":23.522930606682493,"avgVisitMinutes":43,"estimatedCostEur":12,"score":1.1964930293301723},{"id":"virtsu_2081","citySlug":"virtsu","name":"Iglesia de Virtsu","category":"historia","lat":58.56531060654127,"lng":23.53056834324866,"avgVisitMinutes":90,"estimatedCostEur":4,"score":3.123273021260781},{"id":"virtsu_3867","citySlug":"virtsu","name":"Mirador de Virtsu","category":"mirador","lat":58.57757656111743,"lng":23.531007707461217,"avgVisitMinutes":47,"estimatedCostEur":4,"score":4.0924311136944045},{"id":"virtsu_1118","citySlug":"virtsu","name":"Playa Central","category":"playa","lat":58.5702251034523,"lng":23.524816615799317,"avgVisitMinutes":77,"estimatedCostEur":18,"score":0.5119067803383738},{"id":"virtsu_1953","citySlug":"virtsu","name":"Parque Central","category":"ocio","lat":58.56048357918725,"lng":23.527755294560524,"avgVisitMinutes":55,"estimatedCostEur":8,"score":0.8277034207437328},{"id":"vinni_7630","citySlug":"vinni","name":"Centro de Arte de Vinni","category":"cultura","lat":59.29092192088749,"lng":26.42881475120731,"avgVisitMinutes":61,"estimatedCostEur":8,"score":0.6571671359207312},{"id":"vinni_8454","citySlug":"vinni","name":"Castillo de Vinni","category":"historia","lat":59.304776432246136,"lng":26.427936448140915,"avgVisitMinutes":76,"estimatedCostEur":4,"score":0.5387006948571036},{"id":"vinni_2163","citySlug":"vinni","name":"Castillo de Vinni","category":"historia","lat":59.29517468486142,"lng":26.43063878069371,"avgVisitMinutes":23,"estimatedCostEur":3,"score":4.454479522511571},{"id":"vinni_9959","citySlug":"vinni","name":"Playa Norte","category":"playa","lat":59.29035965770031,"lng":26.431512306793575,"avgVisitMinutes":38,"estimatedCostEur":17,"score":4.042788127839431},{"id":"vinni_3401","citySlug":"vinni","name":"Ruta de Tapas","category":"gastronomia","lat":59.303439706145596,"lng":26.42737818193676,"avgVisitMinutes":41,"estimatedCostEur":18,"score":2.9943488759829213},{"id":"vinni_8643","citySlug":"vinni","name":"Parque Central","category":"ocio","lat":59.29292688511229,"lng":26.433057308288014,"avgVisitMinutes":26,"estimatedCostEur":7,"score":2.3794446514647274},{"id":"vinni_2593","citySlug":"vinni","name":"Teatro Municipal","category":"cultura","lat":59.30216563577332,"lng":26.42714851867505,"avgVisitMinutes":59,"estimatedCostEur":2,"score":1.0115611978778565},{"id":"vinni_9002","citySlug":"vinni","name":"Iglesia de Vinni","category":"historia","lat":59.30400462609946,"lng":26.431219725519714,"avgVisitMinutes":30,"estimatedCostEur":17,"score":2.2919501668574584},{"id":"vinni_7501","citySlug":"vinni","name":"Centro Histórico","category":"historia","lat":59.29560803205655,"lng":26.440688962605474,"avgVisitMinutes":79,"estimatedCostEur":1,"score":4.554172750258156},{"id":"vinni_5061","citySlug":"vinni","name":"Centro Histórico","category":"historia","lat":59.286744986972785,"lng":26.43763542682455,"avgVisitMinutes":90,"estimatedCostEur":1,"score":1.2397639417742488},{"id":"vinni_3839","citySlug":"vinni","name":"Teatro Municipal","category":"cultura","lat":59.2985473305799,"lng":26.42707803195656,"avgVisitMinutes":52,"estimatedCostEur":21,"score":2.569286142303054},{"id":"vinni_1174","citySlug":"vinni","name":"Ruta de Tapas","category":"gastronomia","lat":59.30361366518139,"lng":26.432819441605623,"avgVisitMinutes":85,"estimatedCostEur":19,"score":1.1025526999103747},{"id":"viljandi_4284","citySlug":"viljandi","name":"Ruta de Tapas","category":"gastronomia","lat":58.372355732956365,"lng":25.584441888281965,"avgVisitMinutes":88,"estimatedCostEur":5,"score":4.738422722347666},{"id":"viljandi_9240","citySlug":"viljandi","name":"Parque Central","category":"ocio","lat":58.363026362825686,"lng":25.596441706451568,"avgVisitMinutes":81,"estimatedCostEur":18,"score":1.306621402730295},{"id":"viljandi_8322","citySlug":"viljandi","name":"Mirador de Viljandi","category":"mirador","lat":58.362381615824525,"lng":25.58794779624414,"avgVisitMinutes":89,"estimatedCostEur":1,"score":2.0129368151326696},{"id":"viljandi_3143","citySlug":"viljandi","name":"Ruta de Tapas","category":"gastronomia","lat":58.36684378553039,"lng":25.584965023598954,"avgVisitMinutes":31,"estimatedCostEur":5,"score":1.3545810158648082},{"id":"viljandi_6010","citySlug":"viljandi","name":"Playa Norte","category":"playa","lat":58.3675033003466,"lng":25.595273682553373,"avgVisitMinutes":37,"estimatedCostEur":15,"score":3.5006493212486642},{"id":"viljandi_2616","citySlug":"viljandi","name":"Restaurante Típico de Viljandi","category":"gastronomia","lat":58.36543139642512,"lng":25.597032689435434,"avgVisitMinutes":27,"estimatedCostEur":17,"score":2.197786013397912},{"id":"viljandi_8764","citySlug":"viljandi","name":"Playa Norte","category":"playa","lat":58.360730262363305,"lng":25.591557406506244,"avgVisitMinutes":33,"estimatedCostEur":16,"score":3.1665671388529013},{"id":"viljandi_4340","citySlug":"viljandi","name":"Museo Cultural de Viljandi","category":"cultura","lat":58.368763644576994,"lng":25.591243427199537,"avgVisitMinutes":49,"estimatedCostEur":10,"score":3.0151478908787},{"id":"viljandi_8443","citySlug":"viljandi","name":"Parque Central","category":"ocio","lat":58.35360190677889,"lng":25.594255408900104,"avgVisitMinutes":89,"estimatedCostEur":0,"score":1.5627298730615404},{"id":"vilivere_7658","citySlug":"vilivere","name":"Centro de Arte de Vilivere","category":"cultura","lat":59.20106443071049,"lng":24.713201925504322,"avgVisitMinutes":89,"estimatedCostEur":7,"score":2.3857500090706463},{"id":"vilivere_4967","citySlug":"vilivere","name":"Vista Alta de Vilivere","category":"mirador","lat":59.21018774360868,"lng":24.705167005469637,"avgVisitMinutes":36,"estimatedCostEur":8,"score":0.8335573319934597},{"id":"vilivere_1060","citySlug":"vilivere","name":"Zona Comercial","category":"ocio","lat":59.20383152900512,"lng":24.723935667016054,"avgVisitMinutes":60,"estimatedCostEur":7,"score":1.5438954596932681},{"id":"vilivere_1425","citySlug":"vilivere","name":"Zona Comercial","category":"ocio","lat":59.20562702607728,"lng":24.705338366484003,"avgVisitMinutes":87,"estimatedCostEur":3,"score":4.702661462165707},{"id":"vilivere_9515","citySlug":"vilivere","name":"Zona Comercial","category":"ocio","lat":59.20235085619311,"lng":24.718923474174716,"avgVisitMinutes":49,"estimatedCostEur":11,"score":0.9825345295337793},{"id":"vilivere_5214","citySlug":"vilivere","name":"Playa Sur","category":"playa","lat":59.19583385078844,"lng":24.71036443454961,"avgVisitMinutes":55,"estimatedCostEur":11,"score":1.5422252939223722},{"id":"viisu_4510","citySlug":"viisu","name":"Ruta de Tapas","category":"gastronomia","lat":58.94495043355681,"lng":25.67446039692428,"avgVisitMinutes":86,"estimatedCostEur":4,"score":3.5899061539727954},{"id":"viisu_1161","citySlug":"viisu","name":"Playa Sur","category":"playa","lat":58.95193543801954,"lng":25.679758118098533,"avgVisitMinutes":87,"estimatedCostEur":20,"score":1.7022334401763366},{"id":"viisu_8190","citySlug":"viisu","name":"Playa Sur","category":"playa","lat":58.94192021654337,"lng":25.671019039311197,"avgVisitMinutes":45,"estimatedCostEur":18,"score":3.044665116863302},{"id":"viisu_5689","citySlug":"viisu","name":"Mercado Gastronómico","category":"gastronomia","lat":58.93893699459733,"lng":25.671500365749257,"avgVisitMinutes":34,"estimatedCostEur":12,"score":2.8751714004942426},{"id":"viisu_7687","citySlug":"viisu","name":"Castillo de Viisu","category":"historia","lat":58.948120660562566,"lng":25.66771633082487,"avgVisitMinutes":23,"estimatedCostEur":19,"score":2.2717417094923955},{"id":"viisu_6201","citySlug":"viisu","name":"Teatro Municipal","category":"cultura","lat":58.94203052063297,"lng":25.672566681328355,"avgVisitMinutes":67,"estimatedCostEur":17,"score":2.4452361162456153},{"id":"viisu_9240","citySlug":"viisu","name":"Ruta de Tapas","category":"gastronomia","lat":58.952932815887074,"lng":25.664262718564906,"avgVisitMinutes":59,"estimatedCostEur":16,"score":0.9514708288874887},{"id":"viisu_3878","citySlug":"viisu","name":"Punto Panorámico","category":"mirador","lat":58.93976967765398,"lng":25.678662400157236,"avgVisitMinutes":78,"estimatedCostEur":8,"score":3.462093921981582},{"id":"viisu_3591","citySlug":"viisu","name":"Paseo Principal","category":"ocio","lat":58.94110815906863,"lng":25.671940162841395,"avgVisitMinutes":86,"estimatedCostEur":16,"score":1.4192604577798122},{"id":"viisu_1052","citySlug":"viisu","name":"Museo Cultural de Viisu","category":"cultura","lat":58.93774667226409,"lng":25.676842679740837,"avgVisitMinutes":56,"estimatedCostEur":5,"score":1.7362861767860287},{"id":"viiratsi_4688","citySlug":"viiratsi","name":"Centro de Arte de Viiratsi","category":"cultura","lat":58.35826788309387,"lng":25.63830900453241,"avgVisitMinutes":61,"estimatedCostEur":7,"score":1.2761790890997498},{"id":"viiratsi_6429","citySlug":"viiratsi","name":"Murallas de Viiratsi","category":"historia","lat":58.350233626223684,"lng":25.645191519861754,"avgVisitMinutes":24,"estimatedCostEur":12,"score":3.972456424923843},{"id":"viiratsi_7174","citySlug":"viiratsi","name":"Murallas de Viiratsi","category":"historia","lat":58.36940848873556,"lng":25.62845376574701,"avgVisitMinutes":79,"estimatedCostEur":11,"score":0.5927402766722496},{"id":"viiratsi_8012","citySlug":"viiratsi","name":"Murallas de Viiratsi","category":"historia","lat":58.355128897543715,"lng":25.631625618359234,"avgVisitMinutes":89,"estimatedCostEur":0,"score":4.841466956317214},{"id":"viiratsi_7217","citySlug":"viiratsi","name":"Parque Central","category":"ocio","lat":58.36235854303316,"lng":25.637165997065676,"avgVisitMinutes":50,"estimatedCostEur":17,"score":4.991945717469426},{"id":"viiratsi_3983","citySlug":"viiratsi","name":"Playa Sur","category":"playa","lat":58.35250136266704,"lng":25.62789292305072,"avgVisitMinutes":74,"estimatedCostEur":24,"score":3.4837177023584234},{"id":"viimsi_9411","citySlug":"viimsi","name":"Paseo Principal","category":"ocio","lat":59.502226587861955,"lng":24.845212444387332,"avgVisitMinutes":78,"estimatedCostEur":0,"score":2.0941252488973676},{"id":"viimsi_7959","citySlug":"viimsi","name":"Zona Comercial","category":"ocio","lat":59.509020492193784,"lng":24.850815357758712,"avgVisitMinutes":35,"estimatedCostEur":15,"score":4.212687870999295},{"id":"viimsi_7967","citySlug":"viimsi","name":"Mercado Gastronómico","category":"gastronomia","lat":59.50555884926356,"lng":24.851330550417362,"avgVisitMinutes":65,"estimatedCostEur":2,"score":0.8947201594193747},{"id":"viimsi_9053","citySlug":"viimsi","name":"Restaurante Típico de Viimsi","category":"gastronomia","lat":59.50768582719133,"lng":24.851292016455638,"avgVisitMinutes":84,"estimatedCostEur":4,"score":2.7818969849939714},{"id":"viimsi_3653","citySlug":"viimsi","name":"Iglesia de Viimsi","category":"historia","lat":59.50560462407944,"lng":24.841271227368292,"avgVisitMinutes":44,"estimatedCostEur":17,"score":4.309812696792283},{"id":"vihtra_1393","citySlug":"vihtra","name":"Playa Sur","category":"playa","lat":58.58747754643936,"lng":25.01247179977559,"avgVisitMinutes":38,"estimatedCostEur":8,"score":2.053557854417731},{"id":"vihtra_9645","citySlug":"vihtra","name":"Castillo de Vihtra","category":"historia","lat":58.58149079188762,"lng":25.024411192689808,"avgVisitMinutes":61,"estimatedCostEur":19,"score":4.543742977862962},{"id":"vihtra_5038","citySlug":"vihtra","name":"Parque Central","category":"ocio","lat":58.582706524079704,"lng":25.01796797385127,"avgVisitMinutes":52,"estimatedCostEur":1,"score":1.5301458095990124},{"id":"vihtra_8367","citySlug":"vihtra","name":"Castillo de Vihtra","category":"historia","lat":58.58889128263259,"lng":25.008884698462438,"avgVisitMinutes":21,"estimatedCostEur":23,"score":1.7592756865085732},{"id":"vihtra_8672","citySlug":"vihtra","name":"Punto Panorámico","category":"mirador","lat":58.58332910670548,"lng":25.00865957581905,"avgVisitMinutes":74,"estimatedCostEur":8,"score":3.657335902995326},{"id":"vihtra_1961","citySlug":"vihtra","name":"Vista Alta de Vihtra","category":"mirador","lat":58.59652639124153,"lng":25.011434398298515,"avgVisitMinutes":66,"estimatedCostEur":23,"score":2.9563364146669255},{"id":"vihtra_4232","citySlug":"vihtra","name":"Teatro Municipal","category":"cultura","lat":58.59343910931991,"lng":25.02451658759568,"avgVisitMinutes":20,"estimatedCostEur":0,"score":3.9762112354339125},{"id":"vihtra_3799","citySlug":"vihtra","name":"Vista Alta de Vihtra","category":"mirador","lat":58.57801485303646,"lng":25.010162851477755,"avgVisitMinutes":51,"estimatedCostEur":15,"score":0.6920305530639852},{"id":"vihtra_4839","citySlug":"vihtra","name":"Iglesia de Vihtra","category":"historia","lat":58.58197771874354,"lng":25.008505272402402,"avgVisitMinutes":40,"estimatedCostEur":25,"score":1.44733744640211},{"id":"vihtra_9118","citySlug":"vihtra","name":"Centro de Arte de Vihtra","category":"cultura","lat":58.58914656979524,"lng":25.01477781373283,"avgVisitMinutes":67,"estimatedCostEur":0,"score":4.656430310619017},{"id":"vihasoo_9754","citySlug":"vihasoo","name":"Galería de Arte","category":"cultura","lat":59.55438255877124,"lng":25.8107326944815,"avgVisitMinutes":31,"estimatedCostEur":3,"score":3.1804876531363258},{"id":"vihasoo_6447","citySlug":"vihasoo","name":"Museo Cultural de Vihasoo","category":"cultura","lat":59.56106741305997,"lng":25.800532445875433,"avgVisitMinutes":70,"estimatedCostEur":12,"score":2.8583413902616117},{"id":"vihasoo_6744","citySlug":"vihasoo","name":"Mercado Gastronómico","category":"gastronomia","lat":59.56567695542389,"lng":25.792558856670794,"avgVisitMinutes":47,"estimatedCostEur":4,"score":2.4552316717199383},{"id":"vihasoo_6566","citySlug":"vihasoo","name":"Playa Norte","category":"playa","lat":59.5631347717567,"lng":25.798036811111203,"avgVisitMinutes":25,"estimatedCostEur":13,"score":2.2742524349396804},{"id":"vihasoo_1986","citySlug":"vihasoo","name":"Teatro Municipal","category":"cultura","lat":59.55208730409614,"lng":25.79728667678018,"avgVisitMinutes":31,"estimatedCostEur":11,"score":0.7922182333347754},{"id":"vihasoo_1488","citySlug":"vihasoo","name":"Iglesia de Vihasoo","category":"historia","lat":59.55436668718066,"lng":25.797493958633346,"avgVisitMinutes":29,"estimatedCostEur":5,"score":3.0691026771200844},{"id":"vihasoo_3015","citySlug":"vihasoo","name":"Playa Norte","category":"playa","lat":59.55407976280381,"lng":25.805215192156965,"avgVisitMinutes":39,"estimatedCostEur":15,"score":4.715361039930458},{"id":"vihasoo_8331","citySlug":"vihasoo","name":"Ruta de Tapas","category":"gastronomia","lat":59.55379806915595,"lng":25.794939258325748,"avgVisitMinutes":36,"estimatedCostEur":19,"score":3.4373076083679055},{"id":"vihasoo_6545","citySlug":"vihasoo","name":"Parque Central","category":"ocio","lat":59.55949233835491,"lng":25.793798985560905,"avgVisitMinutes":83,"estimatedCostEur":15,"score":1.0194667379680449},{"id":"vihasoo_7998","citySlug":"vihasoo","name":"Playa Sur","category":"playa","lat":59.55297057662819,"lng":25.79957923431322,"avgVisitMinutes":21,"estimatedCostEur":4,"score":1.2976831455584477},{"id":"vihasoo_2710","citySlug":"vihasoo","name":"Mirador de Vihasoo","category":"mirador","lat":59.5521921849231,"lng":25.808199830550397,"avgVisitMinutes":21,"estimatedCostEur":23,"score":3.91902643354106},{"id":"kivi-vigala_5897","citySlug":"kivi-vigala","name":"Playa Sur","category":"playa","lat":58.71941748999125,"lng":24.368586691420223,"avgVisitMinutes":33,"estimatedCostEur":11,"score":1.008798136758128},{"id":"kivi-vigala_4754","citySlug":"kivi-vigala","name":"Parque Central","category":"ocio","lat":58.72118442350046,"lng":24.38406194265376,"avgVisitMinutes":33,"estimatedCostEur":18,"score":2.3304002706302134},{"id":"kivi-vigala_7544","citySlug":"kivi-vigala","name":"Ruta de Tapas","category":"gastronomia","lat":58.719109400227936,"lng":24.37581737231772,"avgVisitMinutes":65,"estimatedCostEur":14,"score":3.361281371980922},{"id":"kivi-vigala_4591","citySlug":"kivi-vigala","name":"Vista Alta de Kivi-Vigala","category":"mirador","lat":58.720277864649645,"lng":24.377738382764207,"avgVisitMinutes":31,"estimatedCostEur":14,"score":1.1725064132836764},{"id":"kivi-vigala_5048","citySlug":"kivi-vigala","name":"Iglesia de Kivi-Vigala","category":"historia","lat":58.713269982974225,"lng":24.386437858232107,"avgVisitMinutes":59,"estimatedCostEur":24,"score":2.841082776528967},{"id":"veriora_9575","citySlug":"veriora","name":"Zona Comercial","category":"ocio","lat":58.012794914094236,"lng":27.352252089989207,"avgVisitMinutes":27,"estimatedCostEur":6,"score":3.458749593031974},{"id":"veriora_6076","citySlug":"veriora","name":"Mercado Gastronómico","category":"gastronomia","lat":57.99874793012926,"lng":27.36113359166245,"avgVisitMinutes":67,"estimatedCostEur":11,"score":2.114094409430245},{"id":"veriora_8439","citySlug":"veriora","name":"Zona Comercial","category":"ocio","lat":58.0025030123778,"lng":27.359442590110504,"avgVisitMinutes":27,"estimatedCostEur":7,"score":0.9258528243639823},{"id":"veriora_8221","citySlug":"veriora","name":"Vista Alta de Veriora","category":"mirador","lat":58.008487616275275,"lng":27.348985327966734,"avgVisitMinutes":40,"estimatedCostEur":18,"score":2.7560462256357123},{"id":"veriora_6052","citySlug":"veriora","name":"Galería de Arte","category":"cultura","lat":58.007352582215965,"lng":27.35745868196471,"avgVisitMinutes":86,"estimatedCostEur":25,"score":1.0370697523602117},{"id":"veriora_4831","citySlug":"veriora","name":"Museo Cultural de Veriora","category":"cultura","lat":58.00888209762926,"lng":27.35481446047071,"avgVisitMinutes":71,"estimatedCostEur":19,"score":4.386372177496809},{"id":"veriora_1072","citySlug":"veriora","name":"Centro de Arte de Veriora","category":"cultura","lat":58.0106858772552,"lng":27.352117599534353,"avgVisitMinutes":31,"estimatedCostEur":11,"score":3.3697330358219815},{"id":"veriora_8540","citySlug":"veriora","name":"Vista Alta de Veriora","category":"mirador","lat":58.0115370763317,"lng":27.350025821647538,"avgVisitMinutes":82,"estimatedCostEur":1,"score":1.1982688621087738},{"id":"veriora_3637","citySlug":"veriora","name":"Zona Comercial","category":"ocio","lat":57.99922316884944,"lng":27.351680193907654,"avgVisitMinutes":61,"estimatedCostEur":3,"score":0.6575048975130388},{"id":"veriora_9205","citySlug":"veriora","name":"Playa Norte","category":"playa","lat":58.000067426864575,"lng":27.35876535868239,"avgVisitMinutes":29,"estimatedCostEur":11,"score":1.556742617473308},{"id":"veltsi_3989","citySlug":"veltsi","name":"Galería de Arte","category":"cultura","lat":59.400274913481624,"lng":26.266184783421693,"avgVisitMinutes":78,"estimatedCostEur":2,"score":2.836759956695872},{"id":"veltsi_7395","citySlug":"veltsi","name":"Playa Norte","category":"playa","lat":59.39860851374884,"lng":26.269190562153018,"avgVisitMinutes":43,"estimatedCostEur":17,"score":3.2487991552518696},{"id":"veltsi_7128","citySlug":"veltsi","name":"Castillo de Veltsi","category":"historia","lat":59.392374713300136,"lng":26.26660613191451,"avgVisitMinutes":38,"estimatedCostEur":18,"score":4.415834672228041},{"id":"veltsi_1758","citySlug":"veltsi","name":"Playa Norte","category":"playa","lat":59.40194563664424,"lng":26.271184439193355,"avgVisitMinutes":21,"estimatedCostEur":16,"score":4.964923633703495},{"id":"veltsi_6519","citySlug":"veltsi","name":"Castillo de Veltsi","category":"historia","lat":59.40785450869763,"lng":26.27005644298991,"avgVisitMinutes":90,"estimatedCostEur":8,"score":1.962531952150686},{"id":"vedu_1191","citySlug":"vedu","name":"Iglesia de Vedu","category":"historia","lat":58.49544877415291,"lng":26.757721993802164,"avgVisitMinutes":66,"estimatedCostEur":25,"score":3.735077259015701},{"id":"vedu_9675","citySlug":"vedu","name":"Centro de Arte de Vedu","category":"cultura","lat":58.48366429555747,"lng":26.76861131458015,"avgVisitMinutes":48,"estimatedCostEur":10,"score":0.5246689815422261},{"id":"vedu_1836","citySlug":"vedu","name":"Galería de Arte","category":"cultura","lat":58.49789491227883,"lng":26.76957214185515,"avgVisitMinutes":45,"estimatedCostEur":8,"score":4.133835196519677},{"id":"vedu_4833","citySlug":"vedu","name":"Iglesia de Vedu","category":"historia","lat":58.4825057313072,"lng":26.77409672052706,"avgVisitMinutes":34,"estimatedCostEur":10,"score":2.2955875579357254},{"id":"vedu_7530","citySlug":"vedu","name":"Paseo Principal","category":"ocio","lat":58.49139548471746,"lng":26.760557110544624,"avgVisitMinutes":39,"estimatedCostEur":20,"score":2.8045603746836645},{"id":"vedu_6555","citySlug":"vedu","name":"Mirador de Vedu","category":"mirador","lat":58.486141500771794,"lng":26.757187131353525,"avgVisitMinutes":54,"estimatedCostEur":12,"score":4.2485917814765335},{"id":"vasalemma_8881","citySlug":"vasalemma","name":"Castillo de Vasalemma","category":"historia","lat":59.23480877965849,"lng":24.297146094451286,"avgVisitMinutes":50,"estimatedCostEur":2,"score":1.0223804968116639},{"id":"vasalemma_2039","citySlug":"vasalemma","name":"Castillo de Vasalemma","category":"historia","lat":59.23650654068807,"lng":24.284897960503116,"avgVisitMinutes":50,"estimatedCostEur":25,"score":1.5438045896423453},{"id":"vasalemma_7021","citySlug":"vasalemma","name":"Mercado Gastronómico","category":"gastronomia","lat":59.23840669738154,"lng":24.284744189962396,"avgVisitMinutes":90,"estimatedCostEur":1,"score":1.129892807204708},{"id":"vasalemma_1386","citySlug":"vasalemma","name":"Museo Cultural de Vasalemma","category":"cultura","lat":59.246111590775605,"lng":24.282263116500197,"avgVisitMinutes":37,"estimatedCostEur":25,"score":1.3614875965550364},{"id":"vasalemma_8048","citySlug":"vasalemma","name":"Paseo Principal","category":"ocio","lat":59.244805147427115,"lng":24.281205254825455,"avgVisitMinutes":72,"estimatedCostEur":6,"score":2.664372695058628},{"id":"vasalemma_8496","citySlug":"vasalemma","name":"Vista Alta de Vasalemma","category":"mirador","lat":59.23544347677838,"lng":24.282479677940245,"avgVisitMinutes":83,"estimatedCostEur":17,"score":1.684058504866121},{"id":"vasalemma_5897","citySlug":"vasalemma","name":"Vista Alta de Vasalemma","category":"mirador","lat":59.2471256372461,"lng":24.280274296776003,"avgVisitMinutes":78,"estimatedCostEur":13,"score":1.642314083812642},{"id":"vasalemma_8279","citySlug":"vasalemma","name":"Galería de Arte","category":"cultura","lat":59.24901505160529,"lng":24.29289984919723,"avgVisitMinutes":59,"estimatedCostEur":5,"score":1.8691771646921915},{"id":"vatla_2182","citySlug":"vatla","name":"Centro de Arte de Vatla","category":"cultura","lat":58.56228393781717,"lng":23.739326936818703,"avgVisitMinutes":69,"estimatedCostEur":20,"score":2.915793153590152},{"id":"vatla_2196","citySlug":"vatla","name":"Playa Norte","category":"playa","lat":58.56280760486398,"lng":23.749625531874756,"avgVisitMinutes":33,"estimatedCostEur":6,"score":1.666150629185348},{"id":"vatla_9690","citySlug":"vatla","name":"Mercado Gastronómico","category":"gastronomia","lat":58.56835219450658,"lng":23.738942593588344,"avgVisitMinutes":39,"estimatedCostEur":20,"score":0.6758861128561614},{"id":"vatla_8584","citySlug":"vatla","name":"Mirador de Vatla","category":"mirador","lat":58.56766189215565,"lng":23.748899700175254,"avgVisitMinutes":36,"estimatedCostEur":18,"score":3.0385513695658517},{"id":"vatla_4302","citySlug":"vatla","name":"Playa Norte","category":"playa","lat":58.568582870046555,"lng":23.735964364467755,"avgVisitMinutes":82,"estimatedCostEur":10,"score":4.962000332916473},{"id":"vatla_3278","citySlug":"vatla","name":"Punto Panorámico","category":"mirador","lat":58.56381167144605,"lng":23.745047147672537,"avgVisitMinutes":86,"estimatedCostEur":22,"score":2.6147911870013387},{"id":"vatla_6216","citySlug":"vatla","name":"Mirador de Vatla","category":"mirador","lat":58.558832207223524,"lng":23.748000089237923,"avgVisitMinutes":67,"estimatedCostEur":12,"score":3.894560703838834},{"id":"vatla_9962","citySlug":"vatla","name":"Vista Alta de Vatla","category":"mirador","lat":58.568537253561225,"lng":23.746356044641878,"avgVisitMinutes":65,"estimatedCostEur":10,"score":0.9316825755154337},{"id":"vatla_5318","citySlug":"vatla","name":"Parque Central","category":"ocio","lat":58.56618346630128,"lng":23.73236806197939,"avgVisitMinutes":25,"estimatedCostEur":5,"score":1.1606888155936432},{"id":"vasula_9752","citySlug":"vasula","name":"Punto Panorámico","category":"mirador","lat":58.48028907617397,"lng":26.72802250532205,"avgVisitMinutes":72,"estimatedCostEur":12,"score":1.0410916327906323},{"id":"vasula_3609","citySlug":"vasula","name":"Mercado Gastronómico","category":"gastronomia","lat":58.47635363862127,"lng":26.731591311622847,"avgVisitMinutes":63,"estimatedCostEur":12,"score":2.0882502403009435},{"id":"vasula_2981","citySlug":"vasula","name":"Museo Cultural de Vasula","category":"cultura","lat":58.470913905170505,"lng":26.731576445122364,"avgVisitMinutes":68,"estimatedCostEur":13,"score":2.3264843021862394},{"id":"vasula_8451","citySlug":"vasula","name":"Teatro Municipal","category":"cultura","lat":58.47573651204454,"lng":26.739107516838303,"avgVisitMinutes":24,"estimatedCostEur":3,"score":2.112655326114926},{"id":"vasula_8361","citySlug":"vasula","name":"Castillo de Vasula","category":"historia","lat":58.46537786629726,"lng":26.72303136798874,"avgVisitMinutes":46,"estimatedCostEur":25,"score":4.318654585282333},{"id":"vasula_5411","citySlug":"vasula","name":"Punto Panorámico","category":"mirador","lat":58.4781309803956,"lng":26.72763225145616,"avgVisitMinutes":86,"estimatedCostEur":15,"score":3.9884417750691146},{"id":"vasula_8891","citySlug":"vasula","name":"Vista Alta de Vasula","category":"mirador","lat":58.47926007613098,"lng":26.739862436893144,"avgVisitMinutes":66,"estimatedCostEur":11,"score":2.5059957501370604},{"id":"vasula_5000","citySlug":"vasula","name":"Playa Sur","category":"playa","lat":58.46832840001762,"lng":26.73220747557411,"avgVisitMinutes":27,"estimatedCostEur":16,"score":3.2860046407539234},{"id":"vasula_1237","citySlug":"vasula","name":"Playa Sur","category":"playa","lat":58.471516636183594,"lng":26.73553384350019,"avgVisitMinutes":25,"estimatedCostEur":2,"score":2.3530452005974416},{"id":"vasula_7057","citySlug":"vasula","name":"Zona Comercial","category":"ocio","lat":58.46554044653913,"lng":26.724922710240552,"avgVisitMinutes":60,"estimatedCostEur":18,"score":3.0191429236996843},{"id":"vastseliina_2981","citySlug":"vastseliina","name":"Playa Central","category":"playa","lat":57.73076221171994,"lng":27.302000483060116,"avgVisitMinutes":58,"estimatedCostEur":0,"score":4.957987780513666},{"id":"vastseliina_7793","citySlug":"vastseliina","name":"Castillo de Vastseliina","category":"historia","lat":57.73907550733838,"lng":27.29988177480047,"avgVisitMinutes":87,"estimatedCostEur":21,"score":3.8669104554308937},{"id":"vastseliina_6171","citySlug":"vastseliina","name":"Centro de Arte de Vastseliina","category":"cultura","lat":57.72252430269267,"lng":27.288023118512495,"avgVisitMinutes":47,"estimatedCostEur":7,"score":4.706968673428799},{"id":"vastseliina_1746","citySlug":"vastseliina","name":"Playa Sur","category":"playa","lat":57.722292131202764,"lng":27.29426304004756,"avgVisitMinutes":80,"estimatedCostEur":7,"score":2.2346740564031338},{"id":"vastseliina_8242","citySlug":"vastseliina","name":"Murallas de Vastseliina","category":"historia","lat":57.729914521749144,"lng":27.287489339156767,"avgVisitMinutes":63,"estimatedCostEur":6,"score":2.4963887632384623},{"id":"vastse-kuuste_3007","citySlug":"vastse-kuuste","name":"Mirador de Vastse-Kuuste","category":"mirador","lat":58.15836106386877,"lng":26.935718907213158,"avgVisitMinutes":76,"estimatedCostEur":19,"score":2.20417429700519},{"id":"vastse-kuuste_3585","citySlug":"vastse-kuuste","name":"Playa Central","category":"playa","lat":58.174650513908325,"lng":26.931624116434087,"avgVisitMinutes":20,"estimatedCostEur":14,"score":2.0230236007217623},{"id":"vastse-kuuste_6280","citySlug":"vastse-kuuste","name":"Vista Alta de Vastse-Kuuste","category":"mirador","lat":58.17443675442855,"lng":26.93368808776144,"avgVisitMinutes":89,"estimatedCostEur":12,"score":3.1829456708724804},{"id":"vastse-kuuste_2864","citySlug":"vastse-kuuste","name":"Castillo de Vastse-Kuuste","category":"historia","lat":58.17530024419353,"lng":26.92071641084024,"avgVisitMinutes":38,"estimatedCostEur":0,"score":3.839494993114217},{"id":"vastse-kuuste_6690","citySlug":"vastse-kuuste","name":"Vista Alta de Vastse-Kuuste","category":"mirador","lat":58.15948527172082,"lng":26.92155045042831,"avgVisitMinutes":49,"estimatedCostEur":13,"score":4.89341092759711},{"id":"vastse-kuuste_3369","citySlug":"vastse-kuuste","name":"Teatro Municipal","category":"cultura","lat":58.17126022464645,"lng":26.931340816330927,"avgVisitMinutes":27,"estimatedCostEur":8,"score":2.852317166492309},{"id":"vastse-kuuste_2465","citySlug":"vastse-kuuste","name":"Iglesia de Vastse-Kuuste","category":"historia","lat":58.175610725197316,"lng":26.92377224381785,"avgVisitMinutes":33,"estimatedCostEur":9,"score":2.599669191244806},{"id":"vastse-kuuste_6169","citySlug":"vastse-kuuste","name":"Centro Histórico","category":"historia","lat":58.17021172168273,"lng":26.920056468283736,"avgVisitMinutes":42,"estimatedCostEur":18,"score":4.91203932336736},{"id":"vastse-kuuste_7218","citySlug":"vastse-kuuste","name":"Ruta de Tapas","category":"gastronomia","lat":58.16136164675045,"lng":26.92088213418456,"avgVisitMinutes":60,"estimatedCostEur":3,"score":1.6483570806950179},{"id":"vastse-kuuste_1872","citySlug":"vastse-kuuste","name":"Ruta de Tapas","category":"gastronomia","lat":58.17565302946528,"lng":26.936930742706085,"avgVisitMinutes":45,"estimatedCostEur":7,"score":3.341630997082698},{"id":"vastse-kuuste_3846","citySlug":"vastse-kuuste","name":"Castillo de Vastse-Kuuste","category":"historia","lat":58.16776283167466,"lng":26.918680169011317,"avgVisitMinutes":83,"estimatedCostEur":7,"score":3.266625659712526},{"id":"vastse-kuuste_9321","citySlug":"vastse-kuuste","name":"Museo Local de Vastse-Kuuste","category":"historia","lat":58.167019025941734,"lng":26.93827013863961,"avgVisitMinutes":59,"estimatedCostEur":2,"score":4.322967938177632},{"id":"vastemoisa_8838","citySlug":"vastemoisa","name":"Centro Histórico","category":"historia","lat":58.43835893890004,"lng":25.435178520016713,"avgVisitMinutes":51,"estimatedCostEur":6,"score":1.2637177058045652},{"id":"vastemoisa_7336","citySlug":"vastemoisa","name":"Playa Sur","category":"playa","lat":58.45120394901986,"lng":25.423882702985182,"avgVisitMinutes":41,"estimatedCostEur":8,"score":3.418323629606078},{"id":"vastemoisa_9807","citySlug":"vastemoisa","name":"Mirador de Vastemõisa","category":"mirador","lat":58.437079796748655,"lng":25.42438402753307,"avgVisitMinutes":59,"estimatedCostEur":20,"score":3.5503397200062516},{"id":"vastemoisa_3716","citySlug":"vastemoisa","name":"Zona Comercial","category":"ocio","lat":58.438956238455795,"lng":25.428177878886434,"avgVisitMinutes":69,"estimatedCostEur":22,"score":4.678237030671824},{"id":"vastemoisa_4145","citySlug":"vastemoisa","name":"Restaurante Típico de Vastemõisa","category":"gastronomia","lat":58.44037484981642,"lng":25.431544237180127,"avgVisitMinutes":27,"estimatedCostEur":6,"score":3.773034767676603},{"id":"vastemoisa_8756","citySlug":"vastemoisa","name":"Zona Comercial","category":"ocio","lat":58.447550128890086,"lng":25.429999187952003,"avgVisitMinutes":37,"estimatedCostEur":8,"score":2.460797262026792},{"id":"vastemoisa_1697","citySlug":"vastemoisa","name":"Teatro Municipal","category":"cultura","lat":58.43783566494711,"lng":25.428901820916774,"avgVisitMinutes":81,"estimatedCostEur":12,"score":2.461632306742591},{"id":"vastemoisa_4459","citySlug":"vastemoisa","name":"Vista Alta de Vastemõisa","category":"mirador","lat":58.4323686771078,"lng":25.428573300181043,"avgVisitMinutes":40,"estimatedCostEur":4,"score":3.7050303271512726},{"id":"vastemoisa_7865","citySlug":"vastemoisa","name":"Centro de Arte de Vastemõisa","category":"cultura","lat":58.43950159916999,"lng":25.42855544989677,"avgVisitMinutes":75,"estimatedCostEur":6,"score":2.9063660191383436},{"id":"vaskjala_1201","citySlug":"vaskjala","name":"Parque Central","category":"ocio","lat":59.35570316660894,"lng":24.95080379257727,"avgVisitMinutes":62,"estimatedCostEur":18,"score":1.0198943910002136},{"id":"vaskjala_8042","citySlug":"vaskjala","name":"Playa Central","category":"playa","lat":59.36899614275038,"lng":24.954825443851636,"avgVisitMinutes":51,"estimatedCostEur":11,"score":3.4515481046794765},{"id":"vaskjala_1028","citySlug":"vaskjala","name":"Mirador de Vaskjala","category":"mirador","lat":59.36574461438254,"lng":24.94687594782355,"avgVisitMinutes":61,"estimatedCostEur":2,"score":1.7032334020738555},{"id":"vaskjala_3157","citySlug":"vaskjala","name":"Ruta de Tapas","category":"gastronomia","lat":59.3527963049601,"lng":24.941429479655135,"avgVisitMinutes":34,"estimatedCostEur":14,"score":1.8417733046359097},{"id":"vaskjala_5617","citySlug":"vaskjala","name":"Parque Central","category":"ocio","lat":59.36435749410033,"lng":24.940872316123812,"avgVisitMinutes":40,"estimatedCostEur":12,"score":2.2756292142365053},{"id":"varstu_9251","citySlug":"varstu","name":"Playa Sur","category":"playa","lat":57.64028729742907,"lng":26.667033132064653,"avgVisitMinutes":49,"estimatedCostEur":21,"score":2.6661382003044585},{"id":"varstu_6999","citySlug":"varstu","name":"Parque Central","category":"ocio","lat":57.634128800674006,"lng":26.656306275098757,"avgVisitMinutes":90,"estimatedCostEur":18,"score":1.3794815725912564},{"id":"varstu_6592","citySlug":"varstu","name":"Museo Local de Varstu","category":"historia","lat":57.63541977087506,"lng":26.66478944433471,"avgVisitMinutes":85,"estimatedCostEur":11,"score":2.6941255597888953},{"id":"varstu_7849","citySlug":"varstu","name":"Parque Central","category":"ocio","lat":57.639788643332984,"lng":26.662201157986726,"avgVisitMinutes":50,"estimatedCostEur":3,"score":2.981868266837402},{"id":"varstu_8060","citySlug":"varstu","name":"Teatro Municipal","category":"cultura","lat":57.63115611766115,"lng":26.654559735210793,"avgVisitMinutes":31,"estimatedCostEur":12,"score":2.313275826221462},{"id":"varstu_5080","citySlug":"varstu","name":"Mirador de Varstu","category":"mirador","lat":57.64788938642044,"lng":26.664564696944417,"avgVisitMinutes":59,"estimatedCostEur":8,"score":0.7778807227842879},{"id":"varstu_4420","citySlug":"varstu","name":"Playa Central","category":"playa","lat":57.631614368511784,"lng":26.66604041638649,"avgVisitMinutes":57,"estimatedCostEur":13,"score":1.4788190872503542},{"id":"varstu_7945","citySlug":"varstu","name":"Museo Cultural de Varstu","category":"cultura","lat":57.63971932875855,"lng":26.650198034759697,"avgVisitMinutes":39,"estimatedCostEur":8,"score":2.105979579887223},{"id":"varstu_3770","citySlug":"varstu","name":"Centro Histórico","category":"historia","lat":57.63606039992187,"lng":26.666113074969054,"avgVisitMinutes":34,"estimatedCostEur":19,"score":3.2755221947300317},{"id":"varstu_2204","citySlug":"varstu","name":"Paseo Principal","category":"ocio","lat":57.6475724193031,"lng":26.658851165405018,"avgVisitMinutes":50,"estimatedCostEur":16,"score":4.234395634054803},{"id":"varstu_6156","citySlug":"varstu","name":"Murallas de Varstu","category":"historia","lat":57.629360822020004,"lng":26.656177303061895,"avgVisitMinutes":71,"estimatedCostEur":18,"score":1.8690513299026352},{"id":"varska_6161","citySlug":"varska","name":"Playa Sur","category":"playa","lat":57.9488358256296,"lng":27.633517347105027,"avgVisitMinutes":61,"estimatedCostEur":1,"score":2.983911161714217},{"id":"varska_4709","citySlug":"varska","name":"Playa Sur","category":"playa","lat":57.9622260728303,"lng":27.637754781692347,"avgVisitMinutes":81,"estimatedCostEur":22,"score":4.865734010470291},{"id":"varska_4799","citySlug":"varska","name":"Zona Comercial","category":"ocio","lat":57.9668595123529,"lng":27.63345724713877,"avgVisitMinutes":84,"estimatedCostEur":1,"score":1.3025045148034167},{"id":"varska_4414","citySlug":"varska","name":"Punto Panorámico","category":"mirador","lat":57.95093008233852,"lng":27.646101936785236,"avgVisitMinutes":79,"estimatedCostEur":11,"score":4.30966313302557},{"id":"varska_9585","citySlug":"varska","name":"Murallas de Värska","category":"historia","lat":57.95324861647665,"lng":27.641240343633594,"avgVisitMinutes":30,"estimatedCostEur":1,"score":3.9256693796719953},{"id":"varska_5135","citySlug":"varska","name":"Centro de Arte de Värska","category":"cultura","lat":57.9506376842675,"lng":27.64105365452746,"avgVisitMinutes":31,"estimatedCostEur":3,"score":3.677296446856002},{"id":"varska_7755","citySlug":"varska","name":"Museo Local de Värska","category":"historia","lat":57.96377804149492,"lng":27.62824899820421,"avgVisitMinutes":48,"estimatedCostEur":1,"score":1.4908742166987852},{"id":"varska_8435","citySlug":"varska","name":"Mirador de Värska","category":"mirador","lat":57.95947031991965,"lng":27.631098596110267,"avgVisitMinutes":60,"estimatedCostEur":14,"score":3.0502232711659625},{"id":"varska_7480","citySlug":"varska","name":"Museo Local de Värska","category":"historia","lat":57.95582922059063,"lng":27.6313460165003,"avgVisitMinutes":62,"estimatedCostEur":0,"score":4.004539028792024},{"id":"varska_5960","citySlug":"varska","name":"Galería de Arte","category":"cultura","lat":57.959135849857894,"lng":27.640874873208293,"avgVisitMinutes":78,"estimatedCostEur":2,"score":3.791741203050118},{"id":"varska_7515","citySlug":"varska","name":"Ruta de Tapas","category":"gastronomia","lat":57.95552541596156,"lng":27.64276423919927,"avgVisitMinutes":52,"estimatedCostEur":24,"score":3.036586977731963},{"id":"varska_7273","citySlug":"varska","name":"Paseo Principal","category":"ocio","lat":57.96109943176039,"lng":27.635419376135783,"avgVisitMinutes":20,"estimatedCostEur":16,"score":1.8846755417954721},{"id":"varnja_4362","citySlug":"varnja","name":"Mirador de Varnja","category":"mirador","lat":58.486424202809914,"lng":27.23901097944602,"avgVisitMinutes":49,"estimatedCostEur":12,"score":1.2159257874321305},{"id":"varnja_9788","citySlug":"varnja","name":"Playa Norte","category":"playa","lat":58.48575029129309,"lng":27.241789650198662,"avgVisitMinutes":77,"estimatedCostEur":15,"score":0.8048838929116789},{"id":"varnja_8044","citySlug":"varnja","name":"Playa Central","category":"playa","lat":58.492574755839854,"lng":27.23720769521042,"avgVisitMinutes":33,"estimatedCostEur":4,"score":3.45532724269717},{"id":"varnja_4384","citySlug":"varnja","name":"Centro de Arte de Varnja","category":"cultura","lat":58.493629358981416,"lng":27.233914725681103,"avgVisitMinutes":21,"estimatedCostEur":25,"score":3.2641059847744827},{"id":"varnja_3018","citySlug":"varnja","name":"Ruta de Tapas","category":"gastronomia","lat":58.49862712700727,"lng":27.245385970642452,"avgVisitMinutes":84,"estimatedCostEur":14,"score":2.9150979169710007},{"id":"varnja_8063","citySlug":"varnja","name":"Playa Norte","category":"playa","lat":58.49052034741204,"lng":27.245575111649696,"avgVisitMinutes":23,"estimatedCostEur":12,"score":1.6808567281594602},{"id":"varnja_3082","citySlug":"varnja","name":"Galería de Arte","category":"cultura","lat":58.488346179209856,"lng":27.239498231132913,"avgVisitMinutes":60,"estimatedCostEur":5,"score":3.87771767650753},{"id":"varnja_6370","citySlug":"varnja","name":"Ruta de Tapas","category":"gastronomia","lat":58.47995733285972,"lng":27.239287286766917,"avgVisitMinutes":21,"estimatedCostEur":25,"score":0.6184191788535871},{"id":"vardja_6909","citySlug":"vardja","name":"Mirador de Vardja","category":"mirador","lat":59.172066260340145,"lng":25.215692879066015,"avgVisitMinutes":60,"estimatedCostEur":2,"score":0.8721641551736217},{"id":"vardja_6397","citySlug":"vardja","name":"Parque Central","category":"ocio","lat":59.161473853401155,"lng":25.21460141791182,"avgVisitMinutes":32,"estimatedCostEur":2,"score":2.721620919113821},{"id":"vardja_5422","citySlug":"vardja","name":"Centro Histórico","category":"historia","lat":59.16790332401307,"lng":25.215240899057182,"avgVisitMinutes":42,"estimatedCostEur":8,"score":0.5044503023676266},{"id":"vardja_2358","citySlug":"vardja","name":"Playa Central","category":"playa","lat":59.16690335614539,"lng":25.21162880955035,"avgVisitMinutes":49,"estimatedCostEur":2,"score":1.665783434512417},{"id":"vardja_7457","citySlug":"vardja","name":"Parque Central","category":"ocio","lat":59.156634911709325,"lng":25.214565127801674,"avgVisitMinutes":50,"estimatedCostEur":8,"score":2.2440648040320497},{"id":"vardja_1870","citySlug":"vardja","name":"Vista Alta de Vardja","category":"mirador","lat":59.16570363611675,"lng":25.22520308012318,"avgVisitMinutes":88,"estimatedCostEur":23,"score":4.167443077247069},{"id":"vardja_2228","citySlug":"vardja","name":"Murallas de Vardja","category":"historia","lat":59.158220623369864,"lng":25.219030787851494,"avgVisitMinutes":75,"estimatedCostEur":25,"score":1.7696560035533908},{"id":"vardja_1035","citySlug":"vardja","name":"Mercado Gastronómico","category":"gastronomia","lat":59.16089666846314,"lng":25.215401999368325,"avgVisitMinutes":76,"estimatedCostEur":25,"score":1.6358577375764511},{"id":"vardja_2467","citySlug":"vardja","name":"Castillo de Vardja","category":"historia","lat":59.15911758335801,"lng":25.210935236746643,"avgVisitMinutes":60,"estimatedCostEur":3,"score":1.225426403084239},{"id":"vara_1724","citySlug":"vara","name":"Centro Histórico","category":"historia","lat":58.529825274774964,"lng":26.884600972824657,"avgVisitMinutes":82,"estimatedCostEur":16,"score":1.5777716142349072},{"id":"vara_3840","citySlug":"vara","name":"Playa Sur","category":"playa","lat":58.529460623490806,"lng":26.87851556413416,"avgVisitMinutes":53,"estimatedCostEur":22,"score":3.7854341389776067},{"id":"vara_9803","citySlug":"vara","name":"Paseo Principal","category":"ocio","lat":58.52821499547031,"lng":26.887639360577793,"avgVisitMinutes":33,"estimatedCostEur":24,"score":3.020007850544887},{"id":"vara_2951","citySlug":"vara","name":"Museo Cultural de Vara","category":"cultura","lat":58.513185940565705,"lng":26.876296681284902,"avgVisitMinutes":63,"estimatedCostEur":11,"score":3.1839096584716553},{"id":"vara_8244","citySlug":"vara","name":"Mirador de Vara","category":"mirador","lat":58.515472656448786,"lng":26.875393043409943,"avgVisitMinutes":39,"estimatedCostEur":16,"score":1.9925894134503501},{"id":"vara_9601","citySlug":"vara","name":"Playa Central","category":"playa","lat":58.52551162777917,"lng":26.88310638109332,"avgVisitMinutes":33,"estimatedCostEur":20,"score":1.7511785156586674},{"id":"vao_1416","citySlug":"vao","name":"Galería de Arte","category":"cultura","lat":59.10947914990467,"lng":26.18193892604917,"avgVisitMinutes":62,"estimatedCostEur":13,"score":2.789371251686138},{"id":"vao_4265","citySlug":"vao","name":"Teatro Municipal","category":"cultura","lat":59.09954222592474,"lng":26.184971153359207,"avgVisitMinutes":80,"estimatedCostEur":24,"score":4.082737384611276},{"id":"vao_9543","citySlug":"vao","name":"Murallas de Vao","category":"historia","lat":59.1133507892775,"lng":26.191671091211035,"avgVisitMinutes":57,"estimatedCostEur":6,"score":3.645738796773107},{"id":"vao_9560","citySlug":"vao","name":"Murallas de Vao","category":"historia","lat":59.10567285997439,"lng":26.194517089656383,"avgVisitMinutes":63,"estimatedCostEur":9,"score":0.8371372413048077},{"id":"vao_4852","citySlug":"vao","name":"Teatro Municipal","category":"cultura","lat":59.111125337265406,"lng":26.192235873880215,"avgVisitMinutes":79,"estimatedCostEur":8,"score":3.605928336132941},{"id":"vao_4973","citySlug":"vao","name":"Teatro Municipal","category":"cultura","lat":59.103720140275264,"lng":26.183143028265746,"avgVisitMinutes":30,"estimatedCostEur":5,"score":1.0050367266149827},{"id":"vao_1569","citySlug":"vao","name":"Zona Comercial","category":"ocio","lat":59.10461516561288,"lng":26.18498761641745,"avgVisitMinutes":78,"estimatedCostEur":17,"score":4.253810667273161},{"id":"vao_1448","citySlug":"vao","name":"Museo Cultural de Vao","category":"cultura","lat":59.102722379357765,"lng":26.191231863479175,"avgVisitMinutes":80,"estimatedCostEur":18,"score":4.521204959291403},{"id":"vao_1994","citySlug":"vao","name":"Restaurante Típico de Vao","category":"gastronomia","lat":59.10600857724529,"lng":26.189305655461585,"avgVisitMinutes":53,"estimatedCostEur":4,"score":2.010975574963785},{"id":"vao_6713","citySlug":"vao","name":"Restaurante Típico de Vao","category":"gastronomia","lat":59.095961742127045,"lng":26.196818067005644,"avgVisitMinutes":21,"estimatedCostEur":12,"score":1.1380053128017806},{"id":"vao_1505","citySlug":"vao","name":"Teatro Municipal","category":"cultura","lat":59.10095857667343,"lng":26.196961026779086,"avgVisitMinutes":78,"estimatedCostEur":24,"score":1.045741767321733},{"id":"vao_6064","citySlug":"vao","name":"Murallas de Vao","category":"historia","lat":58.94421309298948,"lng":25.986217003005294,"avgVisitMinutes":72,"estimatedCostEur":9,"score":1.1901514280494077},{"id":"vao_7003","citySlug":"vao","name":"Zona Comercial","category":"ocio","lat":58.93099839768475,"lng":25.98075677012502,"avgVisitMinutes":80,"estimatedCostEur":19,"score":1.7507187258975943},{"id":"vao_1264","citySlug":"vao","name":"Parque Central","category":"ocio","lat":58.931170685525984,"lng":25.987694877302918,"avgVisitMinutes":39,"estimatedCostEur":1,"score":2.752631291284016},{"id":"vao_1222","citySlug":"vao","name":"Vista Alta de Vao","category":"mirador","lat":58.94628125762967,"lng":25.983587213371028,"avgVisitMinutes":68,"estimatedCostEur":16,"score":3.8181890834142718},{"id":"vao_8454","citySlug":"vao","name":"Vista Alta de Vao","category":"mirador","lat":58.93669831980001,"lng":25.987690974528725,"avgVisitMinutes":39,"estimatedCostEur":0,"score":1.9037178028589343},{"id":"vao_1793","citySlug":"vao","name":"Vista Alta de Vao","category":"mirador","lat":58.94328117555956,"lng":25.982613037639418,"avgVisitMinutes":77,"estimatedCostEur":19,"score":3.08761883983379},{"id":"vao_5998","citySlug":"vao","name":"Mercado Gastronómico","category":"gastronomia","lat":58.94207119806783,"lng":25.98025560060641,"avgVisitMinutes":69,"estimatedCostEur":17,"score":4.515772327400798},{"id":"vao_6894","citySlug":"vao","name":"Ruta de Tapas","category":"gastronomia","lat":58.94447569609123,"lng":25.976184946578567,"avgVisitMinutes":63,"estimatedCostEur":20,"score":1.433993580538925},{"id":"vana-voidu_3788","citySlug":"vana-voidu","name":"Centro de Arte de Vana-Võidu","category":"cultura","lat":58.386736624258546,"lng":25.6498894918163,"avgVisitMinutes":25,"estimatedCostEur":14,"score":4.506688303120723},{"id":"vana-voidu_7318","citySlug":"vana-voidu","name":"Museo Local de Vana-Võidu","category":"historia","lat":58.38132275164054,"lng":25.654733839707017,"avgVisitMinutes":48,"estimatedCostEur":15,"score":4.209286667599842},{"id":"vana-voidu_9702","citySlug":"vana-voidu","name":"Mirador de Vana-Võidu","category":"mirador","lat":58.38201269038713,"lng":25.651690046316304,"avgVisitMinutes":51,"estimatedCostEur":21,"score":1.244927422289531},{"id":"vana-voidu_3362","citySlug":"vana-voidu","name":"Paseo Principal","category":"ocio","lat":58.39425825537053,"lng":25.658562079741497,"avgVisitMinutes":78,"estimatedCostEur":13,"score":4.984085485771726},{"id":"vana-voidu_4257","citySlug":"vana-voidu","name":"Playa Sur","category":"playa","lat":58.40005242319064,"lng":25.647944085525577,"avgVisitMinutes":40,"estimatedCostEur":14,"score":4.505426877618654},{"id":"vana-voidu_9330","citySlug":"vana-voidu","name":"Playa Sur","category":"playa","lat":58.38575520138034,"lng":25.656793328553107,"avgVisitMinutes":44,"estimatedCostEur":6,"score":3.212541478241769},{"id":"vana-vigala_9927","citySlug":"vana-vigala","name":"Iglesia de Vana-Vigala","category":"historia","lat":58.77548959440269,"lng":24.264334015498875,"avgVisitMinutes":54,"estimatedCostEur":21,"score":4.075311671445074},{"id":"vana-vigala_2528","citySlug":"vana-vigala","name":"Vista Alta de Vana-Vigala","category":"mirador","lat":58.76615482114903,"lng":24.281560073488716,"avgVisitMinutes":55,"estimatedCostEur":13,"score":4.4059216048084},{"id":"vana-vigala_5450","citySlug":"vana-vigala","name":"Centro de Arte de Vana-Vigala","category":"cultura","lat":58.774463203903544,"lng":24.265329065649926,"avgVisitMinutes":74,"estimatedCostEur":24,"score":2.88084774084704},{"id":"vana-vigala_8070","citySlug":"vana-vigala","name":"Mercado Gastronómico","category":"gastronomia","lat":58.76847025932571,"lng":24.27358366338326,"avgVisitMinutes":66,"estimatedCostEur":25,"score":2.3842203780231124},{"id":"vana-vigala_5931","citySlug":"vana-vigala","name":"Playa Norte","category":"playa","lat":58.76762162837065,"lng":24.26458248763571,"avgVisitMinutes":55,"estimatedCostEur":5,"score":3.566067433959247},{"id":"suislepa_9327","citySlug":"suislepa","name":"Ruta de Tapas","category":"gastronomia","lat":58.151668026314226,"lng":25.94951088323957,"avgVisitMinutes":35,"estimatedCostEur":5,"score":1.5698114277220228},{"id":"suislepa_6796","citySlug":"suislepa","name":"Teatro Municipal","category":"cultura","lat":58.15376414284041,"lng":25.960748672187766,"avgVisitMinutes":88,"estimatedCostEur":22,"score":4.889622132598329},{"id":"suislepa_4718","citySlug":"suislepa","name":"Centro de Arte de Suislepa","category":"cultura","lat":58.15280754661797,"lng":25.955635129449615,"avgVisitMinutes":66,"estimatedCostEur":22,"score":3.5604896247117948},{"id":"suislepa_6114","citySlug":"suislepa","name":"Playa Norte","category":"playa","lat":58.15365635431405,"lng":25.952113688113545,"avgVisitMinutes":46,"estimatedCostEur":8,"score":1.5776873224712231},{"id":"suislepa_4810","citySlug":"suislepa","name":"Zona Comercial","category":"ocio","lat":58.15806593214001,"lng":25.96622915703345,"avgVisitMinutes":82,"estimatedCostEur":6,"score":3.1883306487374488},{"id":"vanamoisa_8017","citySlug":"vanamoisa","name":"Playa Sur","category":"playa","lat":59.31577598404494,"lng":24.50869314629553,"avgVisitMinutes":46,"estimatedCostEur":17,"score":4.136105604553963},{"id":"vanamoisa_2210","citySlug":"vanamoisa","name":"Ruta de Tapas","category":"gastronomia","lat":59.316595658709716,"lng":24.52105286203873,"avgVisitMinutes":88,"estimatedCostEur":1,"score":3.0451432581001248},{"id":"vanamoisa_2477","citySlug":"vanamoisa","name":"Punto Panorámico","category":"mirador","lat":59.3288819326994,"lng":24.519084075576803,"avgVisitMinutes":46,"estimatedCostEur":17,"score":4.935928398152767},{"id":"vanamoisa_2531","citySlug":"vanamoisa","name":"Playa Sur","category":"playa","lat":59.32759616442958,"lng":24.525394670789545,"avgVisitMinutes":71,"estimatedCostEur":0,"score":1.6665370551739978},{"id":"vanamoisa_1092","citySlug":"vanamoisa","name":"Parque Central","category":"ocio","lat":59.32306262552463,"lng":24.518276341458417,"avgVisitMinutes":57,"estimatedCostEur":1,"score":0.5841980213397764},{"id":"vana-antsla_6598","citySlug":"vana-antsla","name":"Paseo Principal","category":"ocio","lat":57.872036105963296,"lng":26.522946528957743,"avgVisitMinutes":44,"estimatedCostEur":0,"score":2.8990029347148956},{"id":"vana-antsla_8567","citySlug":"vana-antsla","name":"Playa Sur","category":"playa","lat":57.856964000362616,"lng":26.538174806173267,"avgVisitMinutes":23,"estimatedCostEur":24,"score":4.460758301415461},{"id":"vana-antsla_6639","citySlug":"vana-antsla","name":"Castillo de Vana-Antsla","category":"historia","lat":57.87384890817826,"lng":26.530002274919653,"avgVisitMinutes":44,"estimatedCostEur":16,"score":3.7160129279304535},{"id":"vana-antsla_3610","citySlug":"vana-antsla","name":"Mercado Gastronómico","category":"gastronomia","lat":57.86204669230804,"lng":26.529115453796155,"avgVisitMinutes":50,"estimatedCostEur":5,"score":1.9798383413813545},{"id":"vana-antsla_6736","citySlug":"vana-antsla","name":"Punto Panorámico","category":"mirador","lat":57.87526215697021,"lng":26.52294455398251,"avgVisitMinutes":60,"estimatedCostEur":22,"score":4.444568075868739},{"id":"vana-antsla_8701","citySlug":"vana-antsla","name":"Teatro Municipal","category":"cultura","lat":57.87402637311227,"lng":26.532703387383204,"avgVisitMinutes":45,"estimatedCostEur":3,"score":1.2807587272246874},{"id":"vana-antsla_9067","citySlug":"vana-antsla","name":"Vista Alta de Vana-Antsla","category":"mirador","lat":57.85790537564661,"lng":26.527808024853574,"avgVisitMinutes":39,"estimatedCostEur":20,"score":4.054863961715801},{"id":"vana-antsla_5391","citySlug":"vana-antsla","name":"Centro Histórico","category":"historia","lat":57.85949486608788,"lng":26.526253588346815,"avgVisitMinutes":36,"estimatedCostEur":16,"score":2.005863085437731},{"id":"vana-antsla_7297","citySlug":"vana-antsla","name":"Playa Central","category":"playa","lat":57.87001035674405,"lng":26.537320437628512,"avgVisitMinutes":78,"estimatedCostEur":14,"score":4.534814564627503},{"id":"vana-antsla_9602","citySlug":"vana-antsla","name":"Playa Sur","category":"playa","lat":57.87610848115242,"lng":26.533557352740072,"avgVisitMinutes":48,"estimatedCostEur":10,"score":4.088212633335599},{"id":"vana-antsla_8090","citySlug":"vana-antsla","name":"Mirador de Vana-Antsla","category":"mirador","lat":57.8675851805258,"lng":26.534576574606834,"avgVisitMinutes":58,"estimatedCostEur":2,"score":2.8222623595363343},{"id":"vana-antsla_6754","citySlug":"vana-antsla","name":"Vista Alta de Vana-Antsla","category":"mirador","lat":57.87532023065687,"lng":26.53505661451991,"avgVisitMinutes":32,"estimatedCostEur":6,"score":4.070970169264325},{"id":"valjala_4520","citySlug":"valjala","name":"Mirador de Valjala","category":"mirador","lat":58.40927390243647,"lng":22.7990935865208,"avgVisitMinutes":45,"estimatedCostEur":13,"score":4.665851528203066},{"id":"valjala_4554","citySlug":"valjala","name":"Mercado Gastronómico","category":"gastronomia","lat":58.41452024308078,"lng":22.810565249270667,"avgVisitMinutes":25,"estimatedCostEur":24,"score":2.594189128712676},{"id":"valjala_8352","citySlug":"valjala","name":"Ruta de Tapas","category":"gastronomia","lat":58.40219199717688,"lng":22.806015129418633,"avgVisitMinutes":65,"estimatedCostEur":25,"score":2.1071721919202955},{"id":"valjala_1882","citySlug":"valjala","name":"Murallas de Valjala","category":"historia","lat":58.398862448444184,"lng":22.805547917181297,"avgVisitMinutes":26,"estimatedCostEur":0,"score":3.92553652247827},{"id":"valjala_1070","citySlug":"valjala","name":"Centro Histórico","category":"historia","lat":58.4104253804017,"lng":22.808949484521033,"avgVisitMinutes":82,"estimatedCostEur":17,"score":3.4683222308308235},{"id":"valtu_8727","citySlug":"valtu","name":"Mirador de Valtu","category":"mirador","lat":58.977552237141474,"lng":24.846892557527816,"avgVisitMinutes":58,"estimatedCostEur":11,"score":0.7984140189027675},{"id":"valtu_3564","citySlug":"valtu","name":"Museo Local de Valtu","category":"historia","lat":58.97681714451143,"lng":24.84852470260643,"avgVisitMinutes":88,"estimatedCostEur":17,"score":4.852827952889125},{"id":"valtu_9145","citySlug":"valtu","name":"Museo Local de Valtu","category":"historia","lat":58.98187318626217,"lng":24.84554001984732,"avgVisitMinutes":37,"estimatedCostEur":3,"score":4.723471714043481},{"id":"valtu_1129","citySlug":"valtu","name":"Vista Alta de Valtu","category":"mirador","lat":58.98039145885486,"lng":24.84645252558513,"avgVisitMinutes":73,"estimatedCostEur":21,"score":4.47750751101648},{"id":"valtu_3972","citySlug":"valtu","name":"Castillo de Valtu","category":"historia","lat":58.987949459602774,"lng":24.842329530876867,"avgVisitMinutes":54,"estimatedCostEur":13,"score":4.48235934827856},{"id":"valtu_9486","citySlug":"valtu","name":"Murallas de Valtu","category":"historia","lat":58.9848214620063,"lng":24.83497479353597,"avgVisitMinutes":72,"estimatedCostEur":3,"score":2.7433359696269655},{"id":"valtu_3213","citySlug":"valtu","name":"Murallas de Valtu","category":"historia","lat":58.97404208838824,"lng":24.84604899486118,"avgVisitMinutes":20,"estimatedCostEur":0,"score":1.1276445866471267},{"id":"valtu_3012","citySlug":"valtu","name":"Vista Alta de Valtu","category":"mirador","lat":58.97524626990656,"lng":24.84617355970686,"avgVisitMinutes":26,"estimatedCostEur":9,"score":1.1240870986115628},{"id":"valkla_6089","citySlug":"valkla","name":"Parque Central","category":"ocio","lat":59.46935130144647,"lng":25.331552482803406,"avgVisitMinutes":40,"estimatedCostEur":21,"score":2.776231041734729},{"id":"valkla_7696","citySlug":"valkla","name":"Murallas de Valkla","category":"historia","lat":59.48001491427449,"lng":25.327995322981284,"avgVisitMinutes":73,"estimatedCostEur":9,"score":2.3355598657936327},{"id":"valkla_2452","citySlug":"valkla","name":"Vista Alta de Valkla","category":"mirador","lat":59.474212932677766,"lng":25.323044443143985,"avgVisitMinutes":80,"estimatedCostEur":22,"score":1.3112292102638738},{"id":"valkla_1751","citySlug":"valkla","name":"Mercado Gastronómico","category":"gastronomia","lat":59.47849917771747,"lng":25.32341713389295,"avgVisitMinutes":83,"estimatedCostEur":25,"score":0.7467964210328359},{"id":"valkla_5998","citySlug":"valkla","name":"Playa Central","category":"playa","lat":59.47649546090307,"lng":25.321249190189906,"avgVisitMinutes":70,"estimatedCostEur":3,"score":3.058811338329962},{"id":"valkla_4561","citySlug":"valkla","name":"Parque Central","category":"ocio","lat":59.46622845845355,"lng":25.331804020411695,"avgVisitMinutes":72,"estimatedCostEur":12,"score":0.6704930540986342},{"id":"valkla_7625","citySlug":"valkla","name":"Mirador de Valkla","category":"mirador","lat":59.47624024279788,"lng":25.319076566070642,"avgVisitMinutes":54,"estimatedCostEur":21,"score":1.487668669719978},{"id":"valkla_1409","citySlug":"valkla","name":"Iglesia de Valkla","category":"historia","lat":59.48111258109379,"lng":25.323413748516142,"avgVisitMinutes":86,"estimatedCostEur":3,"score":1.2280128456741979},{"id":"valkla_4495","citySlug":"valkla","name":"Vista Alta de Valkla","category":"mirador","lat":59.46694480368488,"lng":25.323527651746065,"avgVisitMinutes":32,"estimatedCostEur":19,"score":3.111480611242186},{"id":"valkla_6895","citySlug":"valkla","name":"Punto Panorámico","category":"mirador","lat":59.47380638298381,"lng":25.31499607996747,"avgVisitMinutes":42,"estimatedCostEur":24,"score":3.9059225074150796},{"id":"valkla_3770","citySlug":"valkla","name":"Playa Central","category":"playa","lat":59.48192814586329,"lng":25.31981539481541,"avgVisitMinutes":21,"estimatedCostEur":22,"score":1.8344276160925257},{"id":"valgu_7371","citySlug":"valgu","name":"Ruta de Tapas","category":"gastronomia","lat":58.81871652689424,"lng":24.596693019520956,"avgVisitMinutes":80,"estimatedCostEur":13,"score":3.993358233476751},{"id":"valgu_4093","citySlug":"valgu","name":"Parque Central","category":"ocio","lat":58.81485035945556,"lng":24.583614074394507,"avgVisitMinutes":26,"estimatedCostEur":10,"score":3.1419363247976277},{"id":"valgu_5886","citySlug":"valgu","name":"Restaurante Típico de Valgu","category":"gastronomia","lat":58.82572323293603,"lng":24.60152899723531,"avgVisitMinutes":34,"estimatedCostEur":16,"score":3.3400798890258065},{"id":"valgu_2385","citySlug":"valgu","name":"Galería de Arte","category":"cultura","lat":58.82210642284831,"lng":24.591828146453434,"avgVisitMinutes":76,"estimatedCostEur":22,"score":2.9480732593536336},{"id":"valgu_7421","citySlug":"valgu","name":"Murallas de Valgu","category":"historia","lat":58.831627584669675,"lng":24.589174436412172,"avgVisitMinutes":79,"estimatedCostEur":5,"score":2.2969233238938918},{"id":"valgu_2072","citySlug":"valgu","name":"Centro Histórico","category":"historia","lat":58.821674640285906,"lng":24.584620120156863,"avgVisitMinutes":38,"estimatedCostEur":11,"score":1.3968762695514254},{"id":"valgu_9679","citySlug":"valgu","name":"Playa Central","category":"playa","lat":58.82077746520487,"lng":24.5936754093313,"avgVisitMinutes":37,"estimatedCostEur":11,"score":1.306223524576083},{"id":"valgu_8855","citySlug":"valgu","name":"Iglesia de Valgu","category":"historia","lat":58.8184114841585,"lng":24.590533794677555,"avgVisitMinutes":34,"estimatedCostEur":7,"score":3.7871259837127837},{"id":"valgu_4334","citySlug":"valgu","name":"Paseo Principal","category":"ocio","lat":58.82634984775699,"lng":24.59711849760044,"avgVisitMinutes":65,"estimatedCostEur":18,"score":4.306072355271606},{"id":"valgu_8185","citySlug":"valgu","name":"Mercado Gastronómico","category":"gastronomia","lat":58.81420659425708,"lng":24.59747451182479,"avgVisitMinutes":55,"estimatedCostEur":12,"score":1.6164521289392368},{"id":"valgu_3396","citySlug":"valgu","name":"Mirador de Valgu","category":"mirador","lat":58.824226213009055,"lng":24.587690506161096,"avgVisitMinutes":74,"estimatedCostEur":10,"score":3.651528440069752},{"id":"valgu_7169","citySlug":"valgu","name":"Mercado Gastronómico","category":"gastronomia","lat":58.82845123339611,"lng":24.583831827212023,"avgVisitMinutes":77,"estimatedCostEur":3,"score":1.8194113634642746},{"id":"valgjarve_3735","citySlug":"valgjarve","name":"Galería de Arte","category":"cultura","lat":58.08017535056445,"lng":26.63296126960422,"avgVisitMinutes":82,"estimatedCostEur":18,"score":3.452391857179257},{"id":"valgjarve_9376","citySlug":"valgjarve","name":"Murallas de Valgjärve","category":"historia","lat":58.079220901029075,"lng":26.646721715261183,"avgVisitMinutes":33,"estimatedCostEur":1,"score":3.2967833234460695},{"id":"valgjarve_4644","citySlug":"valgjarve","name":"Punto Panorámico","category":"mirador","lat":58.086808999836855,"lng":26.632868710045692,"avgVisitMinutes":41,"estimatedCostEur":8,"score":2.1795919185639425},{"id":"valgjarve_4411","citySlug":"valgjarve","name":"Zona Comercial","category":"ocio","lat":58.07674477343947,"lng":26.643727253010887,"avgVisitMinutes":70,"estimatedCostEur":16,"score":2.707038072193808},{"id":"valgjarve_1092","citySlug":"valgjarve","name":"Playa Central","category":"playa","lat":58.08298854988922,"lng":26.63667665565961,"avgVisitMinutes":86,"estimatedCostEur":19,"score":1.9550359793573675},{"id":"valgjarve_9850","citySlug":"valgjarve","name":"Mercado Gastronómico","category":"gastronomia","lat":58.07612316977044,"lng":26.635788790051144,"avgVisitMinutes":20,"estimatedCostEur":23,"score":2.8932554095013083},{"id":"valgjarve_2093","citySlug":"valgjarve","name":"Playa Sur","category":"playa","lat":58.085988589845925,"lng":26.637882667910336,"avgVisitMinutes":39,"estimatedCostEur":14,"score":3.2819894855370073},{"id":"valgjarve_5231","citySlug":"valgjarve","name":"Galería de Arte","category":"cultura","lat":58.082031785636005,"lng":26.64475574224055,"avgVisitMinutes":49,"estimatedCostEur":16,"score":3.130742326559137},{"id":"valgjarve_5255","citySlug":"valgjarve","name":"Playa Central","category":"playa","lat":58.075558248166764,"lng":26.646271167232285,"avgVisitMinutes":87,"estimatedCostEur":1,"score":1.667799516015224},{"id":"valga_5273","citySlug":"valga","name":"Paseo Principal","category":"ocio","lat":57.78223242455777,"lng":26.04902848629215,"avgVisitMinutes":73,"estimatedCostEur":1,"score":0.639443035201902},{"id":"valga_6464","citySlug":"valga","name":"Teatro Municipal","category":"cultura","lat":57.775898209765785,"lng":26.048964517320567,"avgVisitMinutes":24,"estimatedCostEur":16,"score":3.219115199486016},{"id":"valga_9360","citySlug":"valga","name":"Playa Central","category":"playa","lat":57.77692795003233,"lng":26.03960522386921,"avgVisitMinutes":34,"estimatedCostEur":21,"score":0.9059438050974487},{"id":"valga_1343","citySlug":"valga","name":"Playa Central","category":"playa","lat":57.78260195184568,"lng":26.055135731799847,"avgVisitMinutes":78,"estimatedCostEur":20,"score":0.9458541135996026},{"id":"valga_1382","citySlug":"valga","name":"Teatro Municipal","category":"cultura","lat":57.78637640370173,"lng":26.048439709606257,"avgVisitMinutes":51,"estimatedCostEur":9,"score":2.2921777307294047},{"id":"valga_7940","citySlug":"valga","name":"Paseo Principal","category":"ocio","lat":57.77147649050383,"lng":26.04825510711628,"avgVisitMinutes":61,"estimatedCostEur":9,"score":4.980557658977777},{"id":"valga_5069","citySlug":"valga","name":"Parque Central","category":"ocio","lat":57.77563676388045,"lng":26.03830975192242,"avgVisitMinutes":61,"estimatedCostEur":2,"score":1.8161823855424726},{"id":"valga_7300","citySlug":"valga","name":"Parque Central","category":"ocio","lat":57.77972282880969,"lng":26.045152126523625,"avgVisitMinutes":58,"estimatedCostEur":13,"score":4.992103130687367},{"id":"valga_3838","citySlug":"valga","name":"Murallas de Valga","category":"historia","lat":57.770113731497496,"lng":26.043058610391924,"avgVisitMinutes":57,"estimatedCostEur":18,"score":3.3704127840775877},{"id":"valga_7364","citySlug":"valga","name":"Teatro Municipal","category":"cultura","lat":57.776220913456925,"lng":26.043447050784657,"avgVisitMinutes":59,"estimatedCostEur":12,"score":4.082111636894643},{"id":"valga_9950","citySlug":"valga","name":"Paseo Principal","category":"ocio","lat":57.775338332805,"lng":26.047872495328054,"avgVisitMinutes":58,"estimatedCostEur":1,"score":4.5336077668851305},{"id":"valga_8010","citySlug":"valga","name":"Paseo Principal","category":"ocio","lat":57.771151291185376,"lng":26.03990055941607,"avgVisitMinutes":90,"estimatedCostEur":12,"score":2.2698926686067002},{"id":"vajangu_5176","citySlug":"vajangu","name":"Mirador de Vajangu","category":"mirador","lat":59.09805956110219,"lng":26.027188095335873,"avgVisitMinutes":43,"estimatedCostEur":6,"score":4.5628582827250685},{"id":"vajangu_7931","citySlug":"vajangu","name":"Paseo Principal","category":"ocio","lat":59.09256618368616,"lng":26.041036449536,"avgVisitMinutes":47,"estimatedCostEur":15,"score":1.0453489516101546},{"id":"vajangu_7375","citySlug":"vajangu","name":"Vista Alta de Vajangu","category":"mirador","lat":59.10045825904607,"lng":26.03711567261128,"avgVisitMinutes":29,"estimatedCostEur":18,"score":1.9819214944405639},{"id":"vajangu_5728","citySlug":"vajangu","name":"Parque Central","category":"ocio","lat":59.102133515604606,"lng":26.037379021999204,"avgVisitMinutes":49,"estimatedCostEur":15,"score":1.9863298830102016},{"id":"vajangu_5115","citySlug":"vajangu","name":"Playa Central","category":"playa","lat":59.09108607578981,"lng":26.040365467213125,"avgVisitMinutes":25,"estimatedCostEur":10,"score":3.490165843919709},{"id":"vajangu_4569","citySlug":"vajangu","name":"Zona Comercial","category":"ocio","lat":59.0921936035974,"lng":26.032644943034644,"avgVisitMinutes":42,"estimatedCostEur":17,"score":1.1061748395323632},{"id":"vajangu_8192","citySlug":"vajangu","name":"Playa Norte","category":"playa","lat":59.107076133717094,"lng":26.039569988740034,"avgVisitMinutes":87,"estimatedCostEur":17,"score":0.6368793780876654},{"id":"vaimela_7846","citySlug":"vaimela","name":"Murallas de Väimela","category":"historia","lat":57.88369780798121,"lng":27.027518862228977,"avgVisitMinutes":70,"estimatedCostEur":10,"score":2.536971685093575},{"id":"vaimela_6508","citySlug":"vaimela","name":"Vista Alta de Väimela","category":"mirador","lat":57.89184327449871,"lng":27.023196028699658,"avgVisitMinutes":47,"estimatedCostEur":21,"score":2.002278844332068},{"id":"vaimela_1190","citySlug":"vaimela","name":"Museo Cultural de Väimela","category":"cultura","lat":57.88439034554837,"lng":27.018299927794033,"avgVisitMinutes":73,"estimatedCostEur":19,"score":0.7105010381043011},{"id":"vaimela_1667","citySlug":"vaimela","name":"Parque Central","category":"ocio","lat":57.89615411831376,"lng":27.009602609363316,"avgVisitMinutes":46,"estimatedCostEur":21,"score":4.200022881258175},{"id":"vaimela_6736","citySlug":"vaimela","name":"Restaurante Típico de Väimela","category":"gastronomia","lat":57.884523486306676,"lng":27.0106598294474,"avgVisitMinutes":57,"estimatedCostEur":4,"score":0.5403467168230053},{"id":"vaimela_2573","citySlug":"vaimela","name":"Teatro Municipal","category":"cultura","lat":57.8844732106058,"lng":27.013645570349176,"avgVisitMinutes":30,"estimatedCostEur":10,"score":2.961852944364139},{"id":"vaimela_2731","citySlug":"vaimela","name":"Punto Panorámico","category":"mirador","lat":57.894756388930524,"lng":27.015111214734535,"avgVisitMinutes":69,"estimatedCostEur":7,"score":3.247719112549587},{"id":"vaimastvere_3430","citySlug":"vaimastvere","name":"Teatro Municipal","category":"cultura","lat":58.811729200869294,"lng":26.282338438389747,"avgVisitMinutes":53,"estimatedCostEur":16,"score":2.692440873689243},{"id":"vaimastvere_3285","citySlug":"vaimastvere","name":"Parque Central","category":"ocio","lat":58.80950530721861,"lng":26.294398353473095,"avgVisitMinutes":60,"estimatedCostEur":3,"score":4.478998186879465},{"id":"vaimastvere_5075","citySlug":"vaimastvere","name":"Museo Cultural de Vaimastvere","category":"cultura","lat":58.81703356705185,"lng":26.294469567176133,"avgVisitMinutes":77,"estimatedCostEur":2,"score":2.6274382503160383},{"id":"vaimastvere_7341","citySlug":"vaimastvere","name":"Vista Alta de Vaimastvere","category":"mirador","lat":58.80673633754574,"lng":26.295519512143986,"avgVisitMinutes":71,"estimatedCostEur":4,"score":1.4118802965501895},{"id":"vaimastvere_3525","citySlug":"vaimastvere","name":"Iglesia de Vaimastvere","category":"historia","lat":58.8108958305883,"lng":26.298986401738983,"avgVisitMinutes":43,"estimatedCostEur":10,"score":3.75454343855027},{"id":"vaimastvere_6239","citySlug":"vaimastvere","name":"Museo Local de Vaimastvere","category":"historia","lat":58.8227230837025,"lng":26.296558535652593,"avgVisitMinutes":62,"estimatedCostEur":5,"score":4.083348696118332},{"id":"vaimastvere_6626","citySlug":"vaimastvere","name":"Mirador de Vaimastvere","category":"mirador","lat":58.8074446367398,"lng":26.294564719763844,"avgVisitMinutes":44,"estimatedCostEur":8,"score":2.601144124143683},{"id":"vaimastvere_9557","citySlug":"vaimastvere","name":"Zona Comercial","category":"ocio","lat":58.82256680652099,"lng":26.285542027927526,"avgVisitMinutes":52,"estimatedCostEur":21,"score":2.6669621504259715},{"id":"vaimastvere_8668","citySlug":"vaimastvere","name":"Parque Central","category":"ocio","lat":58.82012307848234,"lng":26.29899497440665,"avgVisitMinutes":42,"estimatedCostEur":0,"score":0.9799110936893021},{"id":"vaike-maarja_5047","citySlug":"vaike-maarja","name":"Galería de Arte","category":"cultura","lat":59.11730138472566,"lng":26.24017713624225,"avgVisitMinutes":76,"estimatedCostEur":12,"score":1.194832721385593},{"id":"vaike-maarja_6278","citySlug":"vaike-maarja","name":"Restaurante Típico de Väike-Maarja","category":"gastronomia","lat":59.12594966937736,"lng":26.25112528893687,"avgVisitMinutes":49,"estimatedCostEur":15,"score":4.203072283146545},{"id":"vaike-maarja_1103","citySlug":"vaike-maarja","name":"Teatro Municipal","category":"cultura","lat":59.13365953035196,"lng":26.24274582137198,"avgVisitMinutes":89,"estimatedCostEur":23,"score":0.6940031408579572},{"id":"vaike-maarja_1145","citySlug":"vaike-maarja","name":"Centro de Arte de Väike-Maarja","category":"cultura","lat":59.116759553041646,"lng":26.243346322993137,"avgVisitMinutes":40,"estimatedCostEur":3,"score":1.302765642177946},{"id":"vaike-maarja_1081","citySlug":"vaike-maarja","name":"Murallas de Väike-Maarja","category":"historia","lat":59.119014645393435,"lng":26.253302454746056,"avgVisitMinutes":57,"estimatedCostEur":2,"score":1.1832886077900557},{"id":"vaike-maarja_5466","citySlug":"vaike-maarja","name":"Centro Histórico","category":"historia","lat":59.12710547766922,"lng":26.244159027199373,"avgVisitMinutes":59,"estimatedCostEur":6,"score":3.891712448294581},{"id":"vaike-maarja_1642","citySlug":"vaike-maarja","name":"Museo Local de Väike-Maarja","category":"historia","lat":59.119604353309114,"lng":26.25876111975858,"avgVisitMinutes":47,"estimatedCostEur":18,"score":4.1786092531369645},{"id":"vaida_5622","citySlug":"vaida","name":"Mirador de Vaida","category":"mirador","lat":59.2771512266899,"lng":24.987338569633764,"avgVisitMinutes":65,"estimatedCostEur":18,"score":3.268152064193152},{"id":"vaida_9929","citySlug":"vaida","name":"Playa Norte","category":"playa","lat":59.2844276314248,"lng":24.96995687056194,"avgVisitMinutes":29,"estimatedCostEur":25,"score":4.3615870896379345},{"id":"vaida_7081","citySlug":"vaida","name":"Museo Local de Vaida","category":"historia","lat":59.28615467206794,"lng":24.979165236614406,"avgVisitMinutes":73,"estimatedCostEur":5,"score":3.4393123999545656},{"id":"vaida_3850","citySlug":"vaida","name":"Murallas de Vaida","category":"historia","lat":59.281642175840645,"lng":24.972671580950742,"avgVisitMinutes":60,"estimatedCostEur":15,"score":3.6603577268835323},{"id":"vaida_1112","citySlug":"vaida","name":"Iglesia de Vaida","category":"historia","lat":59.29513548161653,"lng":24.983908002001897,"avgVisitMinutes":73,"estimatedCostEur":2,"score":2.941608440997594},{"id":"vaida_4671","citySlug":"vaida","name":"Ruta de Tapas","category":"gastronomia","lat":59.28193690995097,"lng":24.96908252092247,"avgVisitMinutes":78,"estimatedCostEur":22,"score":0.9525218561061382},{"id":"vahenurme_8200","citySlug":"vahenurme","name":"Murallas de Vahenurme","category":"historia","lat":58.60754067277857,"lng":24.392656778828925,"avgVisitMinutes":23,"estimatedCostEur":1,"score":4.019086216110596},{"id":"vahenurme_3457","citySlug":"vahenurme","name":"Teatro Municipal","category":"cultura","lat":58.62676820206446,"lng":24.401186164181322,"avgVisitMinutes":27,"estimatedCostEur":20,"score":1.9523526443876176},{"id":"vahenurme_6303","citySlug":"vahenurme","name":"Vista Alta de Vahenurme","category":"mirador","lat":58.62112360654817,"lng":24.38997847122407,"avgVisitMinutes":43,"estimatedCostEur":12,"score":1.39006029697893},{"id":"vahenurme_4667","citySlug":"vahenurme","name":"Zona Comercial","category":"ocio","lat":58.61724725817591,"lng":24.39581740748158,"avgVisitMinutes":88,"estimatedCostEur":15,"score":0.5588634755475352},{"id":"vahenurme_8036","citySlug":"vahenurme","name":"Vista Alta de Vahenurme","category":"mirador","lat":58.624951423693695,"lng":24.40396334871786,"avgVisitMinutes":25,"estimatedCostEur":14,"score":1.658017967879808},{"id":"vahenurme_8442","citySlug":"vahenurme","name":"Punto Panorámico","category":"mirador","lat":58.62373065934725,"lng":24.387093723065433,"avgVisitMinutes":84,"estimatedCostEur":0,"score":3.072095908416044},