{"country":"ER","pois":[{"id":"massawa_1130","citySlug":"massawa","name":"Restaurante Típico de Massawa","category":"gastronomia","lat":15.599610330371476,"lng":39.47827508600475,"avgVisitMinutes":88,"estimatedCostEur":4,"score":0.5794449285278567},{"id":"massawa_1287","citySlug":"massawa","name":"Playa Central","category":"playa","lat":15.60797323199474,"lng":39.46657235469666,"avgVisitMinutes":86,"estimatedCostEur":22,"score":0.8442336042188798},{"id":"massawa_4392","citySlug":"massawa","name":"Playa Norte","category":"playa","lat":15.612004210426237,"lng":39.48329053331793,"avgVisitMinutes":79,"estimatedCostEur":3,"score":2.854838577516106},{"id":"massawa_6587","citySlug":"massawa","name":"Centro de Arte de Massawa","category":"cultura","lat":15.6148249780746,"lng":39.47573569269489,"avgVisitMinutes":24,"estimatedCostEur":25,"score":1.0159219120530674},{"id":"massawa_5654","citySlug":"massawa","name":"Mirador de Massawa","category":"mirador","lat":15.602123434506229,"lng":39.46669700463716,"avgVisitMinutes":59,"estimatedCostEur":11,"score":1.7639533093060418},{"id":"massawa_2725","citySlug":"massawa","name":"Castillo de Massawa","category":"historia","lat":15.606826299894353,"lng":39.4648378693853,"avgVisitMinutes":65,"estimatedCostEur":18,"score":1.3771363275125643},{"id":"massawa_2659","citySlug":"massawa","name":"Centro Histórico","category":"historia","lat":15.601389110969036,"lng":39.47120718856973,"avgVisitMinutes":61,"estimatedCostEur":22,"score":2.8496610358177428},{"id":"massawa_1083","citySlug":"massawa","name":"Playa Sur","category":"playa","lat":15.600380726734567,"lng":39.474367551800846,"avgVisitMinutes":49,"estimatedCostEur":8,"score":3.535863400065313},{"id":"massawa_7712","citySlug":"massawa","name":"Museo Local de Massawa","category":"historia","lat":15.610146821992837,"lng":39.47405431769018,"avgVisitMinutes":81,"estimatedCostEur":14,"score":0.6751121435445769},{"id":"massawa_7625","citySlug":"massawa","name":"Parque Central","category":"ocio","lat":15.60150387598758,"lng":39.4648524027063,"avgVisitMinutes":55,"estimatedCostEur":24,"score":3.7648444334655795},{"id":"massawa_3238","citySlug":"massawa","name":"Playa Norte","category":"playa","lat":15.602016978571418,"lng":39.47818307956338,"avgVisitMinutes":42,"estimatedCostEur":15,"score":4.806134589433736},{"id":"massawa_2994","citySlug":"massawa","name":"Playa Sur","category":"playa","lat":15.607111963917419,"lng":39.47740514188376,"avgVisitMinutes":35,"estimatedCostEur":13,"score":2.5355706862236946},{"id":"keren_9378","citySlug":"keren","name":"Teatro Municipal","category":"cultura","lat":15.779428293339585,"lng":38.44152420247468,"avgVisitMinutes":89,"estimatedCostEur":1,"score":3.32860911711777},{"id":"keren_6247","citySlug":"keren","name":"Vista Alta de Keren","category":"mirador","lat":15.787068161988788,"lng":38.45034436933419,"avgVisitMinutes":54,"estimatedCostEur":10,"score":1.8903848132166092},{"id":"keren_4176","citySlug":"keren","name":"Playa Central","category":"playa","lat":15.785995292202083,"lng":38.45461929423746,"avgVisitMinutes":65,"estimatedCostEur":20,"score":2.9720564630446753},{"id":"keren_9801","citySlug":"keren","name":"Murallas de Keren","category":"historia","lat":15.775902623173552,"lng":38.454613415653874,"avgVisitMinutes":35,"estimatedCostEur":5,"score":1.16248991007256},{"id":"keren_9110","citySlug":"keren","name":"Paseo Principal","category":"ocio","lat":15.77400865018162,"lng":38.44247645394004,"avgVisitMinutes":31,"estimatedCostEur":2,"score":4.189620698650865},{"id":"keren_5795","citySlug":"keren","name":"Parque Central","category":"ocio","lat":15.7704737125193,"lng":38.45094264371172,"avgVisitMinutes":33,"estimatedCostEur":24,"score":0.9518128741082073},{"id":"keren_1079","citySlug":"keren","name":"Teatro Municipal","category":"cultura","lat":15.780394834989542,"lng":38.454964383735785,"avgVisitMinutes":58,"estimatedCostEur":18,"score":0.7340281041314347},{"id":"himora_5881","citySlug":"himora","name":"Museo Local de Himora","category":"historia","lat":14.299931586918946,"lng":36.6063851606894,"avgVisitMinutes":51,"estimatedCostEur":24,"score":2.0153698211882456},{"id":"himora_4103","citySlug":"himora","name":"Galería de Arte","category":"cultura","lat":14.312532046615337,"lng":36.60047568859332,"avgVisitMinutes":81,"estimatedCostEur":3,"score":3.852167924956428},{"id":"himora_5452","citySlug":"himora","name":"Playa Central","category":"playa","lat":14.299591433078481,"lng":36.59798526468962,"avgVisitMinutes":69,"estimatedCostEur":6,"score":3.148651036222952},{"id":"himora_6686","citySlug":"himora","name":"Parque Central","category":"ocio","lat":14.306610710137887,"lng":36.60752524588999,"avgVisitMinutes":42,"estimatedCostEur":1,"score":2.7943911715052465},{"id":"himora_5983","citySlug":"himora","name":"Iglesia de Himora","category":"historia","lat":14.305518353636083,"lng":36.60326859291688,"avgVisitMinutes":63,"estimatedCostEur":4,"score":4.4960282231797},{"id":"himora_7057","citySlug":"himora","name":"Centro Histórico","category":"historia","lat":14.30121981090274,"lng":36.601952264997635,"avgVisitMinutes":47,"estimatedCostEur":3,"score":3.2956899790093135},{"id":"edd_8162","citySlug":"edd","name":"Ruta de Tapas","category":"gastronomia","lat":13.929121976416548,"lng":41.69043337944411,"avgVisitMinutes":27,"estimatedCostEur":22,"score":1.8934988847952883},{"id":"edd_2242","citySlug":"edd","name":"Mercado Gastronómico","category":"gastronomia","lat":13.92403632104858,"lng":41.695236500684274,"avgVisitMinutes":80,"estimatedCostEur":21,"score":1.1609874465766434},{"id":"edd_6412","citySlug":"edd","name":"Playa Norte","category":"playa","lat":13.922881173857151,"lng":41.70139278292499,"avgVisitMinutes":28,"estimatedCostEur":8,"score":1.666047476011349},{"id":"edd_3054","citySlug":"edd","name":"Galería de Arte","category":"cultura","lat":13.936072234934752,"lng":41.70328387599652,"avgVisitMinutes":76,"estimatedCostEur":2,"score":0.8195345412922508},{"id":"edd_8681","citySlug":"edd","name":"Museo Cultural de Edd","category":"cultura","lat":13.932863957714456,"lng":41.70345082263506,"avgVisitMinutes":44,"estimatedCostEur":0,"score":3.65929396466062},{"id":"edd_4888","citySlug":"edd","name":"Centro de Arte de Edd","category":"cultura","lat":13.928923232024768,"lng":41.689204939644085,"avgVisitMinutes":52,"estimatedCostEur":23,"score":1.359686751684382},{"id":"edd_1191","citySlug":"edd","name":"Ruta de Tapas","category":"gastronomia","lat":13.9376941826689,"lng":41.68803842290208,"avgVisitMinutes":85,"estimatedCostEur":6,"score":3.053422922168536},{"id":"edd_8872","citySlug":"edd","name":"Centro Histórico","category":"historia","lat":13.92987206428687,"lng":41.70232910110266,"avgVisitMinutes":80,"estimatedCostEur":12,"score":4.4166721426872755},{"id":"edd_7790","citySlug":"edd","name":"Murallas de Edd","category":"historia","lat":13.940677325624375,"lng":41.68552736812077,"avgVisitMinutes":37,"estimatedCostEur":16,"score":4.78555231009749},{"id":"dbarwa_3379","citySlug":"dbarwa","name":"Iglesia de Dbarwa","category":"historia","lat":15.092474604286473,"lng":38.8344503043648,"avgVisitMinutes":71,"estimatedCostEur":13,"score":1.3759468422238896},{"id":"dbarwa_1787","citySlug":"dbarwa","name":"Teatro Municipal","category":"cultura","lat":15.105373270017342,"lng":38.82404856088701,"avgVisitMinutes":84,"estimatedCostEur":1,"score":2.499582970843659},{"id":"dbarwa_6305","citySlug":"dbarwa","name":"Playa Sur","category":"playa","lat":15.094007540289153,"lng":38.83369650394214,"avgVisitMinutes":58,"estimatedCostEur":4,"score":3.4933847936833615},{"id":"dbarwa_2257","citySlug":"dbarwa","name":"Mirador de Dbarwa","category":"mirador","lat":15.105891645112566,"lng":38.84122489768255,"avgVisitMinutes":29,"estimatedCostEur":18,"score":2.1190916666322877},{"id":"dbarwa_3673","citySlug":"dbarwa","name":"Playa Central","category":"playa","lat":15.091490300819311,"lng":38.83493185533263,"avgVisitMinutes":46,"estimatedCostEur":24,"score":3.400332268082199},{"id":"dbarwa_8291","citySlug":"dbarwa","name":"Mercado Gastronómico","category":"gastronomia","lat":15.091977104176248,"lng":38.837689992600026,"avgVisitMinutes":89,"estimatedCostEur":9,"score":4.2889064937315675},{"id":"dbarwa_4397","citySlug":"dbarwa","name":"Murallas de Dbarwa","category":"historia","lat":15.089792054190069,"lng":38.840427437553686,"avgVisitMinutes":33,"estimatedCostEur":14,"score":2.9264716463966107},{"id":"dbarwa_3278","citySlug":"dbarwa","name":"Centro Histórico","category":"historia","lat":15.08987906191968,"lng":38.83159934604501,"avgVisitMinutes":20,"estimatedCostEur":13,"score":1.632868197929171},{"id":"dekemhare_5744","citySlug":"dekemhare","name":"Centro de Arte de Dek’emhāre","category":"cultura","lat":15.070298865085798,"lng":39.046081753848604,"avgVisitMinutes":41,"estimatedCostEur":15,"score":3.12163116728443},{"id":"dekemhare_3855","citySlug":"dekemhare","name":"Ruta de Tapas","category":"gastronomia","lat":15.07253121614283,"lng":39.03879755773076,"avgVisitMinutes":67,"estimatedCostEur":15,"score":1.4542428410104664},{"id":"dekemhare_7478","citySlug":"dekemhare","name":"Mirador de Dek’emhāre","category":"mirador","lat":15.078285446847259,"lng":39.042014718053586,"avgVisitMinutes":65,"estimatedCostEur":16,"score":3.888534507568232},{"id":"dekemhare_5754","citySlug":"dekemhare","name":"Vista Alta de Dek’emhāre","category":"mirador","lat":15.07209558202932,"lng":39.042053415628914,"avgVisitMinutes":40,"estimatedCostEur":6,"score":2.544063526868622},{"id":"dekemhare_2158","citySlug":"dekemhare","name":"Restaurante Típico de Dek’emhāre","category":"gastronomia","lat":15.067620351328737,"lng":39.03855232308151,"avgVisitMinutes":39,"estimatedCostEur":17,"score":3.5084854178839873},{"id":"dekemhare_2925","citySlug":"dekemhare","name":"Playa Sur","category":"playa","lat":15.074293952024409,"lng":39.04905860415469,"avgVisitMinutes":41,"estimatedCostEur":17,"score":4.175127782864048},{"id":"dekemhare_8900","citySlug":"dekemhare","name":"Centro de Arte de Dek’emhāre","category":"cultura","lat":15.075633018787174,"lng":39.04499283418658,"avgVisitMinutes":68,"estimatedCostEur":22,"score":3.462544040961977},{"id":"dekemhare_5928","citySlug":"dekemhare","name":"Restaurante Típico de Dek’emhāre","category":"gastronomia","lat":15.071721880310065,"lng":39.05424136485844,"avgVisitMinutes":82,"estimatedCostEur":22,"score":1.1245441034027799},{"id":"dekemhare_9268","citySlug":"dekemhare","name":"Playa Central","category":"playa","lat":15.077918824903005,"lng":39.04436842316545,"avgVisitMinutes":48,"estimatedCostEur":22,"score":3.7136676869523657},{"id":"dekemhare_5243","citySlug":"dekemhare","name":"Galería de Arte","category":"cultura","lat":15.069271188796268,"lng":39.0544110130999,"avgVisitMinutes":65,"estimatedCostEur":11,"score":4.389133878234729},{"id":"dekemhare_1432","citySlug":"dekemhare","name":"Punto Panorámico","category":"mirador","lat":15.068956755897823,"lng":39.053752011409664,"avgVisitMinutes":63,"estimatedCostEur":4,"score":4.347945903836324},{"id":"dekemhare_2805","citySlug":"dekemhare","name":"Paseo Principal","category":"ocio","lat":15.067341242468093,"lng":39.044281263105105,"avgVisitMinutes":85,"estimatedCostEur":23,"score":0.9838271192609679},{"id":"dehalak-kebir_2051","citySlug":"dehalak-kebir","name":"Vista Alta de Dehalak’ Kebīr","category":"mirador","lat":15.690868794055856,"lng":40.02207251124921,"avgVisitMinutes":65,"estimatedCostEur":4,"score":4.919495936507833},{"id":"dehalak-kebir_7839","citySlug":"dehalak-kebir","name":"Restaurante Típico de Dehalak’ Kebīr","category":"gastronomia","lat":15.69014143425926,"lng":40.00762653107461,"avgVisitMinutes":20,"estimatedCostEur":24,"score":1.0314957693713414},{"id":"dehalak-kebir_1081","citySlug":"dehalak-kebir","name":"Mercado Gastronómico","category":"gastronomia","lat":15.686082015518338,"lng":40.018168749425485,"avgVisitMinutes":22,"estimatedCostEur":20,"score":2.130051460194337},{"id":"dehalak-kebir_6908","citySlug":"dehalak-kebir","name":"Playa Sur","category":"playa","lat":15.678599611412432,"lng":40.019377454102944,"avgVisitMinutes":53,"estimatedCostEur":25,"score":2.4508333007572762},{"id":"dehalak-kebir_9545","citySlug":"dehalak-kebir","name":"Murallas de Dehalak’ Kebīr","category":"historia","lat":15.676676384722679,"lng":40.01338833702819,"avgVisitMinutes":52,"estimatedCostEur":17,"score":1.2855852283571882},{"id":"dehalak-kebir_3280","citySlug":"dehalak-kebir","name":"Teatro Municipal","category":"cultura","lat":15.688040943366085,"lng":40.01487889475984,"avgVisitMinutes":76,"estimatedCostEur":21,"score":1.4466351845043133},{"id":"dehalak-kebir_2324","citySlug":"dehalak-kebir","name":"Centro Histórico","category":"historia","lat":15.674764715646617,"lng":40.01170426958024,"avgVisitMinutes":80,"estimatedCostEur":12,"score":3.2220203101793117},{"id":"dehalak-kebir_3683","citySlug":"dehalak-kebir","name":"Playa Sur","category":"playa","lat":15.679249613746462,"lng":40.015185359763805,"avgVisitMinutes":44,"estimatedCostEur":6,"score":0.9800660996697743},{"id":"dehalak-kebir_2204","citySlug":"dehalak-kebir","name":"Mirador de Dehalak’ Kebīr","category":"mirador","lat":15.6928789771579,"lng":40.010439815285864,"avgVisitMinutes":68,"estimatedCostEur":12,"score":3.980466088732357},{"id":"dehalak-kebir_4626","citySlug":"dehalak-kebir","name":"Murallas de Dehalak’ Kebīr","category":"historia","lat":15.680936228983757,"lng":40.01082945959903,"avgVisitMinutes":81,"estimatedCostEur":12,"score":1.7144696674548048},{"id":"dehalak-kebir_2476","citySlug":"dehalak-kebir","name":"Punto Panorámico","category":"mirador","lat":15.675027065607322,"lng":40.01064605228917,"avgVisitMinutes":76,"estimatedCostEur":1,"score":1.798912946950788},{"id":"dehalak-kebir_5153","citySlug":"dehalak-kebir","name":"Vista Alta de Dehalak’ Kebīr","category":"mirador","lat":15.687148118257237,"lng":40.00716985686776,"avgVisitMinutes":44,"estimatedCostEur":2,"score":1.3059242133343834},{"id":"barentu_8641","citySlug":"barentu","name":"Centro de Arte de Barentu","category":"cultura","lat":15.097571135176304,"lng":37.5812231438068,"avgVisitMinutes":46,"estimatedCostEur":16,"score":3.081408560124327},{"id":"barentu_7644","citySlug":"barentu","name":"Vista Alta de Barentu","category":"mirador","lat":15.100747930732222,"lng":37.59547415279817,"avgVisitMinutes":69,"estimatedCostEur":5,"score":1.3336469540278049},{"id":"barentu_4743","citySlug":"barentu","name":"Vista Alta de Barentu","category":"mirador","lat":15.103047979498553,"lng":37.59694664363518,"avgVisitMinutes":47,"estimatedCostEur":22,"score":1.721249242249563},{"id":"barentu_2464","citySlug":"barentu","name":"Mirador de Barentu","category":"mirador","lat":15.107060445544914,"lng":37.599280838136046,"avgVisitMinutes":26,"estimatedCostEur":24,"score":1.753841300012356},{"id":"barentu_2940","citySlug":"barentu","name":"Punto Panorámico","category":"mirador","lat":15.096747220256518,"lng":37.590308413797565,"avgVisitMinutes":32,"estimatedCostEur":11,"score":3.3381126628426285},{"id":"barentu_5766","citySlug":"barentu","name":"Museo Local de Barentu","category":"historia","lat":15.097024395546539,"lng":37.59993272877045,"avgVisitMinutes":20,"estimatedCostEur":8,"score":0.7592594686102272},{"id":"barentu_2017","citySlug":"barentu","name":"Vista Alta de Barentu","category":"mirador","lat":15.096860197003364,"lng":37.596096863515385,"avgVisitMinutes":80,"estimatedCostEur":4,"score":2.688113413732911},{"id":"barentu_8453","citySlug":"barentu","name":"Punto Panorámico","category":"mirador","lat":15.110716970231342,"lng":37.595618635513254,"avgVisitMinutes":43,"estimatedCostEur":2,"score":4.004269264748615},{"id":"barentu_9421","citySlug":"barentu","name":"Ruta de Tapas","category":"gastronomia","lat":15.101963283918748,"lng":37.59194482300837,"avgVisitMinutes":87,"estimatedCostEur":10,"score":4.160040894974104},{"id":"barentu_4839","citySlug":"barentu","name":"Playa Norte","category":"playa","lat":15.109222024151007,"lng":37.58676801706629,"avgVisitMinutes":87,"estimatedCostEur":25,"score":3.3926290378708277},{"id":"asmara_1209","citySlug":"asmara","name":"Paseo Principal","category":"ocio","lat":15.331125976011382,"lng":38.93003486859825,"avgVisitMinutes":75,"estimatedCostEur":16,"score":2.694247962507792},{"id":"asmara_8514","citySlug":"asmara","name":"Ruta de Tapas","category":"gastronomia","lat":15.337358661370505,"lng":38.9314760086046,"avgVisitMinutes":23,"estimatedCostEur":17,"score":1.8316581347001568},{"id":"asmara_1636","citySlug":"asmara","name":"Museo Cultural de Asmara","category":"cultura","lat":15.336704012994181,"lng":38.93886087137995,"avgVisitMinutes":59,"estimatedCostEur":3,"score":1.073767399702019},{"id":"asmara_1878","citySlug":"asmara","name":"Centro Histórico","category":"historia","lat":15.34120826315134,"lng":38.9318882782017,"avgVisitMinutes":58,"estimatedCostEur":6,"score":1.3700615132629603},{"id":"asmara_2065","citySlug":"asmara","name":"Ruta de Tapas","category":"gastronomia","lat":15.33921494697052,"lng":38.9378027073714,"avgVisitMinutes":70,"estimatedCostEur":4,"score":1.92677560720303},{"id":"asmara_8036","citySlug":"asmara","name":"Paseo Principal","category":"ocio","lat":15.34540316743536,"lng":38.92900778306627,"avgVisitMinutes":53,"estimatedCostEur":13,"score":3.697593459495553},{"id":"asmara_5538","citySlug":"asmara","name":"Ruta de Tapas","category":"gastronomia","lat":15.33609529868824,"lng":38.92369006008257,"avgVisitMinutes":55,"estimatedCostEur":17,"score":1.226573410186278},{"id":"asmara_9396","citySlug":"asmara","name":"Iglesia de Asmara","category":"historia","lat":15.344668359874612,"lng":38.94075410018526,"avgVisitMinutes":68,"estimatedCostEur":22,"score":4.376734509459572},{"id":"asmara_5523","citySlug":"asmara","name":"Playa Sur","category":"playa","lat":15.346431719914468,"lng":38.93070839137471,"avgVisitMinutes":43,"estimatedCostEur":17,"score":0.7125643547321461},{"id":"asmara_6991","citySlug":"asmara","name":"Playa Norte","category":"playa","lat":15.345865360477536,"lng":38.928443570285296,"avgVisitMinutes":76,"estimatedCostEur":14,"score":2.7329322257194946},{"id":"assab_7039","citySlug":"assab","name":"Mercado Gastronómico","category":"gastronomia","lat":13.014024493459246,"lng":42.741867706587534,"avgVisitMinutes":30,"estimatedCostEur":23,"score":4.781397368489436},{"id":"assab_9117","citySlug":"assab","name":"Iglesia de Assab","category":"historia","lat":13.006137085663285,"lng":42.73636893656686,"avgVisitMinutes":63,"estimatedCostEur":5,"score":2.5632021435530903},{"id":"assab_5372","citySlug":"assab","name":"Restaurante Típico de Assab","category":"gastronomia","lat":13.004170336239786,"lng":42.74566234411746,"avgVisitMinutes":84,"estimatedCostEur":9,"score":4.7537067786649985},{"id":"assab_3315","citySlug":"assab","name":"Mirador de Assab","category":"mirador","lat":13.013570618634999,"lng":42.74366327698367,"avgVisitMinutes":35,"estimatedCostEur":16,"score":1.6424500385738885},{"id":"assab_2651","citySlug":"assab","name":"Punto Panorámico","category":"mirador","lat":13.002305904738913,"lng":42.74535056434902,"avgVisitMinutes":48,"estimatedCostEur":25,"score":4.959117527876462},{"id":"assab_5660","citySlug":"assab","name":"Iglesia de Assab","category":"historia","lat":13.015782957261049,"lng":42.74721078855117,"avgVisitMinutes":59,"estimatedCostEur":5,"score":0.9506312812127744},{"id":"areza_9905","citySlug":"areza","name":"Playa Norte","category":"playa","lat":14.918152758578687,"lng":38.55645234174863,"avgVisitMinutes":52,"estimatedCostEur":1,"score":3.5381528210913027},{"id":"areza_9247","citySlug":"areza","name":"Mirador de Āreza","category":"mirador","lat":14.933682444749193,"lng":38.57251246292137,"avgVisitMinutes":83,"estimatedCostEur":9,"score":0.7546748418724583},{"id":"areza_1025","citySlug":"areza","name":"Restaurante Típico de Āreza","category":"gastronomia","lat":14.930459485656415,"lng":38.567449127987615,"avgVisitMinutes":77,"estimatedCostEur":15,"score":3.2782910397618754},{"id":"areza_7715","citySlug":"areza","name":"Vista Alta de Āreza","category":"mirador","lat":14.93481279714676,"lng":38.5607960414778,"avgVisitMinutes":80,"estimatedCostEur":9,"score":4.487726482537896},{"id":"areza_9858","citySlug":"areza","name":"Centro Histórico","category":"historia","lat":14.931170904046645,"lng":38.56551229073065,"avgVisitMinutes":54,"estimatedCostEur":16,"score":1.9958961964857562},{"id":"areza_7871","citySlug":"areza","name":"Murallas de Āreza","category":"historia","lat":14.924346576580591,"lng":38.5691516000661,"avgVisitMinutes":36,"estimatedCostEur":5,"score":0.7844756866029107},{"id":"areza_7925","citySlug":"areza","name":"Punto Panorámico","category":"mirador","lat":14.92127110260786,"lng":38.560176434712524,"avgVisitMinutes":69,"estimatedCostEur":4,"score":0.549900029810824},{"id":"akordat_7485","citySlug":"akordat","name":"Mirador de Ak’ordat","category":"mirador","lat":15.55790416275253,"lng":37.88879595120586,"avgVisitMinutes":67,"estimatedCostEur":23,"score":2.8730535523594223},{"id":"akordat_3640","citySlug":"akordat","name":"Paseo Principal","category":"ocio","lat":15.556832703697875,"lng":37.88953212878944,"avgVisitMinutes":64,"estimatedCostEur":6,"score":0.7393738073297939},{"id":"akordat_1002","citySlug":"akordat","name":"Playa Central","category":"playa","lat":15.556352790276962,"lng":37.88247060952699,"avgVisitMinutes":76,"estimatedCostEur":10,"score":3.951151346378172},{"id":"akordat_1828","citySlug":"akordat","name":"Mercado Gastronómico","category":"gastronomia","lat":15.545831555568068,"lng":37.87682897168715,"avgVisitMinutes":48,"estimatedCostEur":4,"score":1.2828788891233687},{"id":"akordat_3059","citySlug":"akordat","name":"Galería de Arte","category":"cultura","lat":15.555452275755192,"lng":37.883247322932334,"avgVisitMinutes":39,"estimatedCostEur":17,"score":0.6459211513602708},{"id":"akordat_8144","citySlug":"akordat","name":"Castillo de Ak’ordat","category":"historia","lat":15.557206579747549,"lng":37.88710220811771,"avgVisitMinutes":53,"estimatedCostEur":2,"score":3.5619126688007174},{"id":"akordat_7790","citySlug":"akordat","name":"Museo Local de Ak’ordat","category":"historia","lat":15.54538619299299,"lng":37.881031266185715,"avgVisitMinutes":70,"estimatedCostEur":21,"score":1.2936827355916345},{"id":"mendefera_9432","citySlug":"mendefera","name":"Paseo Principal","category":"ocio","lat":14.880157214738263,"lng":38.81536872463071,"avgVisitMinutes":51,"estimatedCostEur":15,"score":3.0148560417136614},{"id":"mendefera_1499","citySlug":"mendefera","name":"Castillo de Mendefera","category":"historia","lat":14.882176939587088,"lng":38.809001427580185,"avgVisitMinutes":41,"estimatedCostEur":3,"score":4.33306241046916},{"id":"mendefera_1620","citySlug":"mendefera","name":"Centro de Arte de Mendefera","category":"cultura","lat":14.887679831084617,"lng":38.81555836754874,"avgVisitMinutes":61,"estimatedCostEur":24,"score":3.8768120419320202},{"id":"mendefera_7402","citySlug":"mendefera","name":"Castillo de Mendefera","category":"historia","lat":14.878974634789152,"lng":38.822160242492025,"avgVisitMinutes":74,"estimatedCostEur":5,"score":4.817623713766482},{"id":"mendefera_4449","citySlug":"mendefera","name":"Parque Central","category":"ocio","lat":14.887312975923257,"lng":38.81452988164176,"avgVisitMinutes":76,"estimatedCostEur":25,"score":0.7109120804571584},{"id":"mendefera_1456","citySlug":"mendefera","name":"Paseo Principal","category":"ocio","lat":14.881420359242279,"lng":38.81985838460496,"avgVisitMinutes":71,"estimatedCostEur":16,"score":4.513852755817451},{"id":"mendefera_9997","citySlug":"mendefera","name":"Museo Local de Mendefera","category":"historia","lat":14.891324898378313,"lng":38.82307523856025,"avgVisitMinutes":26,"estimatedCostEur":9,"score":4.049529251947716},{"id":"mendefera_6145","citySlug":"mendefera","name":"Mirador de Mendefera","category":"mirador","lat":14.882695270133155,"lng":38.81966173628959,"avgVisitMinutes":80,"estimatedCostEur":21,"score":3.558086118011465},{"id":"mendefera_3281","citySlug":"mendefera","name":"Galería de Arte","category":"cultura","lat":14.894757895279698,"lng":38.81434127492709,"avgVisitMinutes":52,"estimatedCostEur":21,"score":3.2884291508009595},{"id":"mendefera_8655","citySlug":"mendefera","name":"Punto Panorámico","category":"mirador","lat":14.89098288104448,"lng":38.80632431576255,"avgVisitMinutes":35,"estimatedCostEur":8,"score":4.612502277743236},{"id":"mendefera_7387","citySlug":"mendefera","name":"Playa Norte","category":"playa","lat":14.893460046801243,"lng":38.82053204533135,"avgVisitMinutes":39,"estimatedCostEur":8,"score":1.961017441065233},{"id":"mendefera_5955","citySlug":"mendefera","name":"Castillo de Mendefera","category":"historia","lat":14.889599208520895,"lng":38.820305939096954,"avgVisitMinutes":33,"estimatedCostEur":14,"score":1.283751965405391},{"id":"adi-keyh_1077","citySlug":"adi-keyh","name":"Zona Comercial","category":"ocio","lat":14.839739595354928,"lng":39.377773763676736,"avgVisitMinutes":74,"estimatedCostEur":19,"score":3.5855313454211846},{"id":"adi-keyh_4565","citySlug":"adi-keyh","name":"Museo Local de Adi Keyh","category":"historia","lat":14.85143173194309,"lng":39.38436685948452,"avgVisitMinutes":70,"estimatedCostEur":10,"score":4.634695713984036},{"id":"adi-keyh_9411","citySlug":"adi-keyh","name":"Punto Panorámico","category":"mirador","lat":14.85293615462187,"lng":39.38709797748869,"avgVisitMinutes":31,"estimatedCostEur":14,"score":2.970227855262827},{"id":"adi-keyh_5907","citySlug":"adi-keyh","name":"Vista Alta de Adi Keyh","category":"mirador","lat":14.835330138869192,"lng":39.374298820826084,"avgVisitMinutes":70,"estimatedCostEur":7,"score":2.675125357509634},{"id":"adi-keyh_1139","citySlug":"adi-keyh","name":"Punto Panorámico","category":"mirador","lat":14.841639941177307,"lng":39.37322639468401,"avgVisitMinutes":84,"estimatedCostEur":6,"score":4.012829671146576},{"id":"adi-keyh_1846","citySlug":"adi-keyh","name":"Mercado Gastronómico","category":"gastronomia","lat":14.836886725505849,"lng":39.37660980837908,"avgVisitMinutes":46,"estimatedCostEur":3,"score":0.6607114125546105},{"id":"badme_1699","citySlug":"badme","name":"Zona Comercial","category":"ocio","lat":14.72737662572873,"lng":37.80135342544247,"avgVisitMinutes":27,"estimatedCostEur":24,"score":2.2256963075126834},{"id":"badme_3913","citySlug":"badme","name":"Teatro Municipal","category":"cultura","lat":14.72763314219856,"lng":37.80689082027697,"avgVisitMinutes":64,"estimatedCostEur":2,"score":4.424868882383329},{"id":"badme_6991","citySlug":"badme","name":"Centro Histórico","category":"historia","lat":14.732146739051881,"lng":37.79846638440047,"avgVisitMinutes":62,"estimatedCostEur":18,"score":2.5352219683419497},{"id":"badme_8037","citySlug":"badme","name":"Ruta de Tapas","category":"gastronomia","lat":14.717908952528228,"lng":37.79913748752297,"avgVisitMinutes":64,"estimatedCostEur":12,"score":2.3010694128932965},{"id":"badme_8884","citySlug":"badme","name":"Centro de Arte de Badme","category":"cultura","lat":14.724772876729899,"lng":37.79640408091813,"avgVisitMinutes":23,"estimatedCostEur":5,"score":1.3740299359355412},{"id":"badme_7569","citySlug":"badme","name":"Paseo Principal","category":"ocio","lat":14.731848183339062,"lng":37.7954550195275,"avgVisitMinutes":24,"estimatedCostEur":15,"score":2.5233370320550206},{"id":"badme_9075","citySlug":"badme","name":"Parque Central","category":"ocio","lat":14.736518345527514,"lng":37.805381796045715,"avgVisitMinutes":25,"estimatedCostEur":14,"score":1.4975606661938021},{"id":"badme_6525","citySlug":"badme","name":"Playa Norte","category":"playa","lat":14.718442947812557,"lng":37.80636287230074,"avgVisitMinutes":69,"estimatedCostEur":10,"score":4.762764072855195}]}