{"country":"KP","pois":[{"id":"ryonggang-up_7269","citySlug":"ryonggang-up","name":"Parque Central","category":"ocio","lat":38.85341383719543,"lng":125.41714156973718,"avgVisitMinutes":48,"estimatedCostEur":11,"score":1.870984521740458},{"id":"ryonggang-up_4021","citySlug":"ryonggang-up","name":"Mercado Gastronómico","category":"gastronomia","lat":38.86146575650413,"lng":125.41629855464,"avgVisitMinutes":78,"estimatedCostEur":19,"score":1.1029648486694328},{"id":"ryonggang-up_4034","citySlug":"ryonggang-up","name":"Paseo Principal","category":"ocio","lat":38.85754610974272,"lng":125.42195037321831,"avgVisitMinutes":26,"estimatedCostEur":24,"score":1.6815110414764556},{"id":"ryonggang-up_7723","citySlug":"ryonggang-up","name":"Punto Panorámico","category":"mirador","lat":38.864239309998524,"lng":125.42903281837218,"avgVisitMinutes":85,"estimatedCostEur":9,"score":2.395064975163356},{"id":"ryonggang-up_1976","citySlug":"ryonggang-up","name":"Parque Central","category":"ocio","lat":38.84912703292741,"lng":125.41843248306137,"avgVisitMinutes":61,"estimatedCostEur":18,"score":2.006785081439414},{"id":"ryonggang-up_9466","citySlug":"ryonggang-up","name":"Restaurante Típico de Ryonggang-ŭp","category":"gastronomia","lat":38.851436309183434,"lng":125.4301100227508,"avgVisitMinutes":43,"estimatedCostEur":25,"score":1.4254605507818607},{"id":"ryonggang-up_5552","citySlug":"ryonggang-up","name":"Zona Comercial","category":"ocio","lat":38.86322616357405,"lng":125.43267371453648,"avgVisitMinutes":89,"estimatedCostEur":12,"score":3.9501335959316086},{"id":"yongbyon_3143","citySlug":"yongbyon","name":"Playa Norte","category":"playa","lat":39.81718196706568,"lng":125.79425266997738,"avgVisitMinutes":62,"estimatedCostEur":23,"score":2.8270309770245654},{"id":"yongbyon_4996","citySlug":"yongbyon","name":"Vista Alta de Yŏngbyŏn","category":"mirador","lat":39.806519976437045,"lng":125.8017395583722,"avgVisitMinutes":42,"estimatedCostEur":4,"score":2.9230994114720645},{"id":"yongbyon_3464","citySlug":"yongbyon","name":"Restaurante Típico de Yŏngbyŏn","category":"gastronomia","lat":39.812346957881054,"lng":125.81372643768647,"avgVisitMinutes":88,"estimatedCostEur":8,"score":3.9674705583712564},{"id":"yongbyon_6125","citySlug":"yongbyon","name":"Mercado Gastronómico","category":"gastronomia","lat":39.80414931809285,"lng":125.79506966888952,"avgVisitMinutes":23,"estimatedCostEur":21,"score":1.9757248968561671},{"id":"yongbyon_1039","citySlug":"yongbyon","name":"Vista Alta de Yŏngbyŏn","category":"mirador","lat":39.8209738891091,"lng":125.81278003484631,"avgVisitMinutes":60,"estimatedCostEur":6,"score":1.8594778495592814},{"id":"yongbyon_6607","citySlug":"yongbyon","name":"Centro de Arte de Yŏngbyŏn","category":"cultura","lat":39.814505080245574,"lng":125.8097521185332,"avgVisitMinutes":86,"estimatedCostEur":19,"score":2.5550348108731677},{"id":"yongbyon_4889","citySlug":"yongbyon","name":"Paseo Principal","category":"ocio","lat":39.81051980052711,"lng":125.80132766926143,"avgVisitMinutes":81,"estimatedCostEur":12,"score":0.5620540464213918},{"id":"yongbyon_7210","citySlug":"yongbyon","name":"Playa Central","category":"playa","lat":39.816515903767005,"lng":125.81252571927399,"avgVisitMinutes":47,"estimatedCostEur":15,"score":4.414238240720591},{"id":"yongbyon_5487","citySlug":"yongbyon","name":"Iglesia de Yŏngbyŏn","category":"historia","lat":39.807007043819915,"lng":125.80120671124978,"avgVisitMinutes":44,"estimatedCostEur":23,"score":4.3940604879140315},{"id":"yongbyon_9433","citySlug":"yongbyon","name":"Restaurante Típico de Yŏngbyŏn","category":"gastronomia","lat":39.82308723572519,"lng":125.81277512716771,"avgVisitMinutes":53,"estimatedCostEur":5,"score":4.449966080608434},{"id":"yongbyon_3562","citySlug":"yongbyon","name":"Museo Local de Yŏngbyŏn","category":"historia","lat":39.80515464302631,"lng":125.80312243331858,"avgVisitMinutes":46,"estimatedCostEur":19,"score":2.001837723112862},{"id":"yongbyon_3378","citySlug":"yongbyon","name":"Restaurante Típico de Yŏngbyŏn","category":"gastronomia","lat":39.80389958636719,"lng":125.81052428091401,"avgVisitMinutes":70,"estimatedCostEur":0,"score":1.4998480640258776},{"id":"yonan-up_4532","citySlug":"yonan-up","name":"Teatro Municipal","category":"cultura","lat":37.912657752571256,"lng":126.16317101141186,"avgVisitMinutes":72,"estimatedCostEur":7,"score":0.5135081728011968},{"id":"yonan-up_5747","citySlug":"yonan-up","name":"Murallas de Yŏnan-ŭp","category":"historia","lat":37.91799779131475,"lng":126.15919632779648,"avgVisitMinutes":26,"estimatedCostEur":19,"score":1.1722013272466594},{"id":"yonan-up_6777","citySlug":"yonan-up","name":"Playa Norte","category":"playa","lat":37.91020894474842,"lng":126.16370091510274,"avgVisitMinutes":82,"estimatedCostEur":6,"score":3.2873690327580483},{"id":"yonan-up_5866","citySlug":"yonan-up","name":"Playa Norte","category":"playa","lat":37.9080916019274,"lng":126.16495177849058,"avgVisitMinutes":61,"estimatedCostEur":14,"score":1.2330793573776222},{"id":"yonan-up_1931","citySlug":"yonan-up","name":"Playa Norte","category":"playa","lat":37.915172593087114,"lng":126.1708238920944,"avgVisitMinutes":66,"estimatedCostEur":0,"score":0.8622140736122759},{"id":"yomju_8447","citySlug":"yomju","name":"Vista Alta de Yŏmju","category":"mirador","lat":39.891557938477476,"lng":124.59138677017968,"avgVisitMinutes":83,"estimatedCostEur":19,"score":4.182047229788504},{"id":"yomju_1816","citySlug":"yomju","name":"Centro Histórico","category":"historia","lat":39.8923476833944,"lng":124.58887395227369,"avgVisitMinutes":72,"estimatedCostEur":5,"score":0.9560576174328006},{"id":"yomju_7196","citySlug":"yomju","name":"Vista Alta de Yŏmju","category":"mirador","lat":39.895925425404904,"lng":124.59940138400238,"avgVisitMinutes":45,"estimatedCostEur":13,"score":1.795298639344633},{"id":"yomju_6928","citySlug":"yomju","name":"Ruta de Tapas","category":"gastronomia","lat":39.884385827305856,"lng":124.59337677543041,"avgVisitMinutes":65,"estimatedCostEur":25,"score":3.2948908796871974},{"id":"yomju_1652","citySlug":"yomju","name":"Centro de Arte de Yŏmju","category":"cultura","lat":39.89337310034532,"lng":124.60203838634615,"avgVisitMinutes":25,"estimatedCostEur":4,"score":1.656733654653938},{"id":"yomju_6403","citySlug":"yomju","name":"Galería de Arte","category":"cultura","lat":39.89124402456601,"lng":124.59193087814029,"avgVisitMinutes":83,"estimatedCostEur":11,"score":2.5194621342586903},{"id":"yomju_5391","citySlug":"yomju","name":"Parque Central","category":"ocio","lat":39.888180474216135,"lng":124.59700007566155,"avgVisitMinutes":47,"estimatedCostEur":4,"score":2.7028908809842407},{"id":"yomju_7071","citySlug":"yomju","name":"Museo Local de Yŏmju","category":"historia","lat":39.88485901075569,"lng":124.59199474053071,"avgVisitMinutes":25,"estimatedCostEur":15,"score":4.535042213100361},{"id":"yomju_7479","citySlug":"yomju","name":"Castillo de Yŏmju","category":"historia","lat":39.891120121132104,"lng":124.60279023092689,"avgVisitMinutes":64,"estimatedCostEur":1,"score":3.7848702024496332},{"id":"yomju_7607","citySlug":"yomju","name":"Punto Panorámico","category":"mirador","lat":39.89551913704064,"lng":124.60294647593093,"avgVisitMinutes":38,"estimatedCostEur":3,"score":1.3683403286375064},{"id":"yomju_1854","citySlug":"yomju","name":"Galería de Arte","category":"cultura","lat":39.88550070908793,"lng":124.60266551567004,"avgVisitMinutes":78,"estimatedCostEur":20,"score":3.5166088026601026},{"id":"yomju_8053","citySlug":"yomju","name":"Ruta de Tapas","category":"gastronomia","lat":39.89083065631814,"lng":124.60201104270467,"avgVisitMinutes":24,"estimatedCostEur":16,"score":2.0017742863589216},{"id":"wonsan_8513","citySlug":"wonsan","name":"Playa Central","category":"playa","lat":39.14569480416854,"lng":127.4503966726937,"avgVisitMinutes":25,"estimatedCostEur":25,"score":3.077519526489285},{"id":"wonsan_9259","citySlug":"wonsan","name":"Mirador de Wŏnsan","category":"mirador","lat":39.14487967438907,"lng":127.43459602244288,"avgVisitMinutes":78,"estimatedCostEur":11,"score":4.2049865629765835},{"id":"wonsan_6135","citySlug":"wonsan","name":"Parque Central","category":"ocio","lat":39.16005853903261,"lng":127.4415259060471,"avgVisitMinutes":37,"estimatedCostEur":16,"score":1.8270525263913504},{"id":"wonsan_6080","citySlug":"wonsan","name":"Museo Cultural de Wŏnsan","category":"cultura","lat":39.155909338745595,"lng":127.43484846698246,"avgVisitMinutes":69,"estimatedCostEur":20,"score":2.1801146622440255},{"id":"wonsan_4318","citySlug":"wonsan","name":"Paseo Principal","category":"ocio","lat":39.1612826682956,"lng":127.43609570007804,"avgVisitMinutes":45,"estimatedCostEur":17,"score":3.152459772417934},{"id":"wonsan_3527","citySlug":"wonsan","name":"Museo Cultural de Wŏnsan","category":"cultura","lat":39.15964347544381,"lng":127.45226357926259,"avgVisitMinutes":44,"estimatedCostEur":7,"score":3.337616895015157},{"id":"wonsan_1784","citySlug":"wonsan","name":"Playa Sur","category":"playa","lat":39.15133170112213,"lng":127.45225724891975,"avgVisitMinutes":32,"estimatedCostEur":21,"score":3.3672803365778035},{"id":"wonsan_3506","citySlug":"wonsan","name":"Vista Alta de Wŏnsan","category":"mirador","lat":39.151461783206734,"lng":127.43916646906737,"avgVisitMinutes":34,"estimatedCostEur":21,"score":1.8530726576881633},{"id":"wonsan_9395","citySlug":"wonsan","name":"Centro de Arte de Wŏnsan","category":"cultura","lat":39.14811377507821,"lng":127.44584153422262,"avgVisitMinutes":47,"estimatedCostEur":6,"score":2.3802647460810507},{"id":"unchon-up_9989","citySlug":"unchon-up","name":"Zona Comercial","category":"ocio","lat":38.56951447708061,"lng":125.43205871144566,"avgVisitMinutes":81,"estimatedCostEur":0,"score":1.5472492624309429},{"id":"unchon-up_5121","citySlug":"unchon-up","name":"Restaurante Típico de Ŭnch’ŏn-ŭp","category":"gastronomia","lat":38.56260956751633,"lng":125.41775431793661,"avgVisitMinutes":64,"estimatedCostEur":9,"score":0.5056007948452683},{"id":"unchon-up_4297","citySlug":"unchon-up","name":"Parque Central","category":"ocio","lat":38.57246732819375,"lng":125.42740777984268,"avgVisitMinutes":67,"estimatedCostEur":20,"score":0.8607124314880569},{"id":"unchon-up_8622","citySlug":"unchon-up","name":"Castillo de Ŭnch’ŏn-ŭp","category":"historia","lat":38.57256458589785,"lng":125.41886835015318,"avgVisitMinutes":39,"estimatedCostEur":5,"score":2.9432751051062156},{"id":"unchon-up_1247","citySlug":"unchon-up","name":"Mercado Gastronómico","category":"gastronomia","lat":38.5562170856791,"lng":125.43160632014835,"avgVisitMinutes":20,"estimatedCostEur":22,"score":3.4647898920513347},{"id":"unchon-up_3145","citySlug":"unchon-up","name":"Galería de Arte","category":"cultura","lat":38.559405315747156,"lng":125.41979067827077,"avgVisitMinutes":41,"estimatedCostEur":0,"score":1.5555512200072275},{"id":"unchon-up_2295","citySlug":"unchon-up","name":"Playa Sur","category":"playa","lat":38.57165613176536,"lng":125.43293594047371,"avgVisitMinutes":60,"estimatedCostEur":22,"score":0.5984316175200223},{"id":"unchon-up_2827","citySlug":"unchon-up","name":"Centro de Arte de Ŭnch’ŏn-ŭp","category":"cultura","lat":38.57223748423224,"lng":125.42278730831151,"avgVisitMinutes":41,"estimatedCostEur":17,"score":3.259032549873678},{"id":"unchon-up_1854","citySlug":"unchon-up","name":"Playa Sur","category":"playa","lat":38.55930552559932,"lng":125.43270027615677,"avgVisitMinutes":24,"estimatedCostEur":22,"score":2.0502359971654},{"id":"unchon-up_4342","citySlug":"unchon-up","name":"Playa Central","category":"playa","lat":38.5597415855461,"lng":125.43610865800379,"avgVisitMinutes":41,"estimatedCostEur":9,"score":1.458101292692314},{"id":"ullyul_9774","citySlug":"ullyul","name":"Playa Norte","category":"playa","lat":38.50474502061705,"lng":125.18887622994211,"avgVisitMinutes":75,"estimatedCostEur":23,"score":0.5221047755712218},{"id":"ullyul_4749","citySlug":"ullyul","name":"Mirador de Ŭllyul","category":"mirador","lat":38.51729970962997,"lng":125.18579461420367,"avgVisitMinutes":71,"estimatedCostEur":12,"score":3.781420703714106},{"id":"ullyul_6265","citySlug":"ullyul","name":"Teatro Municipal","category":"cultura","lat":38.506434797183815,"lng":125.18202835545594,"avgVisitMinutes":47,"estimatedCostEur":11,"score":1.1102178796038058},{"id":"ullyul_2705","citySlug":"ullyul","name":"Vista Alta de Ŭllyul","category":"mirador","lat":38.505622447760075,"lng":125.1925427535645,"avgVisitMinutes":54,"estimatedCostEur":17,"score":2.2510088433276074},{"id":"ullyul_9875","citySlug":"ullyul","name":"Parque Central","category":"ocio","lat":38.51860776705345,"lng":125.19344422118937,"avgVisitMinutes":33,"estimatedCostEur":25,"score":2.581283782894243},{"id":"ullyul_1430","citySlug":"ullyul","name":"Murallas de Ŭllyul","category":"historia","lat":38.50867501240981,"lng":125.18750753314411,"avgVisitMinutes":40,"estimatedCostEur":4,"score":4.869451638865232},{"id":"ullyul_7367","citySlug":"ullyul","name":"Parque Central","category":"ocio","lat":38.50401463619022,"lng":125.19030281379392,"avgVisitMinutes":90,"estimatedCostEur":24,"score":2.6075484905559088},{"id":"tongchon-up_2246","citySlug":"tongchon-up","name":"Playa Norte","category":"playa","lat":38.95219393857258,"lng":127.88782178912177,"avgVisitMinutes":22,"estimatedCostEur":17,"score":2.2454850340976806},{"id":"tongchon-up_6888","citySlug":"tongchon-up","name":"Centro Histórico","category":"historia","lat":38.944691170337855,"lng":127.88647545746197,"avgVisitMinutes":38,"estimatedCostEur":3,"score":4.665742763724473},{"id":"tongchon-up_6010","citySlug":"tongchon-up","name":"Mercado Gastronómico","category":"gastronomia","lat":38.95424821612487,"lng":127.89651519524453,"avgVisitMinutes":35,"estimatedCostEur":17,"score":3.717546676998398},{"id":"tongchon-up_1928","citySlug":"tongchon-up","name":"Vista Alta de T’ongch’ŏn-ŭp","category":"mirador","lat":38.94615844998815,"lng":127.89457638632744,"avgVisitMinutes":64,"estimatedCostEur":0,"score":1.1984470514427346},{"id":"tongchon-up_3869","citySlug":"tongchon-up","name":"Playa Norte","category":"playa","lat":38.95905837977102,"lng":127.89484375658917,"avgVisitMinutes":59,"estimatedCostEur":12,"score":0.9502771952337195},{"id":"tongchon-up_2078","citySlug":"tongchon-up","name":"Playa Sur","category":"playa","lat":38.94535451967283,"lng":127.89998249240365,"avgVisitMinutes":38,"estimatedCostEur":1,"score":1.2383091435539781},{"id":"tongchon-up_7530","citySlug":"tongchon-up","name":"Centro de Arte de T’ongch’ŏn-ŭp","category":"cultura","lat":38.94428410551903,"lng":127.8849268660168,"avgVisitMinutes":36,"estimatedCostEur":21,"score":4.16188750569623},{"id":"tongchon-up_9267","citySlug":"tongchon-up","name":"Ruta de Tapas","category":"gastronomia","lat":38.96017325418498,"lng":127.89471430816641,"avgVisitMinutes":45,"estimatedCostEur":22,"score":0.6969988073515027},{"id":"tongchon-up_4775","citySlug":"tongchon-up","name":"Zona Comercial","category":"ocio","lat":38.958394140817525,"lng":127.90081472627098,"avgVisitMinutes":63,"estimatedCostEur":3,"score":0.6806905072460903},{"id":"tokchon_1825","citySlug":"tokchon","name":"Mercado Gastronómico","category":"gastronomia","lat":39.76217718599354,"lng":126.26745779306957,"avgVisitMinutes":84,"estimatedCostEur":21,"score":1.7044596974030195},{"id":"tokchon_6936","citySlug":"tokchon","name":"Parque Central","category":"ocio","lat":39.7585809117985,"lng":126.26770882901354,"avgVisitMinutes":67,"estimatedCostEur":22,"score":4.165259461814257},{"id":"tokchon_5876","citySlug":"tokchon","name":"Iglesia de Tŏkch’ŏn","category":"historia","lat":39.75641047858599,"lng":126.25644329568652,"avgVisitMinutes":27,"estimatedCostEur":12,"score":4.700229885066891},{"id":"tokchon_4824","citySlug":"tokchon","name":"Mirador de Tŏkch’ŏn","category":"mirador","lat":39.75686906015463,"lng":126.25890301531936,"avgVisitMinutes":49,"estimatedCostEur":16,"score":0.8222627177825759},{"id":"tokchon_7522","citySlug":"tokchon","name":"Parque Central","category":"ocio","lat":39.757122166609285,"lng":126.2601395813271,"avgVisitMinutes":34,"estimatedCostEur":16,"score":4.819041298236351},{"id":"taetan-up_2154","citySlug":"taetan-up","name":"Teatro Municipal","category":"cultura","lat":38.0832708352106,"lng":125.30195463117408,"avgVisitMinutes":67,"estimatedCostEur":18,"score":1.106957929885917},{"id":"taetan-up_5623","citySlug":"taetan-up","name":"Playa Norte","category":"playa","lat":38.08827079293475,"lng":125.29265901233788,"avgVisitMinutes":78,"estimatedCostEur":19,"score":1.6054213382257019},{"id":"taetan-up_8767","citySlug":"taetan-up","name":"Galería de Arte","category":"cultura","lat":38.08050495514005,"lng":125.3040356746723,"avgVisitMinutes":88,"estimatedCostEur":23,"score":0.8677068161469093},{"id":"taetan-up_3882","citySlug":"taetan-up","name":"Museo Cultural de T’aet’an-ŭp","category":"cultura","lat":38.09552487770708,"lng":125.28868670661528,"avgVisitMinutes":74,"estimatedCostEur":2,"score":3.875516412632254},{"id":"taetan-up_6844","citySlug":"taetan-up","name":"Restaurante Típico de T’aet’an-ŭp","category":"gastronomia","lat":38.08783072344225,"lng":125.29171270622167,"avgVisitMinutes":80,"estimatedCostEur":3,"score":1.8044379808645352},{"id":"sungho-1-tong_5980","citySlug":"sungho-1-tong","name":"Restaurante Típico de Sŭngho 1-tong","category":"gastronomia","lat":38.99285768930312,"lng":125.9726970452087,"avgVisitMinutes":26,"estimatedCostEur":1,"score":0.8887309049866219},{"id":"sungho-1-tong_7764","citySlug":"sungho-1-tong","name":"Zona Comercial","category":"ocio","lat":38.99388987243624,"lng":125.96820453399636,"avgVisitMinutes":20,"estimatedCostEur":22,"score":4.481285197297693},{"id":"sungho-1-tong_9532","citySlug":"sungho-1-tong","name":"Zona Comercial","category":"ocio","lat":38.99805890688327,"lng":125.97257846620691,"avgVisitMinutes":58,"estimatedCostEur":20,"score":2.89051766692832},{"id":"sungho-1-tong_9699","citySlug":"sungho-1-tong","name":"Playa Sur","category":"playa","lat":38.98194181307482,"lng":125.97093141683304,"avgVisitMinutes":69,"estimatedCostEur":15,"score":1.561600751808914},{"id":"sungho-1-tong_8901","citySlug":"sungho-1-tong","name":"Restaurante Típico de Sŭngho 1-tong","category":"gastronomia","lat":38.98594158542171,"lng":125.96916334602962,"avgVisitMinutes":46,"estimatedCostEur":4,"score":3.880090915046444},{"id":"sungho-1-tong_3570","citySlug":"sungho-1-tong","name":"Teatro Municipal","category":"cultura","lat":38.98491566296124,"lng":125.96899664606947,"avgVisitMinutes":87,"estimatedCostEur":21,"score":2.3762794756211765},{"id":"sungho-1-tong_5572","citySlug":"sungho-1-tong","name":"Galería de Arte","category":"cultura","lat":38.9889958503953,"lng":125.96785683044348,"avgVisitMinutes":33,"estimatedCostEur":11,"score":1.7158956682543793},{"id":"sunan_2139","citySlug":"sunan","name":"Punto Panorámico","category":"mirador","lat":39.19332021394031,"lng":125.6858255431153,"avgVisitMinutes":70,"estimatedCostEur":17,"score":2.3094893866375106},{"id":"sunan_6363","citySlug":"sunan","name":"Centro Histórico","category":"historia","lat":39.195942790972765,"lng":125.68463831026335,"avgVisitMinutes":87,"estimatedCostEur":16,"score":2.900353330479251},{"id":"sunan_7756","citySlug":"sunan","name":"Restaurante Típico de Sunan","category":"gastronomia","lat":39.20973352526992,"lng":125.69228875657585,"avgVisitMinutes":54,"estimatedCostEur":3,"score":2.705816768302876},{"id":"sunan_2277","citySlug":"sunan","name":"Playa Sur","category":"playa","lat":39.19881923017834,"lng":125.68376106595099,"avgVisitMinutes":26,"estimatedCostEur":18,"score":0.5753581693121843},{"id":"sunan_5940","citySlug":"sunan","name":"Mirador de Sunan","category":"mirador","lat":39.20736978570385,"lng":125.68623273644208,"avgVisitMinutes":21,"estimatedCostEur":14,"score":4.562486891444399},{"id":"sunan_5479","citySlug":"sunan","name":"Murallas de Sunan","category":"historia","lat":39.19527573630903,"lng":125.6914717237506,"avgVisitMinutes":55,"estimatedCostEur":3,"score":4.308602719836863},{"id":"sunan_8704","citySlug":"sunan","name":"Vista Alta de Sunan","category":"mirador","lat":39.20854017390763,"lng":125.69983095171993,"avgVisitMinutes":75,"estimatedCostEur":7,"score":3.250354558406989},{"id":"sunan_5676","citySlug":"sunan","name":"Punto Panorámico","category":"mirador","lat":39.213181378190484,"lng":125.69169337035594,"avgVisitMinutes":75,"estimatedCostEur":25,"score":3.056809117820986},{"id":"sunan_5501","citySlug":"sunan","name":"Playa Sur","category":"playa","lat":39.199784559210066,"lng":125.69208718904237,"avgVisitMinutes":86,"estimatedCostEur":23,"score":0.9129055794439844},{"id":"sunan_4146","citySlug":"sunan","name":"Castillo de Sunan","category":"historia","lat":39.20451703055719,"lng":125.68354799120026,"avgVisitMinutes":69,"estimatedCostEur":10,"score":2.0683823204592766},{"id":"sunan_2608","citySlug":"sunan","name":"Mirador de Sunan","category":"mirador","lat":39.20839842806486,"lng":125.69242307016924,"avgVisitMinutes":64,"estimatedCostEur":4,"score":3.2837734143958235},{"id":"songnim-ni_3015","citySlug":"songnim-ni","name":"Playa Sur","category":"playa","lat":38.75649588077164,"lng":125.63446698851087,"avgVisitMinutes":64,"estimatedCostEur":5,"score":2.3875153886942346},{"id":"songnim-ni_2903","citySlug":"songnim-ni","name":"Mirador de Songnim-ni","category":"mirador","lat":38.75499181620223,"lng":125.64006208143117,"avgVisitMinutes":44,"estimatedCostEur":10,"score":4.487478683917692},{"id":"songnim-ni_6490","citySlug":"songnim-ni","name":"Galería de Arte","category":"cultura","lat":38.75821303329222,"lng":125.63798834295692,"avgVisitMinutes":39,"estimatedCostEur":21,"score":4.858524862132506},{"id":"songnim-ni_1755","citySlug":"songnim-ni","name":"Paseo Principal","category":"ocio","lat":38.755248901430754,"lng":125.6317914315792,"avgVisitMinutes":49,"estimatedCostEur":10,"score":1.1313179404366738},{"id":"songnim-ni_1582","citySlug":"songnim-ni","name":"Playa Central","category":"playa","lat":38.76221026060064,"lng":125.63451704463333,"avgVisitMinutes":85,"estimatedCostEur":16,"score":2.321477951855988},{"id":"songnim-ni_1459","citySlug":"songnim-ni","name":"Paseo Principal","category":"ocio","lat":38.770287521197154,"lng":125.64546578003771,"avgVisitMinutes":42,"estimatedCostEur":19,"score":0.9732144211906566},{"id":"songnim-ni_5153","citySlug":"songnim-ni","name":"Playa Sur","category":"playa","lat":38.77276872321809,"lng":125.6337261367566,"avgVisitMinutes":22,"estimatedCostEur":5,"score":1.7351474053351967},{"id":"songnim-ni_1660","citySlug":"songnim-ni","name":"Galería de Arte","category":"cultura","lat":38.765024655536514,"lng":125.63434230586704,"avgVisitMinutes":85,"estimatedCostEur":15,"score":4.64945860369463},{"id":"songnim-ni_5816","citySlug":"songnim-ni","name":"Restaurante Típico de Songnim-ni","category":"gastronomia","lat":38.761582992044346,"lng":125.63416012336815,"avgVisitMinutes":61,"estimatedCostEur":20,"score":1.5014739836528253},{"id":"songhwa_1716","citySlug":"songhwa","name":"Vista Alta de Songhwa","category":"mirador","lat":38.36986159753831,"lng":125.14484678152373,"avgVisitMinutes":23,"estimatedCostEur":10,"score":1.5350567371419341},{"id":"songhwa_7495","citySlug":"songhwa","name":"Parque Central","category":"ocio","lat":38.36860713334166,"lng":125.12831920757418,"avgVisitMinutes":86,"estimatedCostEur":9,"score":2.6462119272987215},{"id":"songhwa_1312","citySlug":"songhwa","name":"Mirador de Songhwa","category":"mirador","lat":38.36644151146962,"lng":125.12881672711788,"avgVisitMinutes":56,"estimatedCostEur":19,"score":2.123591439248884},{"id":"songhwa_8464","citySlug":"songhwa","name":"Restaurante Típico de Songhwa","category":"gastronomia","lat":38.36218343533979,"lng":125.13307846110453,"avgVisitMinutes":77,"estimatedCostEur":20,"score":4.785556136031801},{"id":"songhwa_4393","citySlug":"songhwa","name":"Mercado Gastronómico","category":"gastronomia","lat":38.36739139816008,"lng":125.12788887753753,"avgVisitMinutes":87,"estimatedCostEur":6,"score":2.916275059498134},{"id":"songhwa_8453","citySlug":"songhwa","name":"Galería de Arte","category":"cultura","lat":38.36084410726492,"lng":125.1362931479991,"avgVisitMinutes":81,"estimatedCostEur":2,"score":1.8649062233462497},{"id":"songhwa_7941","citySlug":"songhwa","name":"Paseo Principal","category":"ocio","lat":38.35101381400325,"lng":125.14465165120896,"avgVisitMinutes":89,"estimatedCostEur":17,"score":1.823500746463263},{"id":"songhwa_6494","citySlug":"songhwa","name":"Zona Comercial","category":"ocio","lat":38.368661761734266,"lng":125.12906157070353,"avgVisitMinutes":62,"estimatedCostEur":13,"score":2.7133010323923434},{"id":"songhwa_4299","citySlug":"songhwa","name":"Mirador de Songhwa","category":"mirador","lat":38.35148420090533,"lng":125.14094109726464,"avgVisitMinutes":57,"estimatedCostEur":23,"score":4.067391731578681},{"id":"songhwa_7645","citySlug":"songhwa","name":"Playa Central","category":"playa","lat":38.36483874513704,"lng":125.12933233454046,"avgVisitMinutes":32,"estimatedCostEur":15,"score":4.892317013160225},{"id":"sinwon-up_9695","citySlug":"sinwon-up","name":"Zona Comercial","category":"ocio","lat":38.241294519451486,"lng":125.77158440652599,"avgVisitMinutes":80,"estimatedCostEur":1,"score":0.7996873362102941},{"id":"sinwon-up_8428","citySlug":"sinwon-up","name":"Vista Alta de Sinwŏn-ŭp","category":"mirador","lat":38.235332112858565,"lng":125.769909400518,"avgVisitMinutes":44,"estimatedCostEur":12,"score":1.634347929637392},{"id":"sinwon-up_3908","citySlug":"sinwon-up","name":"Murallas de Sinwŏn-ŭp","category":"historia","lat":38.235980498682224,"lng":125.76186627548475,"avgVisitMinutes":20,"estimatedCostEur":16,"score":1.0915366426326227},{"id":"sinwon-up_3933","citySlug":"sinwon-up","name":"Parque Central","category":"ocio","lat":38.24003401024328,"lng":125.77005723502481,"avgVisitMinutes":57,"estimatedCostEur":6,"score":3.0190818202259373},{"id":"sinwon-up_3005","citySlug":"sinwon-up","name":"Centro Histórico","category":"historia","lat":38.23489313876005,"lng":125.77042147766188,"avgVisitMinutes":58,"estimatedCostEur":9,"score":2.731274685247618},{"id":"sinwon-up_2552","citySlug":"sinwon-up","name":"Ruta de Tapas","category":"gastronomia","lat":38.23889320355667,"lng":125.75281919009821,"avgVisitMinutes":47,"estimatedCostEur":8,"score":3.9533636077114065},{"id":"sil-li_6581","citySlug":"sil-li","name":"Murallas de Sil-li","category":"historia","lat":39.48907457548186,"lng":125.46723580095403,"avgVisitMinutes":55,"estimatedCostEur":17,"score":2.247970835730923},{"id":"sil-li_4840","citySlug":"sil-li","name":"Playa Sur","category":"playa","lat":39.49510266534448,"lng":125.46751069315117,"avgVisitMinutes":31,"estimatedCostEur":22,"score":3.68696113948836},{"id":"sil-li_5399","citySlug":"sil-li","name":"Ruta de Tapas","category":"gastronomia","lat":39.494723510739476,"lng":125.46640455199062,"avgVisitMinutes":69,"estimatedCostEur":23,"score":2.3004596235886905},{"id":"sil-li_6151","citySlug":"sil-li","name":"Ruta de Tapas","category":"gastronomia","lat":39.49245653183382,"lng":125.47129447292049,"avgVisitMinutes":23,"estimatedCostEur":7,"score":1.4754950332309302},{"id":"sil-li_8197","citySlug":"sil-li","name":"Museo Cultural de Sil-li","category":"cultura","lat":39.48529834253471,"lng":125.47436923960709,"avgVisitMinutes":79,"estimatedCostEur":12,"score":1.6528914785542694},{"id":"sinmak_5364","citySlug":"sinmak","name":"Centro Histórico","category":"historia","lat":38.417751201732116,"lng":126.23619526483235,"avgVisitMinutes":66,"estimatedCostEur":15,"score":0.8338755248684258},{"id":"sinmak_9793","citySlug":"sinmak","name":"Paseo Principal","category":"ocio","lat":38.422501382516415,"lng":126.2235997249957,"avgVisitMinutes":89,"estimatedCostEur":11,"score":1.482536056462244},{"id":"sinmak_2685","citySlug":"sinmak","name":"Playa Sur","category":"playa","lat":38.419677108533776,"lng":126.23809654984927,"avgVisitMinutes":42,"estimatedCostEur":8,"score":2.2514307840369243},{"id":"sinmak_2301","citySlug":"sinmak","name":"Iglesia de Sinmak","category":"historia","lat":38.408577092782025,"lng":126.23807828668295,"avgVisitMinutes":80,"estimatedCostEur":15,"score":3.9596723378368472},{"id":"sinmak_3404","citySlug":"sinmak","name":"Vista Alta de Sinmak","category":"mirador","lat":38.420194574240504,"lng":126.2342629897025,"avgVisitMinutes":61,"estimatedCostEur":18,"score":1.195258217124164},{"id":"sinmak_8421","citySlug":"sinmak","name":"Centro de Arte de Sinmak","category":"cultura","lat":38.420578934574415,"lng":126.23635109063868,"avgVisitMinutes":82,"estimatedCostEur":11,"score":4.635199322776237},{"id":"sinmak_3984","citySlug":"sinmak","name":"Paseo Principal","category":"ocio","lat":38.42560933869911,"lng":126.22632851591555,"avgVisitMinutes":30,"estimatedCostEur":22,"score":4.738730335475696},{"id":"sinmak_3346","citySlug":"sinmak","name":"Museo Cultural de Sinmak","category":"cultura","lat":38.41667554871059,"lng":126.23586226527244,"avgVisitMinutes":84,"estimatedCostEur":9,"score":1.7529628019759806},{"id":"sinmak_5360","citySlug":"sinmak","name":"Centro de Arte de Sinmak","category":"cultura","lat":38.42388454776551,"lng":126.24168890545123,"avgVisitMinutes":66,"estimatedCostEur":14,"score":4.015592174686478},{"id":"sindo_2508","citySlug":"sindo","name":"Restaurante Típico de Sindo","category":"gastronomia","lat":39.7988995281305,"lng":124.23167011525639,"avgVisitMinutes":80,"estimatedCostEur":22,"score":1.4494013141570743},{"id":"sindo_6392","citySlug":"sindo","name":"Playa Sur","category":"playa","lat":39.80946911678104,"lng":124.24246103639665,"avgVisitMinutes":26,"estimatedCostEur":15,"score":3.4971550871372608},{"id":"sindo_5122","citySlug":"sindo","name":"Punto Panorámico","category":"mirador","lat":39.81538121647285,"lng":124.23514108153589,"avgVisitMinutes":71,"estimatedCostEur":21,"score":3.154216586502799},{"id":"sindo_3623","citySlug":"sindo","name":"Playa Sur","category":"playa","lat":39.812908008326076,"lng":124.23517827312942,"avgVisitMinutes":69,"estimatedCostEur":9,"score":1.2502206571690295},{"id":"sindo_3349","citySlug":"sindo","name":"Playa Norte","category":"playa","lat":39.81598397376306,"lng":124.2323752320946,"avgVisitMinutes":41,"estimatedCostEur":18,"score":4.860345476951815},{"id":"sindo_8024","citySlug":"sindo","name":"Playa Central","category":"playa","lat":39.80400015946688,"lng":124.24017352365,"avgVisitMinutes":24,"estimatedCostEur":13,"score":3.6817696629255052},{"id":"sindo_4170","citySlug":"sindo","name":"Centro Histórico","category":"historia","lat":39.809911305664116,"lng":124.23874366664705,"avgVisitMinutes":76,"estimatedCostEur":4,"score":4.452078128441564},{"id":"sinchon-up_5728","citySlug":"sinchon-up","name":"Playa Central","category":"playa","lat":38.360901530597346,"lng":125.4848580620852,"avgVisitMinutes":20,"estimatedCostEur":6,"score":1.1810443432853621},{"id":"sinchon-up_6352","citySlug":"sinchon-up","name":"Mercado Gastronómico","category":"gastronomia","lat":38.34562595854617,"lng":125.47447514304056,"avgVisitMinutes":78,"estimatedCostEur":0,"score":4.998272685980813},{"id":"sinchon-up_8858","citySlug":"sinchon-up","name":"Playa Central","category":"playa","lat":38.3483148241541,"lng":125.48439900323059,"avgVisitMinutes":39,"estimatedCostEur":10,"score":1.1684154364395924},{"id":"sinchon-up_8691","citySlug":"sinchon-up","name":"Mercado Gastronómico","category":"gastronomia","lat":38.34705044814405,"lng":125.48740925410458,"avgVisitMinutes":48,"estimatedCostEur":5,"score":3.135218165645152},{"id":"sinchon-up_5679","citySlug":"sinchon-up","name":"Mercado Gastronómico","category":"gastronomia","lat":38.34694230058573,"lng":125.49069713998435,"avgVisitMinutes":25,"estimatedCostEur":16,"score":2.564814691144102},{"id":"sinchon-up_5298","citySlug":"sinchon-up","name":"Mirador de Sinch’ŏn-ŭp","category":"mirador","lat":38.35887535943771,"lng":125.48015442629274,"avgVisitMinutes":81,"estimatedCostEur":16,"score":1.9536007746756805},{"id":"sinchon-up_7900","citySlug":"sinchon-up","name":"Playa Norte","category":"playa","lat":38.35751017603816,"lng":125.4884330850213,"avgVisitMinutes":23,"estimatedCostEur":0,"score":1.4534538751122048},{"id":"sinchon-up_1948","citySlug":"sinchon-up","name":"Playa Central","category":"playa","lat":38.352668972434174,"lng":125.48587822505203,"avgVisitMinutes":80,"estimatedCostEur":10,"score":2.673779832122591},{"id":"sinanju_6919","citySlug":"sinanju","name":"Castillo de Sinanju","category":"historia","lat":39.604965367906935,"lng":125.61208699370549,"avgVisitMinutes":82,"estimatedCostEur":9,"score":3.0056016569294486},{"id":"sinanju_9458","citySlug":"sinanju","name":"Galería de Arte","category":"cultura","lat":39.605317078408476,"lng":125.61307728608192,"avgVisitMinutes":47,"estimatedCostEur":17,"score":2.71214223081492},{"id":"sinanju_8119","citySlug":"sinanju","name":"Playa Norte","category":"playa","lat":39.60615752226005,"lng":125.6184109868934,"avgVisitMinutes":63,"estimatedCostEur":10,"score":4.2372242974252545},{"id":"sinanju_5927","citySlug":"sinanju","name":"Mercado Gastronómico","category":"gastronomia","lat":39.59236741268195,"lng":125.61477600426929,"avgVisitMinutes":29,"estimatedCostEur":25,"score":3.736989433661532},{"id":"sinanju_1076","citySlug":"sinanju","name":"Parque Central","category":"ocio","lat":39.590695707711355,"lng":125.608691803485,"avgVisitMinutes":87,"estimatedCostEur":23,"score":2.23342069555049},{"id":"sinanju_6796","citySlug":"sinanju","name":"Parque Central","category":"ocio","lat":39.59911483393348,"lng":125.60795786678248,"avgVisitMinutes":54,"estimatedCostEur":25,"score":1.4185380986534102},{"id":"sariwon-si_1924","citySlug":"sariwon-si","name":"Mirador de Sariwŏn-si","category":"mirador","lat":38.50722090430677,"lng":125.75012518169494,"avgVisitMinutes":47,"estimatedCostEur":1,"score":1.4873645267704745},{"id":"sariwon-si_9299","citySlug":"sariwon-si","name":"Iglesia de Sariwŏn-si","category":"historia","lat":38.507798221605434,"lng":125.75860255625804,"avgVisitMinutes":71,"estimatedCostEur":19,"score":1.0982088055447818},{"id":"sariwon-si_1424","citySlug":"sariwon-si","name":"Zona Comercial","category":"ocio","lat":38.50893979556501,"lng":125.74721372584317,"avgVisitMinutes":73,"estimatedCostEur":16,"score":3.482890230855579},{"id":"sariwon-si_3189","citySlug":"sariwon-si","name":"Museo Cultural de Sariwŏn-si","category":"cultura","lat":38.5064887507674,"lng":125.76545654530646,"avgVisitMinutes":74,"estimatedCostEur":0,"score":2.968777541912029},{"id":"sariwon-si_8862","citySlug":"sariwon-si","name":"Mercado Gastronómico","category":"gastronomia","lat":38.49775242376795,"lng":125.74795278832995,"avgVisitMinutes":87,"estimatedCostEur":9,"score":3.093792342724985},{"id":"sariwon-si_3476","citySlug":"sariwon-si","name":"Mercado Gastronómico","category":"gastronomia","lat":38.502950512009484,"lng":125.75105246065212,"avgVisitMinutes":47,"estimatedCostEur":6,"score":0.8491297082328046},{"id":"sangsong-ni_3963","citySlug":"sangsong-ni","name":"Galería de Arte","category":"cultura","lat":39.17923593636647,"lng":126.88539084367541,"avgVisitMinutes":33,"estimatedCostEur":3,"score":4.419090253365631},{"id":"sangsong-ni_5692","citySlug":"sangsong-ni","name":"Restaurante Típico de Sangsŏng-ni","category":"gastronomia","lat":39.16907553380369,"lng":126.88601718621449,"avgVisitMinutes":84,"estimatedCostEur":21,"score":3.3464380344148226},{"id":"sangsong-ni_7313","citySlug":"sangsong-ni","name":"Galería de Arte","category":"cultura","lat":39.17401078409578,"lng":126.87796583705341,"avgVisitMinutes":33,"estimatedCostEur":16,"score":2.8303648420833856},{"id":"sangsong-ni_9475","citySlug":"sangsong-ni","name":"Zona Comercial","category":"ocio","lat":39.16267770705851,"lng":126.87872967528925,"avgVisitMinutes":38,"estimatedCostEur":4,"score":0.5960529521503215},{"id":"sangsong-ni_4530","citySlug":"sangsong-ni","name":"Ruta de Tapas","category":"gastronomia","lat":39.16152862358939,"lng":126.89490414816088,"avgVisitMinutes":21,"estimatedCostEur":22,"score":0.8057598282279361},{"id":"sangsong-ni_6800","citySlug":"sangsong-ni","name":"Playa Sur","category":"playa","lat":39.16843162823548,"lng":126.88196902073201,"avgVisitMinutes":35,"estimatedCostEur":22,"score":1.9123602950224046},{"id":"samho-rodongjagu_5324","citySlug":"samho-rodongjagu","name":"Galería de Arte","category":"cultura","lat":39.95002233206475,"lng":127.87179966955486,"avgVisitMinutes":63,"estimatedCostEur":21,"score":2.439156539003936},{"id":"samho-rodongjagu_2395","citySlug":"samho-rodongjagu","name":"Zona Comercial","category":"ocio","lat":39.94599718799245,"lng":127.87943811628953,"avgVisitMinutes":22,"estimatedCostEur":14,"score":0.9583665540054915},{"id":"samho-rodongjagu_9875","citySlug":"samho-rodongjagu","name":"Restaurante Típico de Samho-rodongjagu","category":"gastronomia","lat":39.95004029662479,"lng":127.8808676239645,"avgVisitMinutes":61,"estimatedCostEur":6,"score":4.435914913745664},{"id":"samho-rodongjagu_5279","citySlug":"samho-rodongjagu","name":"Punto Panorámico","category":"mirador","lat":39.94033238014426,"lng":127.87811556577611,"avgVisitMinutes":69,"estimatedCostEur":14,"score":4.256534705275062},{"id":"samho-rodongjagu_4027","citySlug":"samho-rodongjagu","name":"Playa Sur","category":"playa","lat":39.94769820699164,"lng":127.86871513441578,"avgVisitMinutes":53,"estimatedCostEur":15,"score":3.09689513814191},{"id":"samho-rodongjagu_5524","citySlug":"samho-rodongjagu","name":"Vista Alta de Samho-rodongjagu","category":"mirador","lat":39.943947120313425,"lng":127.86297025482389,"avgVisitMinutes":45,"estimatedCostEur":6,"score":4.1441027819183365},{"id":"samho-rodongjagu_3236","citySlug":"samho-rodongjagu","name":"Playa Sur","category":"playa","lat":39.95498979142194,"lng":127.86663162572025,"avgVisitMinutes":24,"estimatedCostEur":13,"score":3.176857601991528},{"id":"samho-rodongjagu_8449","citySlug":"samho-rodongjagu","name":"Centro de Arte de Samho-rodongjagu","category":"cultura","lat":39.94265275583309,"lng":127.87671902920584,"avgVisitMinutes":29,"estimatedCostEur":8,"score":4.370961059965411},{"id":"samho-rodongjagu_1580","citySlug":"samho-rodongjagu","name":"Zona Comercial","category":"ocio","lat":39.952163101226404,"lng":127.86523971152016,"avgVisitMinutes":85,"estimatedCostEur":20,"score":4.540198182558308},{"id":"samchon_5275","citySlug":"samchon","name":"Punto Panorámico","category":"mirador","lat":38.35954022457752,"lng":125.32552727559153,"avgVisitMinutes":23,"estimatedCostEur":6,"score":2.5483752197917258},{"id":"samchon_7195","citySlug":"samchon","name":"Galería de Arte","category":"cultura","lat":38.366492553336975,"lng":125.31807210067754,"avgVisitMinutes":61,"estimatedCostEur":10,"score":3.8058963582929164},{"id":"samchon_2401","citySlug":"samchon","name":"Ruta de Tapas","category":"gastronomia","lat":38.35383435210892,"lng":125.3271894716917,"avgVisitMinutes":71,"estimatedCostEur":15,"score":4.734619864751005},{"id":"samchon_2051","citySlug":"samchon","name":"Restaurante Típico de Samch’ŏn","category":"gastronomia","lat":38.350752687895714,"lng":125.31789663400173,"avgVisitMinutes":70,"estimatedCostEur":24,"score":2.0329378081005642},{"id":"samchon_3502","citySlug":"samchon","name":"Centro de Arte de Samch’ŏn","category":"cultura","lat":38.36141768603124,"lng":125.33067632408238,"avgVisitMinutes":45,"estimatedCostEur":21,"score":1.3849046534758234},{"id":"samchon_9018","citySlug":"samchon","name":"Zona Comercial","category":"ocio","lat":38.36725306565417,"lng":125.33578343925737,"avgVisitMinutes":74,"estimatedCostEur":16,"score":4.287236024903356},{"id":"samchon_2349","citySlug":"samchon","name":"Castillo de Samch’ŏn","category":"historia","lat":38.36557837536938,"lng":125.31721005996909,"avgVisitMinutes":28,"estimatedCostEur":6,"score":4.11232822074002},{"id":"samchon_8526","citySlug":"samchon","name":"Mercado Gastronómico","category":"gastronomia","lat":38.350815675293354,"lng":125.32691994976435,"avgVisitMinutes":25,"estimatedCostEur":7,"score":4.4210319855622675},{"id":"samchon_4030","citySlug":"samchon","name":"Museo Local de Samch’ŏn","category":"historia","lat":38.35044903459923,"lng":125.32136726161337,"avgVisitMinutes":29,"estimatedCostEur":0,"score":4.139752072071239},{"id":"samchon_7696","citySlug":"samchon","name":"Mirador de Samch’ŏn","category":"mirador","lat":38.366592186122716,"lng":125.33546124050959,"avgVisitMinutes":59,"estimatedCostEur":0,"score":4.4168908112800676},{"id":"pyongyang_4561","citySlug":"pyongyang","name":"Mercado Gastronómico","category":"gastronomia","lat":39.03511277593497,"lng":125.75865883627905,"avgVisitMinutes":57,"estimatedCostEur":6,"score":4.099316673127932},{"id":"pyongyang_6387","citySlug":"pyongyang","name":"Mirador de Pyongyang","category":"mirador","lat":39.02394568380852,"lng":125.7447113489106,"avgVisitMinutes":89,"estimatedCostEur":19,"score":2.9077765440997605},{"id":"pyongyang_7435","citySlug":"pyongyang","name":"Castillo de Pyongyang","category":"historia","lat":39.03381720059184,"lng":125.76419044895002,"avgVisitMinutes":33,"estimatedCostEur":12,"score":4.065799723850887},{"id":"pyongyang_6003","citySlug":"pyongyang","name":"Castillo de Pyongyang","category":"historia","lat":39.027567367055724,"lng":125.76218652290065,"avgVisitMinutes":48,"estimatedCostEur":15,"score":2.131277970176715},{"id":"pyongyang_3863","citySlug":"pyongyang","name":"Centro Histórico","category":"historia","lat":39.042367923656336,"lng":125.75177048924358,"avgVisitMinutes":29,"estimatedCostEur":0,"score":1.5879378354137592},{"id":"pyongyang_4822","citySlug":"pyongyang","name":"Murallas de Pyongyang","category":"historia","lat":39.04269751414943,"lng":125.76321690796549,"avgVisitMinutes":28,"estimatedCostEur":7,"score":2.1949263345449204},{"id":"pyongyang_6094","citySlug":"pyongyang","name":"Ruta de Tapas","category":"gastronomia","lat":39.04091662050863,"lng":125.74473876937445,"avgVisitMinutes":75,"estimatedCostEur":16,"score":4.3760005185144175},{"id":"pyongyang_3699","citySlug":"pyongyang","name":"Ruta de Tapas","category":"gastronomia","lat":39.033549415126096,"lng":125.75154104118734,"avgVisitMinutes":57,"estimatedCostEur":8,"score":2.27222738312192},{"id":"pyongyang_6561","citySlug":"pyongyang","name":"Galería de Arte","category":"cultura","lat":39.04324026357328,"lng":125.75410315064084,"avgVisitMinutes":72,"estimatedCostEur":6,"score":4.1876086159258215},{"id":"pyongyang_9921","citySlug":"pyongyang","name":"Iglesia de Pyongyang","category":"historia","lat":39.025040428535746,"lng":125.75345961521546,"avgVisitMinutes":48,"estimatedCostEur":19,"score":4.476249491774247},{"id":"pyongyang_1557","citySlug":"pyongyang","name":"Punto Panorámico","category":"mirador","lat":39.03699930614613,"lng":125.75025778049626,"avgVisitMinutes":85,"estimatedCostEur":14,"score":2.1275262858744126},{"id":"pyongsong_6725","citySlug":"pyongsong","name":"Mercado Gastronómico","category":"gastronomia","lat":39.25058861181224,"lng":125.86804865416929,"avgVisitMinutes":20,"estimatedCostEur":24,"score":4.48584354674089},{"id":"pyongsong_9183","citySlug":"pyongsong","name":"Mirador de P’yŏngsŏng","category":"mirador","lat":39.2475308658814,"lng":125.87034016380468,"avgVisitMinutes":22,"estimatedCostEur":22,"score":4.536667717961519},{"id":"pyongsong_5520","citySlug":"pyongsong","name":"Playa Sur","category":"playa","lat":39.24498663281722,"lng":125.86273824259337,"avgVisitMinutes":63,"estimatedCostEur":15,"score":0.7113877122577383},{"id":"pyongsong_8906","citySlug":"pyongsong","name":"Ruta de Tapas","category":"gastronomia","lat":39.242205080350125,"lng":125.87641142616498,"avgVisitMinutes":20,"estimatedCostEur":20,"score":3.8959552947363845},{"id":"pyongsong_1708","citySlug":"pyongsong","name":"Punto Panorámico","category":"mirador","lat":39.25349543688938,"lng":125.86441085554246,"avgVisitMinutes":77,"estimatedCostEur":15,"score":0.8760197312490314},{"id":"pyongsong_8168","citySlug":"pyongsong","name":"Museo Local de P’yŏngsŏng","category":"historia","lat":39.247421241867585,"lng":125.87721400963987,"avgVisitMinutes":87,"estimatedCostEur":19,"score":0.6395367686931858},{"id":"pyongsong_4820","citySlug":"pyongsong","name":"Galería de Arte","category":"cultura","lat":39.23930986885426,"lng":125.88079013240144,"avgVisitMinutes":31,"estimatedCostEur":18,"score":1.622488852741152},{"id":"pyongsong_8754","citySlug":"pyongsong","name":"Galería de Arte","category":"cultura","lat":39.256266375900005,"lng":125.87008735594344,"avgVisitMinutes":30,"estimatedCostEur":18,"score":2.955822440261817},{"id":"pyongsong_9056","citySlug":"pyongsong","name":"Mercado Gastronómico","category":"gastronomia","lat":39.24990916649314,"lng":125.88144871507042,"avgVisitMinutes":47,"estimatedCostEur":1,"score":1.7779663633311893},{"id":"pyongsong_3826","citySlug":"pyongsong","name":"Iglesia de P’yŏngsŏng","category":"historia","lat":39.24253330521907,"lng":125.87396713204596,"avgVisitMinutes":67,"estimatedCostEur":8,"score":0.9859055090241886},{"id":"pyongsong_1806","citySlug":"pyongsong","name":"Galería de Arte","category":"cultura","lat":39.246871576448996,"lng":125.86842997856897,"avgVisitMinutes":63,"estimatedCostEur":4,"score":4.18088965548089},{"id":"pongchon-up_1387","citySlug":"pongchon-up","name":"Murallas de Pongch’ŏn-ŭp","category":"historia","lat":38.11985425975735,"lng":126.20344083598913,"avgVisitMinutes":30,"estimatedCostEur":2,"score":4.60376500747999},{"id":"pongchon-up_6681","citySlug":"pongchon-up","name":"Ruta de Tapas","category":"gastronomia","lat":38.12263752139587,"lng":126.19870386352683,"avgVisitMinutes":38,"estimatedCostEur":19,"score":2.366607964535734},{"id":"pongchon-up_8344","citySlug":"pongchon-up","name":"Mirador de Pongch’ŏn-ŭp","category":"mirador","lat":38.125266800768344,"lng":126.19929671929582,"avgVisitMinutes":46,"estimatedCostEur":15,"score":2.6826078194234615},{"id":"pongchon-up_4600","citySlug":"pongchon-up","name":"Centro de Arte de Pongch’ŏn-ŭp","category":"cultura","lat":38.12082937235787,"lng":126.20241039929793,"avgVisitMinutes":86,"estimatedCostEur":20,"score":4.105764928576775},{"id":"pongchon-up_1013","citySlug":"pongchon-up","name":"Mirador de Pongch’ŏn-ŭp","category":"mirador","lat":38.12367117444654,"lng":126.20766301080837,"avgVisitMinutes":80,"estimatedCostEur":24,"score":4.999206463861011},{"id":"pongchon-up_3931","citySlug":"pongchon-up","name":"Centro Histórico","category":"historia","lat":38.118403073591104,"lng":126.20812496471856,"avgVisitMinutes":80,"estimatedCostEur":4,"score":2.0734377067828547},{"id":"pongchon-up_9218","citySlug":"pongchon-up","name":"Murallas de Pongch’ŏn-ŭp","category":"historia","lat":38.122622725903234,"lng":126.21326958981476,"avgVisitMinutes":65,"estimatedCostEur":22,"score":1.5998499479683197},{"id":"pongchon-up_4938","citySlug":"pongchon-up","name":"Museo Local de Pongch’ŏn-ŭp","category":"historia","lat":38.12784017678261,"lng":126.20155697245991,"avgVisitMinutes":84,"estimatedCostEur":18,"score":4.035150191288821},{"id":"pongchon-up_1860","citySlug":"pongchon-up","name":"Iglesia de Pongch’ŏn-ŭp","category":"historia","lat":38.11726159313225,"lng":126.20856645720693,"avgVisitMinutes":89,"estimatedCostEur":3,"score":3.0682795322823826},{"id":"pongchon-up_6798","citySlug":"pongchon-up","name":"Paseo Principal","category":"ocio","lat":38.118703351227964,"lng":126.20662091973534,"avgVisitMinutes":36,"estimatedCostEur":18,"score":1.3136184524638388},{"id":"pyoksong-up_6517","citySlug":"pyoksong-up","name":"Mercado Gastronómico","category":"gastronomia","lat":38.03872079298406,"lng":125.55268846249044,"avgVisitMinutes":89,"estimatedCostEur":0,"score":4.911200101129173},{"id":"pyoksong-up_6224","citySlug":"pyoksong-up","name":"Mercado Gastronómico","category":"gastronomia","lat":38.039949587736565,"lng":125.55025099701393,"avgVisitMinutes":24,"estimatedCostEur":23,"score":1.5072820203147166},{"id":"pyoksong-up_5756","citySlug":"pyoksong-up","name":"Restaurante Típico de Pyŏksŏng-ŭp","category":"gastronomia","lat":38.038112501531785,"lng":125.55494113894109,"avgVisitMinutes":74,"estimatedCostEur":11,"score":0.5424951979171053},{"id":"pyoksong-up_2007","citySlug":"pyoksong-up","name":"Vista Alta de Pyŏksŏng-ŭp","category":"mirador","lat":38.05476292285488,"lng":125.56395959135175,"avgVisitMinutes":87,"estimatedCostEur":11,"score":1.0468120040381956},{"id":"pyoksong-up_3885","citySlug":"pyoksong-up","name":"Centro Histórico","category":"historia","lat":38.0523147266837,"lng":125.5519652309832,"avgVisitMinutes":73,"estimatedCostEur":4,"score":0.5695324165975459},{"id":"pyoksong-up_4217","citySlug":"pyoksong-up","name":"Teatro Municipal","category":"cultura","lat":38.039588676439095,"lng":125.54934742542703,"avgVisitMinutes":85,"estimatedCostEur":2,"score":3.4177551136681346},{"id":"pyoksong-up_1525","citySlug":"pyoksong-up","name":"Paseo Principal","category":"ocio","lat":38.037987630021796,"lng":125.54804294698525,"avgVisitMinutes":74,"estimatedCostEur":25,"score":2.6161124930439223},{"id":"pyoksong-up_1378","citySlug":"pyoksong-up","name":"Zona Comercial","category":"ocio","lat":38.054866334013,"lng":125.5566477561564,"avgVisitMinutes":66,"estimatedCostEur":21,"score":2.233995636102021},{"id":"pyoksong-up_9849","citySlug":"pyoksong-up","name":"Centro de Arte de Pyŏksŏng-ŭp","category":"cultura","lat":38.05418939229867,"lng":125.5479386154989,"avgVisitMinutes":40,"estimatedCostEur":2,"score":4.066205757256391},{"id":"panghyon-dong_5738","citySlug":"panghyon-dong","name":"Parque Central","category":"ocio","lat":39.88471900288128,"lng":125.2485041820164,"avgVisitMinutes":39,"estimatedCostEur":22,"score":3.3272955186656166},{"id":"panghyon-dong_8036","citySlug":"panghyon-dong","name":"Playa Sur","category":"playa","lat":39.887376271383765,"lng":125.2481249977133,"avgVisitMinutes":86,"estimatedCostEur":23,"score":3.765827655883009},{"id":"panghyon-dong_2088","citySlug":"panghyon-dong","name":"Museo Cultural de Panghyŏn-dong","category":"cultura","lat":39.89400753708156,"lng":125.23427428036398,"avgVisitMinutes":66,"estimatedCostEur":1,"score":1.688516970949488},{"id":"panghyon-dong_3950","citySlug":"panghyon-dong","name":"Playa Central","category":"playa","lat":39.89275835783432,"lng":125.24928861392256,"avgVisitMinutes":89,"estimatedCostEur":24,"score":3.0519028956796164},{"id":"panghyon-dong_7591","citySlug":"panghyon-dong","name":"Galería de Arte","category":"cultura","lat":39.88565843163299,"lng":125.24334199369099,"avgVisitMinutes":65,"estimatedCostEur":20,"score":4.691781751315579},{"id":"panghyon-dong_9961","citySlug":"panghyon-dong","name":"Mercado Gastronómico","category":"gastronomia","lat":39.887843393936905,"lng":125.23854956077408,"avgVisitMinutes":39,"estimatedCostEur":25,"score":1.3920321535916167},{"id":"panghyon-dong_3421","citySlug":"panghyon-dong","name":"Restaurante Típico de Panghyŏn-dong","category":"gastronomia","lat":39.88888192568376,"lng":125.24304904109415,"avgVisitMinutes":61,"estimatedCostEur":11,"score":3.394048559628218},{"id":"panghyon-dong_1131","citySlug":"panghyon-dong","name":"Ruta de Tapas","category":"gastronomia","lat":39.88193988914276,"lng":125.24779107318554,"avgVisitMinutes":62,"estimatedCostEur":3,"score":3.7470761636793535},{"id":"panghyon-dong_1579","citySlug":"panghyon-dong","name":"Zona Comercial","category":"ocio","lat":39.88099040911092,"lng":125.24263590457213,"avgVisitMinutes":86,"estimatedCostEur":5,"score":4.922988991148916},{"id":"paechon-up_8115","citySlug":"paechon-up","name":"Punto Panorámico","category":"mirador","lat":38.000350242738136,"lng":126.3027451169235,"avgVisitMinutes":63,"estimatedCostEur":3,"score":4.410248510111321},{"id":"paechon-up_6711","citySlug":"paechon-up","name":"Zona Comercial","category":"ocio","lat":37.98879163120219,"lng":126.31005303189094,"avgVisitMinutes":80,"estimatedCostEur":9,"score":3.964354531222697},{"id":"paechon-up_8966","citySlug":"paechon-up","name":"Paseo Principal","category":"ocio","lat":37.996628973964754,"lng":126.30708221869205,"avgVisitMinutes":34,"estimatedCostEur":6,"score":4.6903317463929115},{"id":"paechon-up_5031","citySlug":"paechon-up","name":"Centro Histórico","category":"historia","lat":37.999453024671475,"lng":126.29221168117246,"avgVisitMinutes":57,"estimatedCostEur":24,"score":0.9784807981931997},{"id":"paechon-up_8005","citySlug":"paechon-up","name":"Museo Local de Paech’ŏn-ŭp","category":"historia","lat":37.995927293579584,"lng":126.30222037680895,"avgVisitMinutes":29,"estimatedCostEur":6,"score":2.213789102608372},{"id":"paechon-up_3354","citySlug":"paechon-up","name":"Vista Alta de Paech’ŏn-ŭp","category":"mirador","lat":38.000653358466785,"lng":126.30897909475424,"avgVisitMinutes":44,"estimatedCostEur":5,"score":1.7378165710856184},{"id":"paechon-up_5513","citySlug":"paechon-up","name":"Mercado Gastronómico","category":"gastronomia","lat":38.000873802630345,"lng":126.2933846210653,"avgVisitMinutes":38,"estimatedCostEur":11,"score":1.7853260647062963},{"id":"paechon-up_7644","citySlug":"paechon-up","name":"Castillo de Paech’ŏn-ŭp","category":"historia","lat":37.988215160237765,"lng":126.31098315389029,"avgVisitMinutes":60,"estimatedCostEur":16,"score":4.912790606735005},{"id":"paechon-up_3519","citySlug":"paechon-up","name":"Galería de Arte","category":"cultura","lat":37.989336787014345,"lng":126.30598329941373,"avgVisitMinutes":65,"estimatedCostEur":4,"score":3.6470639002564322},{"id":"paechon-up_1414","citySlug":"paechon-up","name":"Restaurante Típico de Paech’ŏn-ŭp","category":"gastronomia","lat":37.99149781941061,"lng":126.3112501774123,"avgVisitMinutes":78,"estimatedCostEur":13,"score":2.0854393985888975},{"id":"paechon-up_2714","citySlug":"paechon-up","name":"Mirador de Paech’ŏn-ŭp","category":"mirador","lat":37.99701987415824,"lng":126.29847391724223,"avgVisitMinutes":31,"estimatedCostEur":12,"score":3.2773028241558753},{"id":"paechon-up_8267","citySlug":"paechon-up","name":"Mercado Gastronómico","category":"gastronomia","lat":37.999901252139985,"lng":126.29825112944405,"avgVisitMinutes":44,"estimatedCostEur":12,"score":3.404379479923238},{"id":"ongjin_3375","citySlug":"ongjin","name":"Mercado Gastronómico","category":"gastronomia","lat":37.92668561327592,"lng":125.35547903802214,"avgVisitMinutes":47,"estimatedCostEur":13,"score":1.4576199933521008},{"id":"ongjin_4796","citySlug":"ongjin","name":"Museo Local de Ongjin","category":"historia","lat":37.93247513098733,"lng":125.36635857209313,"avgVisitMinutes":26,"estimatedCostEur":20,"score":4.578450512757203},{"id":"ongjin_8056","citySlug":"ongjin","name":"Galería de Arte","category":"cultura","lat":37.942374847139035,"lng":125.36626799759425,"avgVisitMinutes":73,"estimatedCostEur":20,"score":2.5094886339573095},{"id":"ongjin_9000","citySlug":"ongjin","name":"Playa Central","category":"playa","lat":37.933646658129526,"lng":125.35349615636669,"avgVisitMinutes":75,"estimatedCostEur":0,"score":3.6087782935642316},{"id":"ongjin_7355","citySlug":"ongjin","name":"Playa Central","category":"playa","lat":37.93806963298703,"lng":125.36227275419606,"avgVisitMinutes":82,"estimatedCostEur":4,"score":3.14425154268886},{"id":"ongjin_3132","citySlug":"ongjin","name":"Centro Histórico","category":"historia","lat":37.9260530844001,"lng":125.35589506817196,"avgVisitMinutes":25,"estimatedCostEur":19,"score":2.586051560996383},{"id":"ongjin_8824","citySlug":"ongjin","name":"Mercado Gastronómico","category":"gastronomia","lat":37.93751636286658,"lng":125.37079053895187,"avgVisitMinutes":53,"estimatedCostEur":18,"score":1.6710100957075067},{"id":"ongjin_4592","citySlug":"ongjin","name":"Murallas de Ongjin","category":"historia","lat":37.94364614257664,"lng":125.36104276587335,"avgVisitMinutes":42,"estimatedCostEur":9,"score":2.577022393776665},{"id":"ongjin_1116","citySlug":"ongjin","name":"Vista Alta de Ongjin","category":"mirador","lat":37.941705295517565,"lng":125.36747801470398,"avgVisitMinutes":61,"estimatedCostEur":12,"score":3.5912288240222363},{"id":"ongjin_2374","citySlug":"ongjin","name":"Zona Comercial","category":"ocio","lat":37.93870599701567,"lng":125.3680317018909,"avgVisitMinutes":20,"estimatedCostEur":9,"score":1.4634279813236486},{"id":"ongjin_4001","citySlug":"ongjin","name":"Ruta de Tapas","category":"gastronomia","lat":37.93110977491096,"lng":125.36720416007242,"avgVisitMinutes":36,"estimatedCostEur":6,"score":2.773731258615378},{"id":"nampo_9873","citySlug":"nampo","name":"Restaurante Típico de Namp’o","category":"gastronomia","lat":38.737283156815494,"lng":125.4137320047975,"avgVisitMinutes":81,"estimatedCostEur":25,"score":4.9002654264546806},{"id":"nampo_6711","citySlug":"nampo","name":"Vista Alta de Namp’o","category":"mirador","lat":38.74255125935843,"lng":125.41361962167713,"avgVisitMinutes":39,"estimatedCostEur":20,"score":0.9699212901435494},{"id":"nampo_7477","citySlug":"nampo","name":"Restaurante Típico de Namp’o","category":"gastronomia","lat":38.73915274372687,"lng":125.40717602760928,"avgVisitMinutes":85,"estimatedCostEur":16,"score":3.815904167415854},{"id":"nampo_5607","citySlug":"nampo","name":"Mercado Gastronómico","category":"gastronomia","lat":38.73051243776847,"lng":125.41413936755396,"avgVisitMinutes":58,"estimatedCostEur":4,"score":1.8925507463346682},{"id":"nampo_3276","citySlug":"nampo","name":"Mercado Gastronómico","category":"gastronomia","lat":38.734431950312626,"lng":125.40967907909115,"avgVisitMinutes":55,"estimatedCostEur":19,"score":4.298523074285427},{"id":"nampo_4877","citySlug":"nampo","name":"Playa Sur","category":"playa","lat":38.741894006326895,"lng":125.41740921276701,"avgVisitMinutes":87,"estimatedCostEur":14,"score":1.3910667048571892},{"id":"nampo_1115","citySlug":"nampo","name":"Museo Local de Namp’o","category":"historia","lat":38.746536342974025,"lng":125.41009733321097,"avgVisitMinutes":54,"estimatedCostEur":23,"score":4.350560705496297},{"id":"mangyongdae-ri_4060","citySlug":"mangyongdae-ri","name":"Ruta de Tapas","category":"gastronomia","lat":38.99588924315249,"lng":125.65009405213068,"avgVisitMinutes":45,"estimatedCostEur":18,"score":0.5715372711651505},{"id":"mangyongdae-ri_4252","citySlug":"mangyongdae-ri","name":"Punto Panorámico","category":"mirador","lat":38.9942976249023,"lng":125.66639327774402,"avgVisitMinutes":30,"estimatedCostEur":16,"score":2.0768734530104167},{"id":"mangyongdae-ri_5874","citySlug":"mangyongdae-ri","name":"Parque Central","category":"ocio","lat":38.98644828275501,"lng":125.65222215926346,"avgVisitMinutes":88,"estimatedCostEur":6,"score":2.4671816394097066},{"id":"mangyongdae-ri_4690","citySlug":"mangyongdae-ri","name":"Playa Central","category":"playa","lat":39.00180642258001,"lng":125.65686708159906,"avgVisitMinutes":38,"estimatedCostEur":16,"score":4.621757899574705},{"id":"mangyongdae-ri_8726","citySlug":"mangyongdae-ri","name":"Restaurante Típico de Man’gyŏngdae-ri","category":"gastronomia","lat":38.99565614273971,"lng":125.65340454412565,"avgVisitMinutes":85,"estimatedCostEur":12,"score":2.03731914924209},{"id":"mangyongdae-ri_3015","citySlug":"mangyongdae-ri","name":"Mirador de Man’gyŏngdae-ri","category":"mirador","lat":38.991857017617384,"lng":125.65616993965575,"avgVisitMinutes":83,"estimatedCostEur":15,"score":1.2294332724599795},{"id":"mangyongdae-ri_9218","citySlug":"mangyongdae-ri","name":"Museo Cultural de Man’gyŏngdae-ri","category":"cultura","lat":38.9979140047791,"lng":125.65595807087875,"avgVisitMinutes":74,"estimatedCostEur":24,"score":0.5760278321051393},{"id":"mangyongdae-ri_3270","citySlug":"mangyongdae-ri","name":"Paseo Principal","category":"ocio","lat":38.99963937508119,"lng":125.65221230196512,"avgVisitMinutes":76,"estimatedCostEur":21,"score":2.9344648856822086},{"id":"mangyongdae-ri_9110","citySlug":"mangyongdae-ri","name":"Vista Alta de Man’gyŏngdae-ri","category":"mirador","lat":38.98411520441219,"lng":125.6513396347563,"avgVisitMinutes":35,"estimatedCostEur":22,"score":3.7344515447452853},{"id":"mangyongdae-ri_2466","citySlug":"mangyongdae-ri","name":"Vista Alta de Man’gyŏngdae-ri","category":"mirador","lat":38.98731166797477,"lng":125.65385034559495,"avgVisitMinutes":22,"estimatedCostEur":11,"score":2.4046599641561865},{"id":"kwaksan_1875","citySlug":"kwaksan","name":"Castillo de Kwaksan","category":"historia","lat":39.68535017796851,"lng":125.08097069058019,"avgVisitMinutes":84,"estimatedCostEur":24,"score":4.761066055054397},{"id":"kwaksan_7954","citySlug":"kwaksan","name":"Mercado Gastronómico","category":"gastronomia","lat":39.68872901221232,"lng":125.08239940961187,"avgVisitMinutes":29,"estimatedCostEur":8,"score":3.1988853022215187},{"id":"kwaksan_7156","citySlug":"kwaksan","name":"Iglesia de Kwaksan","category":"historia","lat":39.69310221527267,"lng":125.08538203543392,"avgVisitMinutes":63,"estimatedCostEur":11,"score":4.430086986687483},{"id":"kwaksan_2743","citySlug":"kwaksan","name":"Playa Norte","category":"playa","lat":39.696402653250196,"lng":125.07385524234252,"avgVisitMinutes":58,"estimatedCostEur":24,"score":3.2701834483866477},{"id":"kwaksan_7848","citySlug":"kwaksan","name":"Mirador de Kwaksan","category":"mirador","lat":39.69443452205166,"lng":125.07305106978824,"avgVisitMinutes":21,"estimatedCostEur":25,"score":0.7155040631556918},{"id":"kwaksan_8080","citySlug":"kwaksan","name":"Playa Central","category":"playa","lat":39.680567173408086,"lng":125.0778534343509,"avgVisitMinutes":20,"estimatedCostEur":2,"score":4.753949175765941},{"id":"kwaksan_4312","citySlug":"kwaksan","name":"Playa Sur","category":"playa","lat":39.68866224991886,"lng":125.08818235298679,"avgVisitMinutes":52,"estimatedCostEur":16,"score":2.4461097193283763},{"id":"kwaksan_6912","citySlug":"kwaksan","name":"Playa Central","category":"playa","lat":39.68407052851218,"lng":125.0874675699705,"avgVisitMinutes":47,"estimatedCostEur":2,"score":4.014056947457171},{"id":"kwaksan_1387","citySlug":"kwaksan","name":"Murallas de Kwaksan","category":"historia","lat":39.682873761901085,"lng":125.09164133727276,"avgVisitMinutes":65,"estimatedCostEur":18,"score":1.4988061904037158},{"id":"kwaksan_7156","citySlug":"kwaksan","name":"Castillo de Kwaksan","category":"historia","lat":39.68972038793139,"lng":125.0816651024375,"avgVisitMinutes":82,"estimatedCostEur":12,"score":3.793661470434554},{"id":"kwaksan_1742","citySlug":"kwaksan","name":"Zona Comercial","category":"ocio","lat":39.6963299947686,"lng":125.08956299457415,"avgVisitMinutes":50,"estimatedCostEur":7,"score":2.741297583120886},{"id":"kwail-up_9582","citySlug":"kwail-up","name":"Mercado Gastronómico","category":"gastronomia","lat":38.44761956978018,"lng":125.01722944548294,"avgVisitMinutes":20,"estimatedCostEur":24,"score":1.6774258558385642},{"id":"kwail-up_9951","citySlug":"kwail-up","name":"Restaurante Típico de Kwail-ŭp","category":"gastronomia","lat":38.43919448337165,"lng":125.02599814168359,"avgVisitMinutes":87,"estimatedCostEur":17,"score":0.8457017918772727},{"id":"kwail-up_6532","citySlug":"kwail-up","name":"Paseo Principal","category":"ocio","lat":38.45204936578332,"lng":125.02572661946539,"avgVisitMinutes":58,"estimatedCostEur":4,"score":3.7506892281609625},{"id":"kwail-up_4399","citySlug":"kwail-up","name":"Punto Panorámico","category":"mirador","lat":38.450201013441735,"lng":125.01763631612155,"avgVisitMinutes":41,"estimatedCostEur":2,"score":1.798727695561981},{"id":"kwail-up_6786","citySlug":"kwail-up","name":"Playa Central","category":"playa","lat":38.43694770359039,"lng":125.00884108703686,"avgVisitMinutes":52,"estimatedCostEur":21,"score":2.8622032451065333},{"id":"kwail-up_8740","citySlug":"kwail-up","name":"Mercado Gastronómico","category":"gastronomia","lat":38.443622933522086,"lng":125.01688771470006,"avgVisitMinutes":38,"estimatedCostEur":7,"score":3.1713563158186253},{"id":"kwail-up_1543","citySlug":"kwail-up","name":"Museo Local de Kwail-ŭp","category":"historia","lat":38.44507239023237,"lng":125.01226718839393,"avgVisitMinutes":64,"estimatedCostEur":10,"score":3.0835744760471204},{"id":"kwail-up_9632","citySlug":"kwail-up","name":"Parque Central","category":"ocio","lat":38.44803774483984,"lng":125.01994415600022,"avgVisitMinutes":55,"estimatedCostEur":2,"score":2.464533702144382},{"id":"kwail-up_6994","citySlug":"kwail-up","name":"Teatro Municipal","category":"cultura","lat":38.43796144174274,"lng":125.02014420334602,"avgVisitMinutes":70,"estimatedCostEur":12,"score":3.4833999665104036},{"id":"kusong-si_7251","citySlug":"kusong-si","name":"Vista Alta de Kusŏng-si","category":"mirador","lat":39.980765446871914,"lng":125.24529822368672,"avgVisitMinutes":83,"estimatedCostEur":4,"score":4.1955660128537575},{"id":"kusong-si_1712","citySlug":"kusong-si","name":"Punto Panorámico","category":"mirador","lat":39.97203031638914,"lng":125.2566969338019,"avgVisitMinutes":61,"estimatedCostEur":21,"score":3.2729670659983903},{"id":"kusong-si_8448","citySlug":"kusong-si","name":"Centro Histórico","category":"historia","lat":39.97563594474749,"lng":125.24694362427967,"avgVisitMinutes":65,"estimatedCostEur":6,"score":1.518043519767009},{"id":"kusong-si_3418","citySlug":"kusong-si","name":"Vista Alta de Kusŏng-si","category":"mirador","lat":39.978921248671554,"lng":125.24683319394572,"avgVisitMinutes":45,"estimatedCostEur":19,"score":2.04590869166576},{"id":"kusong-si_4196","citySlug":"kusong-si","name":"Punto Panorámico","category":"mirador","lat":39.9760840429011,"lng":125.24878387407843,"avgVisitMinutes":71,"estimatedCostEur":9,"score":3.6561995334921495},{"id":"kusong-si_9454","citySlug":"kusong-si","name":"Punto Panorámico","category":"mirador","lat":39.98169975988147,"lng":125.2452783264423,"avgVisitMinutes":83,"estimatedCostEur":19,"score":2.304830730520771},{"id":"kusong-si_2656","citySlug":"kusong-si","name":"Playa Central","category":"playa","lat":39.98256364625346,"lng":125.2469708953503,"avgVisitMinutes":45,"estimatedCostEur":16,"score":0.7772746598301746},{"id":"kusong-si_7356","citySlug":"kusong-si","name":"Ruta de Tapas","category":"gastronomia","lat":39.97499067209559,"lng":125.26005442502797,"avgVisitMinutes":72,"estimatedCostEur":2,"score":3.739265099767637},{"id":"kusong-si_2334","citySlug":"kusong-si","name":"Teatro Municipal","category":"cultura","lat":39.974221376251954,"lng":125.25055353937009,"avgVisitMinutes":67,"estimatedCostEur":3,"score":1.8799156076516443},{"id":"kujang-up_2422","citySlug":"kujang-up","name":"Teatro Municipal","category":"cultura","lat":39.858892840205556,"lng":126.0233490295075,"avgVisitMinutes":29,"estimatedCostEur":21,"score":4.510363648787183},{"id":"kujang-up_8658","citySlug":"kujang-up","name":"Teatro Municipal","category":"cultura","lat":39.86049579104326,"lng":126.0383196857178,"avgVisitMinutes":47,"estimatedCostEur":12,"score":3.2892088424158272},{"id":"kujang-up_6452","citySlug":"kujang-up","name":"Castillo de Kujang-ŭp","category":"historia","lat":39.86845317296735,"lng":126.02697257283312,"avgVisitMinutes":60,"estimatedCostEur":22,"score":1.227102344536704},{"id":"kujang-up_9598","citySlug":"kujang-up","name":"Museo Cultural de Kujang-ŭp","category":"cultura","lat":39.87434711860962,"lng":126.03131918397635,"avgVisitMinutes":55,"estimatedCostEur":6,"score":1.1379829286130785},{"id":"kujang-up_8742","citySlug":"kujang-up","name":"Galería de Arte","category":"cultura","lat":39.871664599201885,"lng":126.03613108280146,"avgVisitMinutes":20,"estimatedCostEur":8,"score":1.3193652945241707},{"id":"kujang-up_7494","citySlug":"kujang-up","name":"Castillo de Kujang-ŭp","category":"historia","lat":39.87594444788886,"lng":126.03258882070674,"avgVisitMinutes":60,"estimatedCostEur":17,"score":4.362742489486999},{"id":"kujang-up_5586","citySlug":"kujang-up","name":"Ruta de Tapas","category":"gastronomia","lat":39.859028517045495,"lng":126.02369868915375,"avgVisitMinutes":63,"estimatedCostEur":2,"score":0.5208589253921071},{"id":"kujang-up_2139","citySlug":"kujang-up","name":"Galería de Arte","category":"cultura","lat":39.860075857196996,"lng":126.0377859967437,"avgVisitMinutes":81,"estimatedCostEur":9,"score":1.176398441386437},{"id":"kujang-up_6707","citySlug":"kujang-up","name":"Restaurante Típico de Kujang-ŭp","category":"gastronomia","lat":39.876359119673204,"lng":126.0310780446677,"avgVisitMinutes":29,"estimatedCostEur":19,"score":2.951700393719355},{"id":"kujang-up_2181","citySlug":"kujang-up","name":"Murallas de Kujang-ŭp","category":"historia","lat":39.86739635887694,"lng":126.03208027559545,"avgVisitMinutes":45,"estimatedCostEur":21,"score":4.797080392890595},{"id":"kujang-up_7769","citySlug":"kujang-up","name":"Mirador de Kujang-ŭp","category":"mirador","lat":39.86573054031049,"lng":126.03932992543034,"avgVisitMinutes":87,"estimatedCostEur":18,"score":4.953140262640795},{"id":"kowon-up_6419","citySlug":"kowon-up","name":"Castillo de Kowŏn-ŭp","category":"historia","lat":39.437454125429916,"lng":127.2461889398113,"avgVisitMinutes":36,"estimatedCostEur":3,"score":1.8578540818731226},{"id":"kowon-up_3621","citySlug":"kowon-up","name":"Mirador de Kowŏn-ŭp","category":"mirador","lat":39.43739656480479,"lng":127.23643153664887,"avgVisitMinutes":34,"estimatedCostEur":20,"score":3.494865919757604},{"id":"kowon-up_1404","citySlug":"kowon-up","name":"Murallas de Kowŏn-ŭp","category":"historia","lat":39.444628675980645,"lng":127.24013889331373,"avgVisitMinutes":23,"estimatedCostEur":6,"score":2.0416573406320158},{"id":"kowon-up_3289","citySlug":"kowon-up","name":"Centro Histórico","category":"historia","lat":39.437072909102035,"lng":127.24807418312245,"avgVisitMinutes":61,"estimatedCostEur":2,"score":4.18641081037981},{"id":"kowon-up_2664","citySlug":"kowon-up","name":"Mirador de Kowŏn-ŭp","category":"mirador","lat":39.43823134459623,"lng":127.23401459970891,"avgVisitMinutes":21,"estimatedCostEur":9,"score":4.592790530671096},{"id":"kowon-up_9361","citySlug":"kowon-up","name":"Centro de Arte de Kowŏn-ŭp","category":"cultura","lat":39.442699127419935,"lng":127.2336039394501,"avgVisitMinutes":45,"estimatedCostEur":7,"score":2.259194125155918},{"id":"kowon-up_9025","citySlug":"kowon-up","name":"Zona Comercial","category":"ocio","lat":39.43434596491151,"lng":127.23386144190238,"avgVisitMinutes":89,"estimatedCostEur":10,"score":2.5383867446836565},{"id":"kowon-up_7443","citySlug":"kowon-up","name":"Punto Panorámico","category":"mirador","lat":39.428687988617206,"lng":127.23811874452859,"avgVisitMinutes":37,"estimatedCostEur":22,"score":3.349137232224966},{"id":"kosan_8093","citySlug":"kosan","name":"Mercado Gastronómico","category":"gastronomia","lat":38.85909712029539,"lng":127.41616153686377,"avgVisitMinutes":71,"estimatedCostEur":1,"score":2.7232832912107496},{"id":"kosan_9175","citySlug":"kosan","name":"Playa Norte","category":"playa","lat":38.85024334440818,"lng":127.42334135758449,"avgVisitMinutes":46,"estimatedCostEur":19,"score":0.9686027685703833},{"id":"kosan_7222","citySlug":"kosan","name":"Paseo Principal","category":"ocio","lat":38.84913018097414,"lng":127.42088795154119,"avgVisitMinutes":27,"estimatedCostEur":14,"score":3.460618375438065},{"id":"kosan_4602","citySlug":"kosan","name":"Ruta de Tapas","category":"gastronomia","lat":38.8469450920621,"lng":127.4159409686978,"avgVisitMinutes":24,"estimatedCostEur":4,"score":2.398943900192672},{"id":"kosan_2310","citySlug":"kosan","name":"Restaurante Típico de Kosan","category":"gastronomia","lat":38.86377350010542,"lng":127.41201540324336,"avgVisitMinutes":29,"estimatedCostEur":2,"score":3.8337760941292913},{"id":"koksan-up_7220","citySlug":"koksan-up","name":"Punto Panorámico","category":"mirador","lat":38.77967014576099,"lng":126.67350507873589,"avgVisitMinutes":60,"estimatedCostEur":16,"score":4.925116884548674},{"id":"koksan-up_9643","citySlug":"koksan-up","name":"Mercado Gastronómico","category":"gastronomia","lat":38.78585447329211,"lng":126.67188044636973,"avgVisitMinutes":43,"estimatedCostEur":20,"score":1.4226698519282155},{"id":"koksan-up_5296","citySlug":"koksan-up","name":"Vista Alta de Koksan-ŭp","category":"mirador","lat":38.77988099390217,"lng":126.67147674772438,"avgVisitMinutes":50,"estimatedCostEur":0,"score":2.2925887266148894},{"id":"koksan-up_9740","citySlug":"koksan-up","name":"Zona Comercial","category":"ocio","lat":38.779068185655056,"lng":126.67284354849984,"avgVisitMinutes":82,"estimatedCostEur":25,"score":2.8618828337107036},{"id":"koksan-up_3861","citySlug":"koksan-up","name":"Parque Central","category":"ocio","lat":38.780687450795746,"lng":126.67098995698115,"avgVisitMinutes":48,"estimatedCostEur":11,"score":0.7196990275526938},{"id":"koksan-up_4162","citySlug":"koksan-up","name":"Teatro Municipal","category":"cultura","lat":38.77411580854995,"lng":126.67175266167953,"avgVisitMinutes":39,"estimatedCostEur":12,"score":2.6516455294001653},{"id":"koksan-up_5500","citySlug":"koksan-up","name":"Zona Comercial","category":"ocio","lat":38.77338240173799,"lng":126.67082326126618,"avgVisitMinutes":78,"estimatedCostEur":12,"score":1.9742840663798837},{"id":"koksan-up_7331","citySlug":"koksan-up","name":"Vista Alta de Koksan-ŭp","category":"mirador","lat":38.78905899107381,"lng":126.67377108311203,"avgVisitMinutes":25,"estimatedCostEur":14,"score":1.6848720980056302},{"id":"koksan-up_4831","citySlug":"koksan-up","name":"Iglesia de Koksan-ŭp","category":"historia","lat":38.77747814734814,"lng":126.66029564589384,"avgVisitMinutes":63,"estimatedCostEur":24,"score":2.2385617103360955},{"id":"kangson_2934","citySlug":"kangson","name":"Parque Central","category":"ocio","lat":38.939753173213326,"lng":125.57800810567697,"avgVisitMinutes":47,"estimatedCostEur":3,"score":3.125910044326943},{"id":"kangson_8535","citySlug":"kangson","name":"Mercado Gastronómico","category":"gastronomia","lat":38.92832727662899,"lng":125.58954014076411,"avgVisitMinutes":74,"estimatedCostEur":11,"score":1.5508113041429616},{"id":"kangson_4186","citySlug":"kangson","name":"Museo Cultural de Kangsŏn","category":"cultura","lat":38.93783802235348,"lng":125.58312478905479,"avgVisitMinutes":35,"estimatedCostEur":8,"score":3.6144367631078946},{"id":"kangson_9471","citySlug":"kangson","name":"Centro Histórico","category":"historia","lat":38.945411875429954,"lng":125.57245253644585,"avgVisitMinutes":21,"estimatedCostEur":13,"score":1.0040765717624436},{"id":"kangson_2754","citySlug":"kangson","name":"Mercado Gastronómico","category":"gastronomia","lat":38.939635906303934,"lng":125.58922760522516,"avgVisitMinutes":59,"estimatedCostEur":1,"score":1.4889321092242247},{"id":"kangson_8963","citySlug":"kangson","name":"Castillo de Kangsŏn","category":"historia","lat":38.93636110989276,"lng":125.57178385033745,"avgVisitMinutes":66,"estimatedCostEur":5,"score":2.0528878408772906},{"id":"kangson_2673","citySlug":"kangson","name":"Playa Central","category":"playa","lat":38.93675453298025,"lng":125.58396338663445,"avgVisitMinutes":73,"estimatedCostEur":12,"score":3.609017794415256},{"id":"kangson_2071","citySlug":"kangson","name":"Parque Central","category":"ocio","lat":38.92934183472554,"lng":125.57383020873651,"avgVisitMinutes":36,"estimatedCostEur":5,"score":3.4101477724876017},{"id":"kangnyong_9753","citySlug":"kangnyong","name":"Museo Local de Kangnyŏng","category":"historia","lat":37.90600217345048,"lng":125.50669471144009,"avgVisitMinutes":44,"estimatedCostEur":20,"score":2.418553389662165},{"id":"kangnyong_2426","citySlug":"kangnyong","name":"Punto Panorámico","category":"mirador","lat":37.91316115646329,"lng":125.51998349504223,"avgVisitMinutes":63,"estimatedCostEur":2,"score":0.738531609623374},{"id":"kangnyong_2012","citySlug":"kangnyong","name":"Restaurante Típico de Kangnyŏng","category":"gastronomia","lat":37.91691931915875,"lng":125.50408639196549,"avgVisitMinutes":86,"estimatedCostEur":2,"score":2.129979270057996},{"id":"kangnyong_3594","citySlug":"kangnyong","name":"Playa Sur","category":"playa","lat":37.912947545709734,"lng":125.5181840508214,"avgVisitMinutes":35,"estimatedCostEur":5,"score":2.9563343576833376},{"id":"kangnyong_5730","citySlug":"kangnyong","name":"Playa Norte","category":"playa","lat":37.907072173144975,"lng":125.5119278883099,"avgVisitMinutes":40,"estimatedCostEur":22,"score":3.0730701307328383},{"id":"kangnyong_8247","citySlug":"kangnyong","name":"Centro Histórico","category":"historia","lat":37.90649936525206,"lng":125.50404984501456,"avgVisitMinutes":74,"estimatedCostEur":4,"score":1.8271322634232012},{"id":"kangnyong_8049","citySlug":"kangnyong","name":"Galería de Arte","category":"cultura","lat":37.91484910083663,"lng":125.50313618402261,"avgVisitMinutes":61,"estimatedCostEur":0,"score":2.251764735811829},{"id":"kangnyong_9297","citySlug":"kangnyong","name":"Parque Central","category":"ocio","lat":37.8984265238252,"lng":125.50935479229415,"avgVisitMinutes":88,"estimatedCostEur":19,"score":3.12009403010328},{"id":"kangnyong_3559","citySlug":"kangnyong","name":"Centro Histórico","category":"historia","lat":37.91405906359825,"lng":125.51769871666609,"avgVisitMinutes":34,"estimatedCostEur":24,"score":3.637055443702258},{"id":"kangnyong_1630","citySlug":"kangnyong","name":"Playa Sur","category":"playa","lat":37.90475406098542,"lng":125.50008045710088,"avgVisitMinutes":68,"estimatedCostEur":12,"score":1.9893640666014076},{"id":"kangdong-up_7679","citySlug":"kangdong-up","name":"Punto Panorámico","category":"mirador","lat":39.138918392151055,"lng":126.08964324767607,"avgVisitMinutes":53,"estimatedCostEur":19,"score":3.5882237914558415},{"id":"kangdong-up_9241","citySlug":"kangdong-up","name":"Museo Cultural de Kangdong-ŭp","category":"cultura","lat":39.14431099707964,"lng":126.08642236778313,"avgVisitMinutes":80,"estimatedCostEur":13,"score":0.8961468937807235},{"id":"kangdong-up_5919","citySlug":"kangdong-up","name":"Paseo Principal","category":"ocio","lat":39.13382409623357,"lng":126.09931930984138,"avgVisitMinutes":30,"estimatedCostEur":16,"score":4.449941718045396},{"id":"kangdong-up_2167","citySlug":"kangdong-up","name":"Mirador de Kangdong-ŭp","category":"mirador","lat":39.132659037823736,"lng":126.09793124862124,"avgVisitMinutes":64,"estimatedCostEur":13,"score":3.3055299878102065},{"id":"kangdong-up_6471","citySlug":"kangdong-up","name":"Zona Comercial","category":"ocio","lat":39.133814182248,"lng":126.09130823972144,"avgVisitMinutes":83,"estimatedCostEur":8,"score":2.1032822552863832},{"id":"kangdong-up_5640","citySlug":"kangdong-up","name":"Galería de Arte","category":"cultura","lat":39.14731570549113,"lng":126.09632034338027,"avgVisitMinutes":22,"estimatedCostEur":4,"score":3.2666790448361382},{"id":"kangdong-up_2339","citySlug":"kangdong-up","name":"Murallas de Kangdong-ŭp","category":"historia","lat":39.13951082915368,"lng":126.09503205398968,"avgVisitMinutes":52,"estimatedCostEur":24,"score":0.5471591518693765},{"id":"kangdong-up_9416","citySlug":"kangdong-up","name":"Restaurante Típico de Kangdong-ŭp","category":"gastronomia","lat":39.138511179993486,"lng":126.09932516180864,"avgVisitMinutes":43,"estimatedCostEur":2,"score":1.690706847570718},{"id":"kangdong-up_9456","citySlug":"kangdong-up","name":"Paseo Principal","category":"ocio","lat":39.138366870256036,"lng":126.09404674114585,"avgVisitMinutes":43,"estimatedCostEur":21,"score":2.5206925411549643},{"id":"kangdong-up_3892","citySlug":"kangdong-up","name":"Murallas de Kangdong-ŭp","category":"historia","lat":39.142615949884316,"lng":126.0958010888381,"avgVisitMinutes":74,"estimatedCostEur":23,"score":2.754296422140547},{"id":"kangdong-up_7645","citySlug":"kangdong-up","name":"Zona Comercial","category":"ocio","lat":39.14712549640275,"lng":126.09902158493668,"avgVisitMinutes":26,"estimatedCostEur":13,"score":0.6893243809714439},{"id":"kaesong_9498","citySlug":"kaesong","name":"Teatro Municipal","category":"cultura","lat":37.97044095460463,"lng":126.55000306572506,"avgVisitMinutes":86,"estimatedCostEur":12,"score":0.8993914016716263},{"id":"kaesong_9970","citySlug":"kaesong","name":"Parque Central","category":"ocio","lat":37.974032402499766,"lng":126.5465427708288,"avgVisitMinutes":88,"estimatedCostEur":17,"score":4.655114023067344},{"id":"kaesong_7640","citySlug":"kaesong","name":"Ruta de Tapas","category":"gastronomia","lat":37.97245103835957,"lng":126.55182436855289,"avgVisitMinutes":37,"estimatedCostEur":19,"score":2.7215558533717505},{"id":"kaesong_6154","citySlug":"kaesong","name":"Mirador de Kaesŏng","category":"mirador","lat":37.966411605647494,"lng":126.55650064718722,"avgVisitMinutes":56,"estimatedCostEur":7,"score":3.0095786611459827},{"id":"kaesong_1285","citySlug":"kaesong","name":"Punto Panorámico","category":"mirador","lat":37.970536268225594,"lng":126.56432331422424,"avgVisitMinutes":21,"estimatedCostEur":3,"score":1.1173616532767143},{"id":"kaesong_5271","citySlug":"kaesong","name":"Playa Norte","category":"playa","lat":37.97994504422386,"lng":126.54979522647716,"avgVisitMinutes":79,"estimatedCostEur":13,"score":0.9441573295369384},{"id":"kaesong_8960","citySlug":"kaesong","name":"Vista Alta de Kaesŏng","category":"mirador","lat":37.97278429647553,"lng":126.54552048982544,"avgVisitMinutes":54,"estimatedCostEur":10,"score":2.550986207907512},{"id":"kaesong_9109","citySlug":"kaesong","name":"Paseo Principal","category":"ocio","lat":37.96413590539362,"lng":126.54726418631911,"avgVisitMinutes":87,"estimatedCostEur":15,"score":1.3735504948083053},{"id":"kaesong_4350","citySlug":"kaesong","name":"Ruta de Tapas","category":"gastronomia","lat":37.962575733393976,"lng":126.55905545680085,"avgVisitMinutes":80,"estimatedCostEur":12,"score":0.8543764348633236},{"id":"kaesong_6449","citySlug":"kaesong","name":"Teatro Municipal","category":"cultura","lat":37.9677326809792,"lng":126.54646732518522,"avgVisitMinutes":34,"estimatedCostEur":5,"score":1.6267667170893851},{"id":"kaesong_7157","citySlug":"kaesong","name":"Vista Alta de Kaesŏng","category":"mirador","lat":37.975424381519154,"lng":126.56296454812004,"avgVisitMinutes":77,"estimatedCostEur":16,"score":2.911306082362289},{"id":"kaechon_8625","citySlug":"kaechon","name":"Iglesia de Kaech’ŏn","category":"historia","lat":39.70799882571903,"lng":125.89037867629678,"avgVisitMinutes":27,"estimatedCostEur":22,"score":2.0719517216012084},{"id":"kaechon_5455","citySlug":"kaechon","name":"Parque Central","category":"ocio","lat":39.70798144291564,"lng":125.88689910381454,"avgVisitMinutes":58,"estimatedCostEur":4,"score":1.3821549044995727},{"id":"kaechon_1920","citySlug":"kaechon","name":"Centro de Arte de Kaech’ŏn","category":"cultura","lat":39.69455104247959,"lng":125.8949906263096,"avgVisitMinutes":40,"estimatedCostEur":22,"score":4.109283038473266},{"id":"kaechon_6978","citySlug":"kaechon","name":"Ruta de Tapas","category":"gastronomia","lat":39.70223611061052,"lng":125.88522440519887,"avgVisitMinutes":62,"estimatedCostEur":21,"score":3.371563804723957},{"id":"kaechon_2863","citySlug":"kaechon","name":"Mercado Gastronómico","category":"gastronomia","lat":39.70243575277526,"lng":125.8927480701761,"avgVisitMinutes":28,"estimatedCostEur":22,"score":3.579792222572757},{"id":"kaechon_5839","citySlug":"kaechon","name":"Zona Comercial","category":"ocio","lat":39.70110559064056,"lng":125.90299531595039,"avgVisitMinutes":87,"estimatedCostEur":19,"score":4.487374136950466},{"id":"kaechon_1778","citySlug":"kaechon","name":"Paseo Principal","category":"ocio","lat":39.69415931330032,"lng":125.88913319566858,"avgVisitMinutes":74,"estimatedCostEur":13,"score":3.428262473087201},{"id":"kaechon_5844","citySlug":"kaechon","name":"Ruta de Tapas","category":"gastronomia","lat":39.70415144362364,"lng":125.8949145934354,"avgVisitMinutes":27,"estimatedCostEur":19,"score":1.0770464227121446},{"id":"kaechon_8505","citySlug":"kaechon","name":"Playa Norte","category":"playa","lat":39.69591304157957,"lng":125.88465179110153,"avgVisitMinutes":83,"estimatedCostEur":8,"score":3.8022888746245007},{"id":"hwangju-up_3892","citySlug":"hwangju-up","name":"Parque Central","category":"ocio","lat":38.67482979566824,"lng":125.77512315011377,"avgVisitMinutes":50,"estimatedCostEur":23,"score":1.8179160440487847},{"id":"hwangju-up_4185","citySlug":"hwangju-up","name":"Iglesia de Hwangju-ŭp","category":"historia","lat":38.679531914265596,"lng":125.77995185351949,"avgVisitMinutes":56,"estimatedCostEur":3,"score":3.0248268371779847},{"id":"hwangju-up_9518","citySlug":"hwangju-up","name":"Teatro Municipal","category":"cultura","lat":38.67125782625945,"lng":125.77101268164779,"avgVisitMinutes":38,"estimatedCostEur":3,"score":4.848179452209194},{"id":"hwangju-up_1779","citySlug":"hwangju-up","name":"Zona Comercial","category":"ocio","lat":38.67307413651418,"lng":125.76828766286611,"avgVisitMinutes":46,"estimatedCostEur":25,"score":4.942242281188328},{"id":"hwangju-up_6964","citySlug":"hwangju-up","name":"Zona Comercial","category":"ocio","lat":38.677004551630645,"lng":125.77886862208325,"avgVisitMinutes":44,"estimatedCostEur":15,"score":2.4186930854767876},{"id":"hwangju-up_7163","citySlug":"hwangju-up","name":"Centro Histórico","category":"historia","lat":38.67661674118071,"lng":125.77442731105306,"avgVisitMinutes":74,"estimatedCostEur":5,"score":2.6391326839441027},{"id":"twimoraeto_5505","citySlug":"twimoraeto","name":"Mirador de Twimoraet’ŏ","category":"mirador","lat":38.99645581989599,"lng":125.68630881772427,"avgVisitMinutes":89,"estimatedCostEur":13,"score":2.8324090125671377},{"id":"twimoraeto_6259","citySlug":"twimoraeto","name":"Playa Sur","category":"playa","lat":38.99297438773208,"lng":125.6929112582163,"avgVisitMinutes":48,"estimatedCostEur":4,"score":4.949968077906543},{"id":"twimoraeto_6835","citySlug":"twimoraeto","name":"Teatro Municipal","category":"cultura","lat":38.99020237404674,"lng":125.69741575569213,"avgVisitMinutes":81,"estimatedCostEur":22,"score":4.767013039707698},{"id":"twimoraeto_1760","citySlug":"twimoraeto","name":"Teatro Municipal","category":"cultura","lat":38.98589413366656,"lng":125.70001320931075,"avgVisitMinutes":32,"estimatedCostEur":8,"score":4.132490627005517},{"id":"twimoraeto_1423","citySlug":"twimoraeto","name":"Centro de Arte de Twimoraet’ŏ","category":"cultura","lat":38.99281776879602,"lng":125.69501473829216,"avgVisitMinutes":36,"estimatedCostEur":2,"score":4.980726890920121},{"id":"hungnam_5054","citySlug":"hungnam","name":"Parque Central","category":"ocio","lat":39.84888666293326,"lng":127.6279940911151,"avgVisitMinutes":75,"estimatedCostEur":13,"score":1.494673966060454},{"id":"hungnam_8134","citySlug":"hungnam","name":"Museo Local de Hŭngnam","category":"historia","lat":39.8331934340598,"lng":127.62371196206942,"avgVisitMinutes":58,"estimatedCostEur":8,"score":4.787846942320861},{"id":"hungnam_3100","citySlug":"hungnam","name":"Restaurante Típico de Hŭngnam","category":"gastronomia","lat":39.848788600226996,"lng":127.63259867695791,"avgVisitMinutes":84,"estimatedCostEur":2,"score":1.9380895465366579},{"id":"hungnam_4065","citySlug":"hungnam","name":"Restaurante Típico de Hŭngnam","category":"gastronomia","lat":39.84397353148103,"lng":127.62504959519951,"avgVisitMinutes":39,"estimatedCostEur":0,"score":1.9322018947376174},{"id":"hungnam_5140","citySlug":"hungnam","name":"Restaurante Típico de Hŭngnam","category":"gastronomia","lat":39.84615987708926,"lng":127.62891489261312,"avgVisitMinutes":27,"estimatedCostEur":16,"score":1.3430116613693084},{"id":"hungnam_8326","citySlug":"hungnam","name":"Mirador de Hŭngnam","category":"mirador","lat":39.83982478923886,"lng":127.62735598653961,"avgVisitMinutes":87,"estimatedCostEur":18,"score":4.0117659942809},{"id":"hungnam_6982","citySlug":"hungnam","name":"Galería de Arte","category":"cultura","lat":39.843476984428364,"lng":127.63460677835435,"avgVisitMinutes":41,"estimatedCostEur":9,"score":4.314738490920112},{"id":"hukkyo-ri_6096","citySlug":"hukkyo-ri","name":"Mercado Gastronómico","category":"gastronomia","lat":38.79756593107064,"lng":125.7915206130721,"avgVisitMinutes":41,"estimatedCostEur":11,"score":1.5745511467123174},{"id":"hukkyo-ri_7033","citySlug":"hukkyo-ri","name":"Museo Local de Hŭkkyo-ri","category":"historia","lat":38.80639275753218,"lng":125.78194588061628,"avgVisitMinutes":20,"estimatedCostEur":4,"score":2.011870434712622},{"id":"hukkyo-ri_6537","citySlug":"hukkyo-ri","name":"Zona Comercial","category":"ocio","lat":38.807783076544624,"lng":125.78711486696069,"avgVisitMinutes":46,"estimatedCostEur":3,"score":3.7158838071127884},{"id":"hukkyo-ri_9050","citySlug":"hukkyo-ri","name":"Galería de Arte","category":"cultura","lat":38.80778838821998,"lng":125.79620815905149,"avgVisitMinutes":81,"estimatedCostEur":25,"score":0.9480753377918307},{"id":"hukkyo-ri_7532","citySlug":"hukkyo-ri","name":"Zona Comercial","category":"ocio","lat":38.79537790384239,"lng":125.78563817928759,"avgVisitMinutes":32,"estimatedCostEur":3,"score":4.811261460650178},{"id":"hukkyo-ri_6283","citySlug":"hukkyo-ri","name":"Playa Central","category":"playa","lat":38.80257789917887,"lng":125.79495227653032,"avgVisitMinutes":27,"estimatedCostEur":8,"score":1.4044762399351747},{"id":"hukkyo-ri_8566","citySlug":"hukkyo-ri","name":"Parque Central","category":"ocio","lat":38.807311300171996,"lng":125.78802733386097,"avgVisitMinutes":83,"estimatedCostEur":7,"score":4.391616549570919},{"id":"hukkyo-ri_5115","citySlug":"hukkyo-ri","name":"Ruta de Tapas","category":"gastronomia","lat":38.79522608534984,"lng":125.7845931446605,"avgVisitMinutes":59,"estimatedCostEur":7,"score":2.686815737409408},{"id":"hoeyang_6748","citySlug":"hoeyang","name":"Galería de Arte","category":"cultura","lat":38.70076458858823,"lng":127.59537433735618,"avgVisitMinutes":34,"estimatedCostEur":2,"score":2.359019699302203},{"id":"hoeyang_4917","citySlug":"hoeyang","name":"Ruta de Tapas","category":"gastronomia","lat":38.70958692126773,"lng":127.59918642684346,"avgVisitMinutes":87,"estimatedCostEur":5,"score":2.427986004464793},{"id":"hoeyang_1047","citySlug":"hoeyang","name":"Museo Cultural de Hoeyang","category":"cultura","lat":38.71528395367539,"lng":127.5888835822186,"avgVisitMinutes":68,"estimatedCostEur":18,"score":4.8635547011746105},{"id":"hoeyang_2077","citySlug":"hoeyang","name":"Castillo de Hoeyang","category":"historia","lat":38.71924128893205,"lng":127.60611630608541,"avgVisitMinutes":84,"estimatedCostEur":16,"score":4.118377019178141},{"id":"hoeyang_8979","citySlug":"hoeyang","name":"Museo Cultural de Hoeyang","category":"cultura","lat":38.71465383632055,"lng":127.5937579644157,"avgVisitMinutes":65,"estimatedCostEur":0,"score":1.4969121413804172},{"id":"hoeyang_2546","citySlug":"hoeyang","name":"Playa Norte","category":"playa","lat":38.71862407281885,"lng":127.59167724267982,"avgVisitMinutes":46,"estimatedCostEur":16,"score":3.1023890113663084},{"id":"hoeyang_9121","citySlug":"hoeyang","name":"Restaurante Típico de Hoeyang","category":"gastronomia","lat":38.712378311005466,"lng":127.60630782614709,"avgVisitMinutes":62,"estimatedCostEur":25,"score":1.2237691480381012},{"id":"hoeyang_9616","citySlug":"hoeyang","name":"Mirador de Hoeyang","category":"mirador","lat":38.71260986901266,"lng":127.59376429278673,"avgVisitMinutes":23,"estimatedCostEur":9,"score":3.7042670978372048},{"id":"hoeyang_8158","citySlug":"hoeyang","name":"Museo Local de Hoeyang","category":"historia","lat":38.71016035469635,"lng":127.59784310654122,"avgVisitMinutes":64,"estimatedCostEur":15,"score":4.989062895489923},{"id":"hoeyang_7070","citySlug":"hoeyang","name":"Ruta de Tapas","category":"gastronomia","lat":38.71492560332991,"lng":127.59890189029973,"avgVisitMinutes":84,"estimatedCostEur":7,"score":1.1099241834068838},{"id":"hoeyang_8055","citySlug":"hoeyang","name":"Vista Alta de Hoeyang","category":"mirador","lat":38.70706341958908,"lng":127.60676489209087,"avgVisitMinutes":76,"estimatedCostEur":7,"score":2.4908408551722494},{"id":"hoeyang_7831","citySlug":"hoeyang","name":"Museo Local de Hoeyang","category":"historia","lat":38.71122329204606,"lng":127.59795113658028,"avgVisitMinutes":77,"estimatedCostEur":13,"score":2.490564558048354},{"id":"hamhung_9456","citySlug":"hamhung","name":"Museo Cultural de Hamhŭng","category":"cultura","lat":39.91073205420467,"lng":127.53573410739803,"avgVisitMinutes":29,"estimatedCostEur":18,"score":1.3567241997033241},{"id":"hamhung_4784","citySlug":"hamhung","name":"Punto Panorámico","category":"mirador","lat":39.92204344576391,"lng":127.53754598036522,"avgVisitMinutes":37,"estimatedCostEur":8,"score":2.0819218284416907},{"id":"hamhung_6264","citySlug":"hamhung","name":"Playa Sur","category":"playa","lat":39.92124105355866,"lng":127.5414599984767,"avgVisitMinutes":68,"estimatedCostEur":14,"score":0.8652105384035392},{"id":"hamhung_1200","citySlug":"hamhung","name":"Zona Comercial","category":"ocio","lat":39.92439471254837,"lng":127.53818460604269,"avgVisitMinutes":85,"estimatedCostEur":24,"score":0.5644457283470372},{"id":"hamhung_4861","citySlug":"hamhung","name":"Playa Sur","category":"playa","lat":39.914813524078895,"lng":127.53080521186925,"avgVisitMinutes":48,"estimatedCostEur":12,"score":1.9218707370796422},{"id":"hamhung_6031","citySlug":"hamhung","name":"Galería de Arte","category":"cultura","lat":39.91800984845477,"lng":127.53970750417305,"avgVisitMinutes":22,"estimatedCostEur":23,"score":4.833639044196407},{"id":"hamhung_2962","citySlug":"hamhung","name":"Centro de Arte de Hamhŭng","category":"cultura","lat":39.92784221713945,"lng":127.53866523867504,"avgVisitMinutes":58,"estimatedCostEur":17,"score":0.6774344221711356},{"id":"hamhung_9986","citySlug":"hamhung","name":"Galería de Arte","category":"cultura","lat":39.920196641649305,"lng":127.53004032999134,"avgVisitMinutes":76,"estimatedCostEur":4,"score":2.836676064835475},{"id":"hamhung_4742","citySlug":"hamhung","name":"Mirador de Hamhŭng","category":"mirador","lat":39.92124796774961,"lng":127.53596942488787,"avgVisitMinutes":54,"estimatedCostEur":9,"score":4.091554301127063},{"id":"haeju_6726","citySlug":"haeju","name":"Mirador de Haeju","category":"mirador","lat":38.04224943882742,"lng":125.71204150380603,"avgVisitMinutes":37,"estimatedCostEur":0,"score":3.41956113513005},{"id":"haeju_1323","citySlug":"haeju","name":"Playa Norte","category":"playa","lat":38.03716360505831,"lng":125.71635052963954,"avgVisitMinutes":46,"estimatedCostEur":3,"score":1.395627983764522},{"id":"haeju_1655","citySlug":"haeju","name":"Ruta de Tapas","category":"gastronomia","lat":38.04061423484758,"lng":125.71194711997877,"avgVisitMinutes":51,"estimatedCostEur":6,"score":3.2595777545006905},{"id":"haeju_6341","citySlug":"haeju","name":"Zona Comercial","category":"ocio","lat":38.04297420755544,"lng":125.71016372163578,"avgVisitMinutes":62,"estimatedCostEur":5,"score":1.1673410450684982},{"id":"haeju_2972","citySlug":"haeju","name":"Ruta de Tapas","category":"gastronomia","lat":38.04114506823757,"lng":125.7049277505136,"avgVisitMinutes":45,"estimatedCostEur":9,"score":0.5885625553204274},{"id":"haeju_3709","citySlug":"haeju","name":"Playa Norte","category":"playa","lat":38.03884477108347,"lng":125.7053293654333,"avgVisitMinutes":84,"estimatedCostEur":24,"score":4.125017232161026},{"id":"haeju_5917","citySlug":"haeju","name":"Paseo Principal","category":"ocio","lat":38.042627728656875,"lng":125.71993268610979,"avgVisitMinutes":57,"estimatedCostEur":6,"score":4.320228436010165},{"id":"haeju_2883","citySlug":"haeju","name":"Mirador de Haeju","category":"mirador","lat":38.04053004968336,"lng":125.7143456220839,"avgVisitMinutes":89,"estimatedCostEur":9,"score":0.6601126103296737},{"id":"haeju_5921","citySlug":"haeju","name":"Centro de Arte de Haeju","category":"cultura","lat":38.042809860274346,"lng":125.72081197365368,"avgVisitMinutes":47,"estimatedCostEur":4,"score":0.5275930131679251},{"id":"chunghwa_4061","citySlug":"chunghwa","name":"Castillo de Chunghwa","category":"historia","lat":38.87194666983745,"lng":125.79042713582466,"avgVisitMinutes":34,"estimatedCostEur":12,"score":1.1942833881485226},{"id":"chunghwa_3931","citySlug":"chunghwa","name":"Museo Local de Chunghwa","category":"historia","lat":38.8611330761564,"lng":125.8019719052591,"avgVisitMinutes":33,"estimatedCostEur":12,"score":2.498530961688142},{"id":"chunghwa_1261","citySlug":"chunghwa","name":"Museo Cultural de Chunghwa","category":"cultura","lat":38.858046791947,"lng":125.79666786816802,"avgVisitMinutes":31,"estimatedCostEur":10,"score":4.902340614509118},{"id":"chunghwa_7908","citySlug":"chunghwa","name":"Mercado Gastronómico","category":"gastronomia","lat":38.86978713821606,"lng":125.79188651149428,"avgVisitMinutes":26,"estimatedCostEur":21,"score":2.3348260512954724},{"id":"chunghwa_7930","citySlug":"chunghwa","name":"Restaurante Típico de Chunghwa","category":"gastronomia","lat":38.86161068113566,"lng":125.80876231998496,"avgVisitMinutes":23,"estimatedCostEur":18,"score":3.686059140629722},{"id":"chunghwa_4407","citySlug":"chunghwa","name":"Restaurante Típico de Chunghwa","category":"gastronomia","lat":38.86221244895932,"lng":125.7947168582161,"avgVisitMinutes":42,"estimatedCostEur":20,"score":3.5808792452031097},{"id":"chunghwa_4338","citySlug":"chunghwa","name":"Parque Central","category":"ocio","lat":38.86187664611783,"lng":125.79132096086279,"avgVisitMinutes":69,"estimatedCostEur":23,"score":2.776549667288832},{"id":"chunghwa_3208","citySlug":"chunghwa","name":"Zona Comercial","category":"ocio","lat":38.86314847567695,"lng":125.79567422074,"avgVisitMinutes":85,"estimatedCostEur":4,"score":2.582188873176097},{"id":"chunghwa_2364","citySlug":"chunghwa","name":"Playa Central","category":"playa","lat":38.86441050665726,"lng":125.79661943959637,"avgVisitMinutes":69,"estimatedCostEur":4,"score":4.4213201762739125},{"id":"chunghwa_7603","citySlug":"chunghwa","name":"Playa Norte","category":"playa","lat":38.85761359454882,"lng":125.80919218793228,"avgVisitMinutes":54,"estimatedCostEur":5,"score":0.5009129333551208},{"id":"chongju_3543","citySlug":"chongju","name":"Galería de Arte","category":"cultura","lat":39.68728997795698,"lng":125.21997418023322,"avgVisitMinutes":21,"estimatedCostEur":6,"score":0.6002628167497068},{"id":"chongju_1055","citySlug":"chongju","name":"Paseo Principal","category":"ocio","lat":39.68576344696108,"lng":125.21640371048206,"avgVisitMinutes":39,"estimatedCostEur":13,"score":4.613484841245745},{"id":"chongju_9660","citySlug":"chongju","name":"Playa Central","category":"playa","lat":39.69304115321104,"lng":125.21102145474234,"avgVisitMinutes":35,"estimatedCostEur":21,"score":2.913964584930069},{"id":"chongju_6495","citySlug":"chongju","name":"Mercado Gastronómico","category":"gastronomia","lat":39.70117523461655,"lng":125.20953933571977,"avgVisitMinutes":53,"estimatedCostEur":19,"score":1.5559779625186727},{"id":"chongju_9163","citySlug":"chongju","name":"Zona Comercial","category":"ocio","lat":39.69369823786069,"lng":125.22000581288596,"avgVisitMinutes":65,"estimatedCostEur":3,"score":1.9449967763665574},{"id":"chongju_4962","citySlug":"chongju","name":"Playa Sur","category":"playa","lat":39.70189649947294,"lng":125.21129481316773,"avgVisitMinutes":40,"estimatedCostEur":20,"score":4.858843208426381},{"id":"chongju_5400","citySlug":"chongju","name":"Iglesia de Chŏngju","category":"historia","lat":39.68546871755893,"lng":125.20912097352613,"avgVisitMinutes":40,"estimatedCostEur":22,"score":4.131218575614687},{"id":"chongdan-up_9375","citySlug":"chongdan-up","name":"Playa Central","category":"playa","lat":37.96031123937624,"lng":125.93654702827442,"avgVisitMinutes":68,"estimatedCostEur":15,"score":3.567866295060955},{"id":"chongdan-up_4566","citySlug":"chongdan-up","name":"Paseo Principal","category":"ocio","lat":37.96268510941673,"lng":125.93746581271522,"avgVisitMinutes":71,"estimatedCostEur":10,"score":2.718320212919686},{"id":"chongdan-up_2003","citySlug":"chongdan-up","name":"Museo Cultural de Ch’ŏngdan-ŭp","category":"cultura","lat":37.977647844006,"lng":125.92985736733505,"avgVisitMinutes":45,"estimatedCostEur":25,"score":2.980482503114351},{"id":"chongdan-up_1463","citySlug":"chongdan-up","name":"Museo Cultural de Ch’ŏngdan-ŭp","category":"cultura","lat":37.967312961362644,"lng":125.92838897389636,"avgVisitMinutes":20,"estimatedCostEur":2,"score":2.3517346876667355},