{"country":"LI","pois":[{"id":"vaduz_6207","citySlug":"vaduz","name":"Teatro Municipal","category":"cultura","lat":47.13269242670763,"lng":9.530169638651229,"avgVisitMinutes":80,"estimatedCostEur":13,"score":2.5077721622598257},{"id":"vaduz_4114","citySlug":"vaduz","name":"Restaurante Típico de Vaduz","category":"gastronomia","lat":47.13696642189003,"lng":9.529077385742669,"avgVisitMinutes":88,"estimatedCostEur":15,"score":1.3926920335492474},{"id":"vaduz_6665","citySlug":"vaduz","name":"Mercado Gastronómico","category":"gastronomia","lat":47.137191904519014,"lng":9.528687415385585,"avgVisitMinutes":69,"estimatedCostEur":14,"score":3.1829536475136875},{"id":"vaduz_6571","citySlug":"vaduz","name":"Playa Norte","category":"playa","lat":47.138504622694064,"lng":9.51320241260722,"avgVisitMinutes":78,"estimatedCostEur":20,"score":1.031831693736299},{"id":"vaduz_8402","citySlug":"vaduz","name":"Centro de Arte de Vaduz","category":"cultura","lat":47.139694624911485,"lng":9.52252235404372,"avgVisitMinutes":75,"estimatedCostEur":16,"score":3.060877418115505},{"id":"vaduz_2006","citySlug":"vaduz","name":"Mercado Gastronómico","category":"gastronomia","lat":47.14258158387539,"lng":9.518037987433695,"avgVisitMinutes":56,"estimatedCostEur":10,"score":1.265299021922623},{"id":"vaduz_9679","citySlug":"vaduz","name":"Museo Cultural de Vaduz","category":"cultura","lat":47.13418982249306,"lng":9.522649619794764,"avgVisitMinutes":57,"estimatedCostEur":25,"score":2.4170240157536513},{"id":"triesenberg_7930","citySlug":"triesenberg","name":"Mirador de Triesenberg","category":"mirador","lat":47.120637464919476,"lng":9.536109641788475,"avgVisitMinutes":31,"estimatedCostEur":14,"score":1.4788892729139516},{"id":"triesenberg_8623","citySlug":"triesenberg","name":"Mercado Gastronómico","category":"gastronomia","lat":47.11907626779556,"lng":9.537249719224333,"avgVisitMinutes":20,"estimatedCostEur":0,"score":2.103525744103896},{"id":"triesenberg_3636","citySlug":"triesenberg","name":"Paseo Principal","category":"ocio","lat":47.120260100025746,"lng":9.54775064792803,"avgVisitMinutes":45,"estimatedCostEur":14,"score":3.8855629876612405},{"id":"triesenberg_6689","citySlug":"triesenberg","name":"Paseo Principal","category":"ocio","lat":47.1132386311865,"lng":9.533063041453147,"avgVisitMinutes":40,"estimatedCostEur":16,"score":4.103873208640723},{"id":"triesenberg_7379","citySlug":"triesenberg","name":"Punto Panorámico","category":"mirador","lat":47.124526004460186,"lng":9.551894284776301,"avgVisitMinutes":44,"estimatedCostEur":21,"score":0.948344400077872},{"id":"triesenberg_9173","citySlug":"triesenberg","name":"Museo Local de Triesenberg","category":"historia","lat":47.11305184715641,"lng":9.541360051924674,"avgVisitMinutes":64,"estimatedCostEur":9,"score":1.987258250964165},{"id":"triesenberg_5468","citySlug":"triesenberg","name":"Centro de Arte de Triesenberg","category":"cultura","lat":47.11751077586643,"lng":9.54359345739962,"avgVisitMinutes":88,"estimatedCostEur":7,"score":3.5324453997190903},{"id":"triesenberg_3082","citySlug":"triesenberg","name":"Mirador de Triesenberg","category":"mirador","lat":47.117468850061144,"lng":9.550436879192068,"avgVisitMinutes":26,"estimatedCostEur":24,"score":1.965999845629989},{"id":"triesen_2264","citySlug":"triesen","name":"Playa Sur","category":"playa","lat":47.11021140523709,"lng":9.519663858325265,"avgVisitMinutes":85,"estimatedCostEur":4,"score":4.282255344514438},{"id":"triesen_2540","citySlug":"triesen","name":"Zona Comercial","category":"ocio","lat":47.107784385038926,"lng":9.53631208179392,"avgVisitMinutes":47,"estimatedCostEur":15,"score":3.6412433215023636},{"id":"triesen_7179","citySlug":"triesen","name":"Ruta de Tapas","category":"gastronomia","lat":47.1077678050532,"lng":9.522092295259172,"avgVisitMinutes":42,"estimatedCostEur":10,"score":3.8710368256799463},{"id":"triesen_5557","citySlug":"triesen","name":"Teatro Municipal","category":"cultura","lat":47.10385372976024,"lng":9.524907376282622,"avgVisitMinutes":33,"estimatedCostEur":2,"score":3.9541212167417408},{"id":"triesen_4055","citySlug":"triesen","name":"Iglesia de Triesen","category":"historia","lat":47.09943823919847,"lng":9.520540064402137,"avgVisitMinutes":24,"estimatedCostEur":8,"score":1.1074079860582196},{"id":"triesen_3318","citySlug":"triesen","name":"Iglesia de Triesen","category":"historia","lat":47.10715947343758,"lng":9.530472865372767,"avgVisitMinutes":26,"estimatedCostEur":6,"score":1.8375545014435875},{"id":"triesen_6793","citySlug":"triesen","name":"Punto Panorámico","category":"mirador","lat":47.10294398549986,"lng":9.536387525192005,"avgVisitMinutes":35,"estimatedCostEur":10,"score":2.725772208953222},{"id":"triesen_5803","citySlug":"triesen","name":"Restaurante Típico de Triesen","category":"gastronomia","lat":47.10014667572752,"lng":9.520626987811475,"avgVisitMinutes":50,"estimatedCostEur":0,"score":0.5286515716485256},{"id":"schellenberg_8267","citySlug":"schellenberg","name":"Parque Central","category":"ocio","lat":47.22127948810617,"lng":9.552388296729472,"avgVisitMinutes":47,"estimatedCostEur":20,"score":4.171468780187006},{"id":"schellenberg_4093","citySlug":"schellenberg","name":"Teatro Municipal","category":"cultura","lat":47.22471247806567,"lng":9.55536673445099,"avgVisitMinutes":61,"estimatedCostEur":21,"score":0.7951160648424281},{"id":"schellenberg_6087","citySlug":"schellenberg","name":"Mirador de Schellenberg","category":"mirador","lat":47.23851354287715,"lng":9.548504658520168,"avgVisitMinutes":89,"estimatedCostEur":3,"score":3.870601658648738},{"id":"schellenberg_3837","citySlug":"schellenberg","name":"Ruta de Tapas","category":"gastronomia","lat":47.2387106649838,"lng":9.543766387602346,"avgVisitMinutes":85,"estimatedCostEur":4,"score":3.373735616055919},{"id":"schellenberg_9289","citySlug":"schellenberg","name":"Murallas de Schellenberg","category":"historia","lat":47.227443442844766,"lng":9.536986614774383,"avgVisitMinutes":44,"estimatedCostEur":3,"score":3.0825139404952173},{"id":"schellenberg_7969","citySlug":"schellenberg","name":"Parque Central","category":"ocio","lat":47.24121306972222,"lng":9.55495597029746,"avgVisitMinutes":29,"estimatedCostEur":18,"score":4.995469973275608},{"id":"schaan_1860","citySlug":"schaan","name":"Mirador de Schaan","category":"mirador","lat":47.17020747809587,"lng":9.505337702396094,"avgVisitMinutes":56,"estimatedCostEur":25,"score":3.842795103456107},{"id":"schaan_6529","citySlug":"schaan","name":"Murallas de Schaan","category":"historia","lat":47.16917508947251,"lng":9.510494144344174,"avgVisitMinutes":62,"estimatedCostEur":22,"score":4.527271169487809},{"id":"schaan_8243","citySlug":"schaan","name":"Paseo Principal","category":"ocio","lat":47.16731866509777,"lng":9.501741315868266,"avgVisitMinutes":62,"estimatedCostEur":17,"score":1.1039513863906125},{"id":"schaan_4708","citySlug":"schaan","name":"Centro Histórico","category":"historia","lat":47.1641280225673,"lng":9.515040019224994,"avgVisitMinutes":58,"estimatedCostEur":9,"score":2.7312757310656886},{"id":"schaan_9300","citySlug":"schaan","name":"Paseo Principal","category":"ocio","lat":47.16513012567736,"lng":9.508310715847069,"avgVisitMinutes":51,"estimatedCostEur":12,"score":4.9343442559751125},{"id":"schaan_4087","citySlug":"schaan","name":"Museo Cultural de Schaan","category":"cultura","lat":47.16918294352474,"lng":9.502633562273218,"avgVisitMinutes":21,"estimatedCostEur":19,"score":0.6566937110383659},{"id":"schaan_1425","citySlug":"schaan","name":"Vista Alta de Schaan","category":"mirador","lat":47.169266973716084,"lng":9.500593719276647,"avgVisitMinutes":36,"estimatedCostEur":1,"score":2.4548333438067758},{"id":"schaan_6709","citySlug":"schaan","name":"Punto Panorámico","category":"mirador","lat":47.17457194568785,"lng":9.498673188389787,"avgVisitMinutes":20,"estimatedCostEur":23,"score":3.5181013598731106},{"id":"ruggell_7652","citySlug":"ruggell","name":"Castillo de Ruggell","category":"historia","lat":47.24724962758525,"lng":9.531140019087418,"avgVisitMinutes":36,"estimatedCostEur":5,"score":0.9017198482586414},{"id":"ruggell_7255","citySlug":"ruggell","name":"Mercado Gastronómico","category":"gastronomia","lat":47.23724944383389,"lng":9.527189420992142,"avgVisitMinutes":40,"estimatedCostEur":17,"score":1.2546605428210085},{"id":"ruggell_5076","citySlug":"ruggell","name":"Playa Sur","category":"playa","lat":47.246985022919475,"lng":9.522008916294688,"avgVisitMinutes":24,"estimatedCostEur":4,"score":3.822576023482643},{"id":"ruggell_2628","citySlug":"ruggell","name":"Galería de Arte","category":"cultura","lat":47.23358638537324,"lng":9.522483299467918,"avgVisitMinutes":56,"estimatedCostEur":15,"score":1.8759068969998827},{"id":"ruggell_2503","citySlug":"ruggell","name":"Museo Local de Ruggell","category":"historia","lat":47.23764712900952,"lng":9.534362474583128,"avgVisitMinutes":38,"estimatedCostEur":13,"score":4.183975341242319},{"id":"ruggell_9529","citySlug":"ruggell","name":"Mercado Gastronómico","category":"gastronomia","lat":47.23191431212863,"lng":9.523258221165602,"avgVisitMinutes":72,"estimatedCostEur":18,"score":4.75551724430259},{"id":"ruggell_7364","citySlug":"ruggell","name":"Zona Comercial","category":"ocio","lat":47.23355512067362,"lng":9.523878664342586,"avgVisitMinutes":52,"estimatedCostEur":3,"score":1.8707249330488414},{"id":"ruggell_6435","citySlug":"ruggell","name":"Punto Panorámico","category":"mirador","lat":47.23826242482424,"lng":9.525531804904722,"avgVisitMinutes":65,"estimatedCostEur":13,"score":3.5481944037964452},{"id":"ruggell_7265","citySlug":"ruggell","name":"Parque Central","category":"ocio","lat":47.23204687885241,"lng":9.530597528345416,"avgVisitMinutes":48,"estimatedCostEur":7,"score":0.7423619650940015},{"id":"ruggell_7129","citySlug":"ruggell","name":"Ruta de Tapas","category":"gastronomia","lat":47.23949875950581,"lng":9.520322743504881,"avgVisitMinutes":85,"estimatedCostEur":16,"score":4.457441946277179},{"id":"ruggell_6963","citySlug":"ruggell","name":"Paseo Principal","category":"ocio","lat":47.24731802487315,"lng":9.533127640756687,"avgVisitMinutes":39,"estimatedCostEur":18,"score":3.9977978433167087},{"id":"ruggell_2267","citySlug":"ruggell","name":"Playa Sur","category":"playa","lat":47.24751704443786,"lng":9.5155801990583,"avgVisitMinutes":53,"estimatedCostEur":2,"score":2.039926048880475},{"id":"planken_5674","citySlug":"planken","name":"Murallas de Planken","category":"historia","lat":47.17903961919403,"lng":9.55305726047814,"avgVisitMinutes":87,"estimatedCostEur":22,"score":3.299028429521562},{"id":"planken_3641","citySlug":"planken","name":"Museo Local de Planken","category":"historia","lat":47.17852739383832,"lng":9.546046030574116,"avgVisitMinutes":39,"estimatedCostEur":19,"score":1.0321902815886426},{"id":"planken_2970","citySlug":"planken","name":"Mirador de Planken","category":"mirador","lat":47.18754456795324,"lng":9.535314569769273,"avgVisitMinutes":22,"estimatedCostEur":3,"score":3.6385946949493277},{"id":"planken_8851","citySlug":"planken","name":"Murallas de Planken","category":"historia","lat":47.178166885544876,"lng":9.546587753132384,"avgVisitMinutes":23,"estimatedCostEur":17,"score":3.392575727013172},{"id":"planken_6110","citySlug":"planken","name":"Punto Panorámico","category":"mirador","lat":47.188456936980195,"lng":9.550073606928937,"avgVisitMinutes":30,"estimatedCostEur":10,"score":2.163359622358038},{"id":"planken_6379","citySlug":"planken","name":"Teatro Municipal","category":"cultura","lat":47.182961453862156,"lng":9.542506882617591,"avgVisitMinutes":75,"estimatedCostEur":10,"score":3.259224972701033},{"id":"planken_7775","citySlug":"planken","name":"Mirador de Planken","category":"mirador","lat":47.179093159781395,"lng":9.547659532246623,"avgVisitMinutes":87,"estimatedCostEur":25,"score":1.4471451005814975},{"id":"planken_4846","citySlug":"planken","name":"Vista Alta de Planken","category":"mirador","lat":47.17909092958757,"lng":9.545635713343719,"avgVisitMinutes":43,"estimatedCostEur":20,"score":0.5922963174786748},{"id":"nendeln_2321","citySlug":"nendeln","name":"Zona Comercial","category":"ocio","lat":47.20572457554245,"lng":9.550961405843553,"avgVisitMinutes":47,"estimatedCostEur":15,"score":2.3339761920295974},{"id":"nendeln_1031","citySlug":"nendeln","name":"Playa Norte","category":"playa","lat":47.20799543582472,"lng":9.542228520992305,"avgVisitMinutes":47,"estimatedCostEur":22,"score":4.971278491155787},{"id":"nendeln_2698","citySlug":"nendeln","name":"Playa Central","category":"playa","lat":47.20371372240695,"lng":9.541436691123216,"avgVisitMinutes":54,"estimatedCostEur":16,"score":1.541639197271244},{"id":"nendeln_6572","citySlug":"nendeln","name":"Teatro Municipal","category":"cultura","lat":47.20246781186469,"lng":9.537877068502015,"avgVisitMinutes":36,"estimatedCostEur":7,"score":2.9839812806595667},{"id":"nendeln_4301","citySlug":"nendeln","name":"Playa Norte","category":"playa","lat":47.19095586291674,"lng":9.541519051133294,"avgVisitMinutes":58,"estimatedCostEur":23,"score":0.709805710767981},{"id":"nendeln_3475","citySlug":"nendeln","name":"Museo Cultural de Nendeln","category":"cultura","lat":47.19872630255188,"lng":9.536461503252179,"avgVisitMinutes":39,"estimatedCostEur":10,"score":4.529902033801503},{"id":"mauren_3452","citySlug":"mauren","name":"Paseo Principal","category":"ocio","lat":47.22548978893658,"lng":9.546030353503372,"avgVisitMinutes":37,"estimatedCostEur":18,"score":0.9621606200713344},{"id":"mauren_7445","citySlug":"mauren","name":"Playa Sur","category":"playa","lat":47.22000251444101,"lng":9.550014035834648,"avgVisitMinutes":90,"estimatedCostEur":12,"score":1.5778825459327006},{"id":"mauren_5670","citySlug":"mauren","name":"Museo Local de Mauren","category":"historia","lat":47.208259456904926,"lng":9.538044846323995,"avgVisitMinutes":21,"estimatedCostEur":22,"score":4.1359452407621236},{"id":"mauren_6346","citySlug":"mauren","name":"Vista Alta de Mauren","category":"mirador","lat":47.22312013501407,"lng":9.544395841957222,"avgVisitMinutes":45,"estimatedCostEur":20,"score":1.9887326108420025},{"id":"mauren_3520","citySlug":"mauren","name":"Murallas de Mauren","category":"historia","lat":47.21511422556264,"lng":9.545098298834507,"avgVisitMinutes":37,"estimatedCostEur":18,"score":3.3720665954284357},{"id":"gamprin_3061","citySlug":"gamprin","name":"Centro de Arte de Gamprin","category":"cultura","lat":47.218009988923754,"lng":9.507775037783192,"avgVisitMinutes":78,"estimatedCostEur":25,"score":1.4369018660640844},{"id":"gamprin_8384","citySlug":"gamprin","name":"Mirador de Gamprin","category":"mirador","lat":47.227338223555954,"lng":9.500659095760195,"avgVisitMinutes":43,"estimatedCostEur":18,"score":2.2032592194929115},{"id":"gamprin_3288","citySlug":"gamprin","name":"Playa Norte","category":"playa","lat":47.22762300578394,"lng":9.506464240252242,"avgVisitMinutes":62,"estimatedCostEur":20,"score":0.9076360261582546},{"id":"gamprin_8916","citySlug":"gamprin","name":"Restaurante Típico de Gamprin","category":"gastronomia","lat":47.23029413130221,"lng":9.503759363796203,"avgVisitMinutes":88,"estimatedCostEur":4,"score":3.482167177678705},{"id":"gamprin_1919","citySlug":"gamprin","name":"Parque Central","category":"ocio","lat":47.22211730029796,"lng":9.515591367233524,"avgVisitMinutes":73,"estimatedCostEur":6,"score":2.1307089466688343},{"id":"gamprin_9428","citySlug":"gamprin","name":"Restaurante Típico de Gamprin","category":"gastronomia","lat":47.224327237892695,"lng":9.50673157876411,"avgVisitMinutes":40,"estimatedCostEur":19,"score":4.536446446419102},{"id":"gamprin_1971","citySlug":"gamprin","name":"Ruta de Tapas","category":"gastronomia","lat":47.21651269773808,"lng":9.513756071816404,"avgVisitMinutes":21,"estimatedCostEur":7,"score":4.2321193295242505},{"id":"gamprin_4557","citySlug":"gamprin","name":"Paseo Principal","category":"ocio","lat":47.217398066685554,"lng":9.50202645403241,"avgVisitMinutes":79,"estimatedCostEur":5,"score":1.1682509423390417},{"id":"gamprin_6430","citySlug":"gamprin","name":"Vista Alta de Gamprin","category":"mirador","lat":47.21437732663275,"lng":9.514916968182977,"avgVisitMinutes":60,"estimatedCostEur":2,"score":0.5667169745927317},{"id":"eschen_2523","citySlug":"eschen","name":"Vista Alta de Eschen","category":"mirador","lat":47.20660453724206,"lng":9.520654138918893,"avgVisitMinutes":66,"estimatedCostEur":12,"score":1.2372017016681298},{"id":"eschen_2255","citySlug":"eschen","name":"Centro de Arte de Eschen","category":"cultura","lat":47.21718142752119,"lng":9.525029054744298,"avgVisitMinutes":82,"estimatedCostEur":15,"score":3.5360129851573254},{"id":"eschen_8692","citySlug":"eschen","name":"Playa Norte","category":"playa","lat":47.203193815107674,"lng":9.528184280047997,"avgVisitMinutes":81,"estimatedCostEur":24,"score":2.16887219894119},{"id":"eschen_3735","citySlug":"eschen","name":"Parque Central","category":"ocio","lat":47.21178397997019,"lng":9.529833584828465,"avgVisitMinutes":56,"estimatedCostEur":9,"score":4.480679208652349},{"id":"eschen_9843","citySlug":"eschen","name":"Vista Alta de Eschen","category":"mirador","lat":47.21362371222805,"lng":9.513846849595833,"avgVisitMinutes":71,"estimatedCostEur":18,"score":1.8387047079022147},{"id":"eschen_5701","citySlug":"eschen","name":"Playa Sur","category":"playa","lat":47.2061226349971,"lng":9.524898360417756,"avgVisitMinutes":59,"estimatedCostEur":21,"score":3.5991662414195167},{"id":"eschen_1354","citySlug":"eschen","name":"Playa Sur","category":"playa","lat":47.21527118051681,"lng":9.528660769337266,"avgVisitMinutes":69,"estimatedCostEur":8,"score":2.061273560967314},{"id":"eschen_4134","citySlug":"eschen","name":"Punto Panorámico","category":"mirador","lat":47.216373806351214,"lng":9.527840206537748,"avgVisitMinutes":86,"estimatedCostEur":25,"score":4.428021670027799},{"id":"eschen_3057","citySlug":"eschen","name":"Parque Central","category":"ocio","lat":47.212920128843756,"lng":9.531059705537187,"avgVisitMinutes":34,"estimatedCostEur":1,"score":1.1269547890685474},{"id":"eschen_5255","citySlug":"eschen","name":"Iglesia de Eschen","category":"historia","lat":47.20886491432867,"lng":9.529259295225227,"avgVisitMinutes":60,"estimatedCostEur":15,"score":2.7195171265996567},{"id":"bendern_5420","citySlug":"bendern","name":"Parque Central","category":"ocio","lat":47.220717532077906,"lng":9.50874233394567,"avgVisitMinutes":88,"estimatedCostEur":8,"score":3.1170609402583866},{"id":"bendern_8483","citySlug":"bendern","name":"Punto Panorámico","category":"mirador","lat":47.20765128403026,"lng":9.502140147065225,"avgVisitMinutes":73,"estimatedCostEur":6,"score":3.2432517030500425},{"id":"bendern_3388","citySlug":"bendern","name":"Centro de Arte de Bendern","category":"cultura","lat":47.20349688559416,"lng":9.507739280246616,"avgVisitMinutes":67,"estimatedCostEur":3,"score":0.6937136332447661},{"id":"bendern_9613","citySlug":"bendern","name":"Vista Alta de Bendern","category":"mirador","lat":47.219124207644,"lng":9.51156310351031,"avgVisitMinutes":28,"estimatedCostEur":9,"score":3.6992096832245736},{"id":"bendern_7555","citySlug":"bendern","name":"Castillo de Bendern","category":"historia","lat":47.21958079110126,"lng":9.51514016800459,"avgVisitMinutes":71,"estimatedCostEur":0,"score":2.547235215374074},{"id":"bendern_1377","citySlug":"bendern","name":"Parque Central","category":"ocio","lat":47.21557574170947,"lng":9.514780436625426,"avgVisitMinutes":83,"estimatedCostEur":25,"score":4.024124477334276},{"id":"bendern_3234","citySlug":"bendern","name":"Playa Central","category":"playa","lat":47.22010703885366,"lng":9.499566046290234,"avgVisitMinutes":26,"estimatedCostEur":17,"score":1.328931786657794},{"id":"balzers_7156","citySlug":"balzers","name":"Paseo Principal","category":"ocio","lat":47.06977429675457,"lng":9.505055874394758,"avgVisitMinutes":52,"estimatedCostEur":19,"score":1.7305548848596843},{"id":"balzers_5754","citySlug":"balzers","name":"Playa Central","category":"playa","lat":47.07567116593348,"lng":9.49851749929118,"avgVisitMinutes":76,"estimatedCostEur":2,"score":0.7056428095077583},{"id":"balzers_5751","citySlug":"balzers","name":"Zona Comercial","category":"ocio","lat":47.07523378668646,"lng":9.500948174921728,"avgVisitMinutes":68,"estimatedCostEur":9,"score":2.242920202994119},{"id":"balzers_4690","citySlug":"balzers","name":"Restaurante Típico de Balzers","category":"gastronomia","lat":47.061085580634796,"lng":9.494844423431315,"avgVisitMinutes":34,"estimatedCostEur":2,"score":1.5765545508302534},{"id":"balzers_8857","citySlug":"balzers","name":"Centro Histórico","category":"historia","lat":47.0727826989669,"lng":9.502265280427755,"avgVisitMinutes":61,"estimatedCostEur":21,"score":3.7088740492266465},{"id":"balzers_8879","citySlug":"balzers","name":"Centro Histórico","category":"historia","lat":47.057979802026935,"lng":9.494119834918777,"avgVisitMinutes":83,"estimatedCostEur":19,"score":4.754838796013169},{"id":"balzers_3864","citySlug":"balzers","name":"Museo Local de Balzers","category":"historia","lat":47.06648350822913,"lng":9.506328863251056,"avgVisitMinutes":59,"estimatedCostEur":19,"score":2.8829818146414325},{"id":"balzers_4135","citySlug":"balzers","name":"Playa Norte","category":"playa","lat":47.07129769041019,"lng":9.49749989545383,"avgVisitMinutes":45,"estimatedCostEur":9,"score":1.3313036768126467},{"id":"balzers_5559","citySlug":"balzers","name":"Playa Sur","category":"playa","lat":47.075868911775935,"lng":9.510739848157176,"avgVisitMinutes":74,"estimatedCostEur":14,"score":1.4125440830861458},{"id":"mals_7618","citySlug":"mals","name":"Mercado Gastronómico","category":"gastronomia","lat":47.05251324760807,"lng":9.494189202251693,"avgVisitMinutes":51,"estimatedCostEur":12,"score":3.9026654130080787},{"id":"mals_3203","citySlug":"mals","name":"Mirador de Mäls","category":"mirador","lat":47.06314860047952,"lng":9.488537945898441,"avgVisitMinutes":48,"estimatedCostEur":20,"score":4.510411145916952},{"id":"mals_9856","citySlug":"mals","name":"Playa Norte","category":"playa","lat":47.06527975442557,"lng":9.494777180939495,"avgVisitMinutes":79,"estimatedCostEur":17,"score":4.034499942432037},{"id":"mals_7585","citySlug":"mals","name":"Museo Cultural de Mäls","category":"cultura","lat":47.057323782925316,"lng":9.499413509040881,"avgVisitMinutes":71,"estimatedCostEur":1,"score":3.6088177075897376},{"id":"mals_9514","citySlug":"mals","name":"Paseo Principal","category":"ocio","lat":47.0592155652799,"lng":9.485782575589797,"avgVisitMinutes":21,"estimatedCostEur":25,"score":2.9162251923880866},{"id":"mals_3606","citySlug":"mals","name":"Punto Panorámico","category":"mirador","lat":47.06647149921809,"lng":9.4963876386979,"avgVisitMinutes":20,"estimatedCostEur":15,"score":4.112266264133611},{"id":"mals_9623","citySlug":"mals","name":"Restaurante Típico de Mäls","category":"gastronomia","lat":47.061987754335895,"lng":9.493820880824794,"avgVisitMinutes":35,"estimatedCostEur":15,"score":1.2012953572281715},{"id":"mals_3567","citySlug":"mals","name":"Mercado Gastronómico","category":"gastronomia","lat":47.065120952519244,"lng":9.500833804062639,"avgVisitMinutes":58,"estimatedCostEur":3,"score":4.333066453722001}]}