{"country":"MN","pois":[{"id":"uliastay_9794","citySlug":"uliastay","name":"Mercado Gastronómico","category":"gastronomia","lat":47.73196386034633,"lng":96.84707494782181,"avgVisitMinutes":44,"estimatedCostEur":3,"score":3.162659705136627},{"id":"uliastay_5694","citySlug":"uliastay","name":"Mercado Gastronómico","category":"gastronomia","lat":47.745113432381544,"lng":96.84103201678391,"avgVisitMinutes":50,"estimatedCostEur":6,"score":4.857985237239076},{"id":"uliastay_6848","citySlug":"uliastay","name":"Centro de Arte de Uliastay","category":"cultura","lat":47.734690955280804,"lng":96.85406361712099,"avgVisitMinutes":72,"estimatedCostEur":2,"score":0.5625994614680698},{"id":"uliastay_5954","citySlug":"uliastay","name":"Murallas de Uliastay","category":"historia","lat":47.74102053981835,"lng":96.84665051514148,"avgVisitMinutes":55,"estimatedCostEur":1,"score":1.7018467045470302},{"id":"uliastay_7404","citySlug":"uliastay","name":"Zona Comercial","category":"ocio","lat":47.750135091696364,"lng":96.83449200523951,"avgVisitMinutes":51,"estimatedCostEur":2,"score":2.4408587849234107},{"id":"uliastay_2998","citySlug":"uliastay","name":"Punto Panorámico","category":"mirador","lat":47.73183355438634,"lng":96.84762187475268,"avgVisitMinutes":87,"estimatedCostEur":0,"score":1.522037920183489},{"id":"ulaangom_2900","citySlug":"ulaangom","name":"Playa Central","category":"playa","lat":49.9733856436301,"lng":92.06714086675515,"avgVisitMinutes":32,"estimatedCostEur":2,"score":2.919983655838829},{"id":"ulaangom_1087","citySlug":"ulaangom","name":"Punto Panorámico","category":"mirador","lat":49.97784748673715,"lng":92.0575357002934,"avgVisitMinutes":71,"estimatedCostEur":14,"score":0.9620537463783929},{"id":"ulaangom_5096","citySlug":"ulaangom","name":"Galería de Arte","category":"cultura","lat":49.973241736480446,"lng":92.07563179277544,"avgVisitMinutes":86,"estimatedCostEur":16,"score":3.2932379495103423},{"id":"ulaangom_4165","citySlug":"ulaangom","name":"Vista Alta de Ulaangom","category":"mirador","lat":49.97328404039375,"lng":92.057740279905,"avgVisitMinutes":41,"estimatedCostEur":14,"score":4.688120281294608},{"id":"ulaangom_9211","citySlug":"ulaangom","name":"Galería de Arte","category":"cultura","lat":49.9903073140183,"lng":92.07351911436473,"avgVisitMinutes":24,"estimatedCostEur":6,"score":4.307814833931321},{"id":"ulaangom_3892","citySlug":"ulaangom","name":"Museo Cultural de Ulaangom","category":"cultura","lat":49.98819962325876,"lng":92.07070362814689,"avgVisitMinutes":87,"estimatedCostEur":10,"score":2.450224644106186},{"id":"ulaangom_2412","citySlug":"ulaangom","name":"Centro de Arte de Ulaangom","category":"cultura","lat":49.98508004727572,"lng":92.06065512190845,"avgVisitMinutes":27,"estimatedCostEur":16,"score":2.7589032907316082},{"id":"ulaangom_4731","citySlug":"ulaangom","name":"Museo Local de Ulaangom","category":"historia","lat":49.984624118891496,"lng":92.06507789570892,"avgVisitMinutes":35,"estimatedCostEur":19,"score":3.515961299814874},{"id":"ulaangom_9521","citySlug":"ulaangom","name":"Playa Norte","category":"playa","lat":49.98071849827905,"lng":92.06965776177444,"avgVisitMinutes":72,"estimatedCostEur":8,"score":0.7595918047141306},{"id":"ulaangom_6192","citySlug":"ulaangom","name":"Restaurante Típico de Ulaangom","category":"gastronomia","lat":49.99070278230628,"lng":92.07107901949075,"avgVisitMinutes":31,"estimatedCostEur":13,"score":1.3039011482110898},{"id":"ulaangom_3444","citySlug":"ulaangom","name":"Paseo Principal","category":"ocio","lat":49.981857273244316,"lng":92.06098295706643,"avgVisitMinutes":27,"estimatedCostEur":23,"score":2.875931102438645},{"id":"tsagaannuur_7278","citySlug":"tsagaannuur","name":"Parque Central","category":"ocio","lat":49.51545835435386,"lng":89.73323873179345,"avgVisitMinutes":47,"estimatedCostEur":17,"score":3.8058917183298786},{"id":"tsagaannuur_2492","citySlug":"tsagaannuur","name":"Ruta de Tapas","category":"gastronomia","lat":49.506977449173434,"lng":89.72833707326001,"avgVisitMinutes":83,"estimatedCostEur":7,"score":1.6407681929935505},{"id":"tsagaannuur_9595","citySlug":"tsagaannuur","name":"Punto Panorámico","category":"mirador","lat":49.50730200493366,"lng":89.73224910004724,"avgVisitMinutes":52,"estimatedCostEur":7,"score":4.924792605632136},{"id":"tsagaannuur_9594","citySlug":"tsagaannuur","name":"Mirador de Tsagaannuur","category":"mirador","lat":49.508476518100245,"lng":89.72443163403021,"avgVisitMinutes":81,"estimatedCostEur":2,"score":3.159955143520597},{"id":"tsagaannuur_7237","citySlug":"tsagaannuur","name":"Mirador de Tsagaannuur","category":"mirador","lat":49.514417813745595,"lng":89.7344735685612,"avgVisitMinutes":53,"estimatedCostEur":13,"score":1.0399962979740487},{"id":"tsagaannuur_2336","citySlug":"tsagaannuur","name":"Castillo de Tsagaannuur","category":"historia","lat":49.50589019706192,"lng":89.7397796982684,"avgVisitMinutes":72,"estimatedCostEur":1,"score":1.2221362076272353},{"id":"tsagaannuur_9626","citySlug":"tsagaannuur","name":"Teatro Municipal","category":"cultura","lat":49.51575995557939,"lng":89.73808521099936,"avgVisitMinutes":83,"estimatedCostEur":6,"score":4.474992842026943},{"id":"tsagaannuur_2433","citySlug":"tsagaannuur","name":"Museo Cultural de Tsagaannuur","category":"cultura","lat":49.50902839413215,"lng":89.72902783422504,"avgVisitMinutes":28,"estimatedCostEur":19,"score":4.954208428367709},{"id":"tsagaannuur_5344","citySlug":"tsagaannuur","name":"Galería de Arte","category":"cultura","lat":49.49971399538948,"lng":89.72581867935719,"avgVisitMinutes":53,"estimatedCostEur":17,"score":3.7931922612216784},{"id":"tsagaannuur_7558","citySlug":"tsagaannuur","name":"Museo Cultural de Tsagaannuur","category":"cultura","lat":49.51264487744602,"lng":89.73087560052645,"avgVisitMinutes":25,"estimatedCostEur":23,"score":4.032362248830381},{"id":"tsagaannuur_1818","citySlug":"tsagaannuur","name":"Paseo Principal","category":"ocio","lat":49.50619508375084,"lng":89.73040972127805,"avgVisitMinutes":63,"estimatedCostEur":0,"score":3.4230839980571743},{"id":"tsagaannuur_8961","citySlug":"tsagaannuur","name":"Ruta de Tapas","category":"gastronomia","lat":49.50314775283499,"lng":89.72617198179658,"avgVisitMinutes":44,"estimatedCostEur":23,"score":1.7801236936941491},{"id":"tosontsengel_5357","citySlug":"tosontsengel","name":"Museo Local de Tosontsengel","category":"historia","lat":48.75068447054248,"lng":98.27466120616519,"avgVisitMinutes":56,"estimatedCostEur":12,"score":1.2829566776442485},{"id":"tosontsengel_7786","citySlug":"tosontsengel","name":"Mirador de Tosontsengel","category":"mirador","lat":48.76125904707144,"lng":98.29232280840723,"avgVisitMinutes":38,"estimatedCostEur":4,"score":2.240693512494431},{"id":"tosontsengel_3375","citySlug":"tosontsengel","name":"Playa Norte","category":"playa","lat":48.76458204745542,"lng":98.2792204142801,"avgVisitMinutes":43,"estimatedCostEur":14,"score":4.860500649479322},{"id":"tosontsengel_3158","citySlug":"tosontsengel","name":"Playa Norte","category":"playa","lat":48.750178997583156,"lng":98.28400268992824,"avgVisitMinutes":71,"estimatedCostEur":5,"score":3.0590379007378217},{"id":"tosontsengel_6166","citySlug":"tosontsengel","name":"Punto Panorámico","category":"mirador","lat":48.7631659743451,"lng":98.28995012820629,"avgVisitMinutes":75,"estimatedCostEur":24,"score":3.8391836286284553},{"id":"tosontsengel_8416","citySlug":"tosontsengel","name":"Museo Local de Tosontsengel","category":"historia","lat":48.75909610922527,"lng":98.27890644236298,"avgVisitMinutes":52,"estimatedCostEur":2,"score":1.8739090836378867},{"id":"olgii_2669","citySlug":"olgii","name":"Centro Histórico","category":"historia","lat":48.975403914131775,"lng":89.96396653023584,"avgVisitMinutes":25,"estimatedCostEur":24,"score":3.139390366754855},{"id":"olgii_4677","citySlug":"olgii","name":"Zona Comercial","category":"ocio","lat":48.973256893539535,"lng":89.96362086854357,"avgVisitMinutes":49,"estimatedCostEur":24,"score":3.071379350343469},{"id":"olgii_8078","citySlug":"olgii","name":"Teatro Municipal","category":"cultura","lat":48.969424379230254,"lng":89.96484370548785,"avgVisitMinutes":74,"estimatedCostEur":23,"score":3.991993193223859},{"id":"olgii_5598","citySlug":"olgii","name":"Centro Histórico","category":"historia","lat":48.95849355684905,"lng":89.95329673924155,"avgVisitMinutes":55,"estimatedCostEur":11,"score":3.693631258810194},{"id":"olgii_8573","citySlug":"olgii","name":"Iglesia de Ölgii","category":"historia","lat":48.97024110793419,"lng":89.95458340638987,"avgVisitMinutes":89,"estimatedCostEur":8,"score":1.0742641887003672},{"id":"olgii_9353","citySlug":"olgii","name":"Teatro Municipal","category":"cultura","lat":48.97702221460106,"lng":89.95500785229628,"avgVisitMinutes":20,"estimatedCostEur":9,"score":3.2083184842364636},{"id":"jargalant_2240","citySlug":"jargalant","name":"Vista Alta de Jargalant","category":"mirador","lat":46.92482794107638,"lng":91.08786705756597,"avgVisitMinutes":22,"estimatedCostEur":24,"score":3.4421396165309766},{"id":"jargalant_6482","citySlug":"jargalant","name":"Zona Comercial","category":"ocio","lat":46.917180563889445,"lng":91.09183169832471,"avgVisitMinutes":72,"estimatedCostEur":15,"score":1.5292309148564547},{"id":"jargalant_7387","citySlug":"jargalant","name":"Mercado Gastronómico","category":"gastronomia","lat":46.92093288995313,"lng":91.08276438658564,"avgVisitMinutes":53,"estimatedCostEur":11,"score":2.7222188371203844},{"id":"jargalant_8274","citySlug":"jargalant","name":"Playa Sur","category":"playa","lat":46.91846618876853,"lng":91.09581824198132,"avgVisitMinutes":22,"estimatedCostEur":2,"score":3.396831629864145},{"id":"jargalant_1065","citySlug":"jargalant","name":"Castillo de Jargalant","category":"historia","lat":46.93494254919734,"lng":91.0967016331055,"avgVisitMinutes":79,"estimatedCostEur":17,"score":1.3662879162603665},{"id":"jargalant_2711","citySlug":"jargalant","name":"Restaurante Típico de Jargalant","category":"gastronomia","lat":46.919956016371664,"lng":91.09335096133614,"avgVisitMinutes":72,"estimatedCostEur":16,"score":3.024601918151871},{"id":"jargalant_3385","citySlug":"jargalant","name":"Centro de Arte de Jargalant","category":"cultura","lat":46.91897736875867,"lng":91.07915051805398,"avgVisitMinutes":24,"estimatedCostEur":10,"score":4.588649445757067},{"id":"jargalant_5578","citySlug":"jargalant","name":"Restaurante Típico de Jargalant","category":"gastronomia","lat":46.91896300463798,"lng":91.08065008122544,"avgVisitMinutes":37,"estimatedCostEur":25,"score":4.481052124784805},{"id":"jargalant_7521","citySlug":"jargalant","name":"Mercado Gastronómico","category":"gastronomia","lat":46.92932246359731,"lng":91.09650473643421,"avgVisitMinutes":43,"estimatedCostEur":7,"score":4.227318528395368},{"id":"jargalant_1814","citySlug":"jargalant","name":"Vista Alta de Jargalant","category":"mirador","lat":46.92013966317969,"lng":91.07957226787101,"avgVisitMinutes":46,"estimatedCostEur":19,"score":0.8092711015063654},{"id":"khovd_8155","citySlug":"khovd","name":"Castillo de Khovd","category":"historia","lat":48.00168507342717,"lng":91.64601358367966,"avgVisitMinutes":83,"estimatedCostEur":7,"score":4.860744262726182},{"id":"khovd_7375","citySlug":"khovd","name":"Centro de Arte de Khovd","category":"cultura","lat":48.00121396633717,"lng":91.63245367368597,"avgVisitMinutes":71,"estimatedCostEur":11,"score":1.5015344494214233},{"id":"khovd_6858","citySlug":"khovd","name":"Playa Central","category":"playa","lat":48.00584944510859,"lng":91.64880506386676,"avgVisitMinutes":26,"estimatedCostEur":18,"score":2.167906842290234},{"id":"khovd_1824","citySlug":"khovd","name":"Punto Panorámico","category":"mirador","lat":48.00169507925363,"lng":91.63581836679514,"avgVisitMinutes":38,"estimatedCostEur":9,"score":3.7869643762925667},{"id":"khovd_2551","citySlug":"khovd","name":"Zona Comercial","category":"ocio","lat":48.00119624880236,"lng":91.64175882062622,"avgVisitMinutes":43,"estimatedCostEur":16,"score":1.1596129485072606},{"id":"khovd_6865","citySlug":"khovd","name":"Mirador de Khovd","category":"mirador","lat":48.00791779344988,"lng":91.64191925461174,"avgVisitMinutes":33,"estimatedCostEur":22,"score":0.6173577795402224},{"id":"khovd_8123","citySlug":"khovd","name":"Museo Cultural de Khovd","category":"cultura","lat":48.00966071782431,"lng":91.64427345627607,"avgVisitMinutes":84,"estimatedCostEur":18,"score":4.726076010035084},{"id":"khovd_1130","citySlug":"khovd","name":"Centro Histórico","category":"historia","lat":48.014436686824205,"lng":91.64928235600652,"avgVisitMinutes":31,"estimatedCostEur":18,"score":4.573094424588718},{"id":"khovd_3839","citySlug":"khovd","name":"Mirador de Khovd","category":"mirador","lat":48.00889309614818,"lng":91.63914189377792,"avgVisitMinutes":53,"estimatedCostEur":12,"score":3.6232090978149474},{"id":"khovd_4951","citySlug":"khovd","name":"Ruta de Tapas","category":"gastronomia","lat":48.00123915920979,"lng":91.65130716844571,"avgVisitMinutes":86,"estimatedCostEur":19,"score":3.155928526323411},{"id":"khovd_5607","citySlug":"khovd","name":"Parque Central","category":"ocio","lat":48.00331034797363,"lng":91.64504123404683,"avgVisitMinutes":84,"estimatedCostEur":18,"score":1.6688113418687158},{"id":"burenhayrhan_1247","citySlug":"burenhayrhan","name":"Paseo Principal","category":"ocio","lat":46.08443354151003,"lng":91.55444060282244,"avgVisitMinutes":88,"estimatedCostEur":1,"score":3.589638276982311},{"id":"burenhayrhan_9980","citySlug":"burenhayrhan","name":"Iglesia de Bürenhayrhan","category":"historia","lat":46.09084015911745,"lng":91.55435797746982,"avgVisitMinutes":60,"estimatedCostEur":19,"score":0.5630111567289637},{"id":"burenhayrhan_9105","citySlug":"burenhayrhan","name":"Parque Central","category":"ocio","lat":46.08755224412523,"lng":91.53844714817716,"avgVisitMinutes":86,"estimatedCostEur":7,"score":4.57895897506315},{"id":"burenhayrhan_7154","citySlug":"burenhayrhan","name":"Centro Histórico","category":"historia","lat":46.08249169296764,"lng":91.53805347494692,"avgVisitMinutes":42,"estimatedCostEur":13,"score":3.837045807638983},{"id":"burenhayrhan_3955","citySlug":"burenhayrhan","name":"Vista Alta de Bürenhayrhan","category":"mirador","lat":46.09174975266749,"lng":91.55612460789675,"avgVisitMinutes":82,"estimatedCostEur":25,"score":4.108287624634528},{"id":"altai_4347","citySlug":"altai","name":"Castillo de Altai","category":"historia","lat":46.36412827071362,"lng":96.2499101234894,"avgVisitMinutes":36,"estimatedCostEur":25,"score":4.922957303379347},{"id":"altai_6418","citySlug":"altai","name":"Museo Local de Altai","category":"historia","lat":46.374096452738996,"lng":96.25359546838293,"avgVisitMinutes":38,"estimatedCostEur":6,"score":1.0919859964577636},{"id":"altai_4505","citySlug":"altai","name":"Playa Norte","category":"playa","lat":46.37061418774832,"lng":96.26192597371805,"avgVisitMinutes":53,"estimatedCostEur":9,"score":1.1494449999067302},{"id":"altai_9172","citySlug":"altai","name":"Parque Central","category":"ocio","lat":46.375241977294856,"lng":96.24878434827443,"avgVisitMinutes":38,"estimatedCostEur":3,"score":1.7676006493210255},{"id":"altai_4961","citySlug":"altai","name":"Ruta de Tapas","category":"gastronomia","lat":46.380376835062954,"lng":96.26581768186945,"avgVisitMinutes":23,"estimatedCostEur":16,"score":2.062248414963789},{"id":"ulaanhudag_3933","citySlug":"ulaanhudag","name":"Zona Comercial","category":"ocio","lat":47.34093866253444,"lng":104.49631236540539,"avgVisitMinutes":46,"estimatedCostEur":11,"score":4.657382723722826},{"id":"ulaanhudag_6571","citySlug":"ulaanhudag","name":"Ruta de Tapas","category":"gastronomia","lat":47.33739801142904,"lng":104.50439051103088,"avgVisitMinutes":68,"estimatedCostEur":16,"score":2.6201682043303314},{"id":"ulaanhudag_7780","citySlug":"ulaanhudag","name":"Playa Sur","category":"playa","lat":47.339742886441506,"lng":104.49352629586586,"avgVisitMinutes":56,"estimatedCostEur":13,"score":2.6663388149202185},{"id":"ulaanhudag_8036","citySlug":"ulaanhudag","name":"Parque Central","category":"ocio","lat":47.340529493571225,"lng":104.50717675688594,"avgVisitMinutes":84,"estimatedCostEur":1,"score":1.4473884915586241},{"id":"ulaanhudag_7013","citySlug":"ulaanhudag","name":"Restaurante Típico de Ulaanhudag","category":"gastronomia","lat":47.33849550900719,"lng":104.50747353959075,"avgVisitMinutes":69,"estimatedCostEur":25,"score":0.7856672506038272},{"id":"ulaanhudag_7301","citySlug":"ulaanhudag","name":"Zona Comercial","category":"ocio","lat":47.32415370506187,"lng":104.50588647437836,"avgVisitMinutes":46,"estimatedCostEur":18,"score":2.762421931089818},{"id":"ulaanhudag_1708","citySlug":"ulaanhudag","name":"Playa Norte","category":"playa","lat":47.326438778128384,"lng":104.49214396419814,"avgVisitMinutes":53,"estimatedCostEur":24,"score":3.8708698307610816},{"id":"ulaanhudag_4283","citySlug":"ulaanhudag","name":"Murallas de Ulaanhudag","category":"historia","lat":47.33301346756126,"lng":104.4918976759018,"avgVisitMinutes":29,"estimatedCostEur":23,"score":3.529650501354257},{"id":"ulaanhudag_9670","citySlug":"ulaanhudag","name":"Museo Cultural de Ulaanhudag","category":"cultura","lat":47.3392131590125,"lng":104.50623361477554,"avgVisitMinutes":46,"estimatedCostEur":15,"score":3.6697517394079155},{"id":"ulaanhudag_1250","citySlug":"ulaanhudag","name":"Museo Local de Ulaanhudag","category":"historia","lat":47.32355219981038,"lng":104.498329591505,"avgVisitMinutes":45,"estimatedCostEur":22,"score":3.7846596534210963},{"id":"ulan-bator_2562","citySlug":"ulan-bator","name":"Parque Central","category":"ocio","lat":47.90998944052489,"lng":106.88430961757314,"avgVisitMinutes":80,"estimatedCostEur":8,"score":4.6690964520652996},{"id":"ulan-bator_7623","citySlug":"ulan-bator","name":"Mercado Gastronómico","category":"gastronomia","lat":47.90239921753662,"lng":106.87486326418964,"avgVisitMinutes":56,"estimatedCostEur":1,"score":3.196219908297948},{"id":"ulan-bator_4519","citySlug":"ulan-bator","name":"Museo Local de Ulan Bator","category":"historia","lat":47.917026126753235,"lng":106.88093944661702,"avgVisitMinutes":76,"estimatedCostEur":3,"score":3.582355571277256},{"id":"ulan-bator_5615","citySlug":"ulan-bator","name":"Centro de Arte de Ulan Bator","category":"cultura","lat":47.90059996032273,"lng":106.87819512404563,"avgVisitMinutes":38,"estimatedCostEur":16,"score":1.022489847249987},{"id":"ulan-bator_8485","citySlug":"ulan-bator","name":"Playa Central","category":"playa","lat":47.91546826501808,"lng":106.87357778895091,"avgVisitMinutes":63,"estimatedCostEur":5,"score":0.7018497526083592},{"id":"ulan-bator_4219","citySlug":"ulan-bator","name":"Murallas de Ulan Bator","category":"historia","lat":47.91466755343429,"lng":106.87378823893162,"avgVisitMinutes":44,"estimatedCostEur":13,"score":1.9490472272810258},{"id":"ulan-bator_6256","citySlug":"ulan-bator","name":"Ruta de Tapas","category":"gastronomia","lat":47.9067306329198,"lng":106.8887763886257,"avgVisitMinutes":25,"estimatedCostEur":17,"score":4.669713266660969},{"id":"ulan-bator_2848","citySlug":"ulan-bator","name":"Mercado Gastronómico","category":"gastronomia","lat":47.91668804455862,"lng":106.88854598265007,"avgVisitMinutes":48,"estimatedCostEur":15,"score":2.285370422413579},{"id":"ulan-bator_5590","citySlug":"ulan-bator","name":"Vista Alta de Ulan Bator","category":"mirador","lat":47.91271165174824,"lng":106.88796430701797,"avgVisitMinutes":21,"estimatedCostEur":20,"score":0.6845088823386543},{"id":"ulan-bator_9344","citySlug":"ulan-bator","name":"Playa Central","category":"playa","lat":47.9135709865275,"lng":106.88810013555694,"avgVisitMinutes":40,"estimatedCostEur":20,"score":2.331620832364534},{"id":"ulan-bator_4251","citySlug":"ulan-bator","name":"Centro Histórico","category":"historia","lat":47.900443040834446,"lng":106.87507950188295,"avgVisitMinutes":75,"estimatedCostEur":8,"score":1.444943770674178},{"id":"turt_1499","citySlug":"turt","name":"Vista Alta de Turt","category":"mirador","lat":51.49746054736756,"lng":100.66738047264751,"avgVisitMinutes":90,"estimatedCostEur":6,"score":1.0993179138253852},{"id":"turt_2340","citySlug":"turt","name":"Vista Alta de Turt","category":"mirador","lat":51.51640185218613,"lng":100.65690637656725,"avgVisitMinutes":72,"estimatedCostEur":22,"score":4.316983736023696},{"id":"turt_7966","citySlug":"turt","name":"Ruta de Tapas","category":"gastronomia","lat":51.51170020035377,"lng":100.6677948378671,"avgVisitMinutes":53,"estimatedCostEur":4,"score":1.788784543006267},{"id":"turt_7880","citySlug":"turt","name":"Teatro Municipal","category":"cultura","lat":51.50654316391045,"lng":100.66150132932142,"avgVisitMinutes":64,"estimatedCostEur":9,"score":3.892368708884519},{"id":"turt_4773","citySlug":"turt","name":"Ruta de Tapas","category":"gastronomia","lat":51.511233185757995,"lng":100.65841789143849,"avgVisitMinutes":77,"estimatedCostEur":24,"score":2.731398144968365},{"id":"turt_9639","citySlug":"turt","name":"Murallas de Turt","category":"historia","lat":51.498644031885235,"lng":100.66019034240243,"avgVisitMinutes":79,"estimatedCostEur":14,"score":3.146203243632431},{"id":"turt_8493","citySlug":"turt","name":"Mirador de Turt","category":"mirador","lat":51.50509177571763,"lng":100.6668890898453,"avgVisitMinutes":59,"estimatedCostEur":20,"score":3.346676585433916},{"id":"tsetserleg_4479","citySlug":"tsetserleg","name":"Playa Central","category":"playa","lat":47.47220542755813,"lng":101.46114307992057,"avgVisitMinutes":43,"estimatedCostEur":12,"score":4.739938329620101},{"id":"tsetserleg_7504","citySlug":"tsetserleg","name":"Parque Central","category":"ocio","lat":47.48422873506517,"lng":101.46404931636262,"avgVisitMinutes":26,"estimatedCostEur":8,"score":4.950933423270643},{"id":"tsetserleg_3028","citySlug":"tsetserleg","name":"Ruta de Tapas","category":"gastronomia","lat":47.477881648431406,"lng":101.4595439843384,"avgVisitMinutes":35,"estimatedCostEur":20,"score":4.747944711819702},{"id":"tsetserleg_6812","citySlug":"tsetserleg","name":"Murallas de Tsetserleg","category":"historia","lat":47.483420788304855,"lng":101.4470211410291,"avgVisitMinutes":55,"estimatedCostEur":13,"score":2.353915138886976},{"id":"tsetserleg_9027","citySlug":"tsetserleg","name":"Mercado Gastronómico","category":"gastronomia","lat":47.47563952887621,"lng":101.44837311484244,"avgVisitMinutes":70,"estimatedCostEur":21,"score":2.0477106800794567},{"id":"tsetserleg_7689","citySlug":"tsetserleg","name":"Teatro Municipal","category":"cultura","lat":47.46744435161735,"lng":101.45033344060275,"avgVisitMinutes":27,"estimatedCostEur":20,"score":3.108893739400196},{"id":"tsetserleg_1852","citySlug":"tsetserleg","name":"Vista Alta de Tsetserleg","category":"mirador","lat":47.46552826866438,"lng":101.46340013100311,"avgVisitMinutes":28,"estimatedCostEur":18,"score":1.0531590010903058},{"id":"tsetserleg_7546","citySlug":"tsetserleg","name":"Mercado Gastronómico","category":"gastronomia","lat":47.47524526121872,"lng":101.45261483510184,"avgVisitMinutes":37,"estimatedCostEur":20,"score":4.049146339961368},{"id":"tsetserleg_7876","citySlug":"tsetserleg","name":"Centro de Arte de Tsetserleg","category":"cultura","lat":47.47472698420911,"lng":101.4605262656301,"avgVisitMinutes":72,"estimatedCostEur":14,"score":2.591228037695091},{"id":"tsetserleg_3539","citySlug":"tsetserleg","name":"Parque Central","category":"ocio","lat":47.46645100316307,"lng":101.4451949844824,"avgVisitMinutes":83,"estimatedCostEur":20,"score":2.0151213111099913},{"id":"tsengel_6106","citySlug":"tsengel","name":"Centro Histórico","category":"historia","lat":49.477005478500715,"lng":100.89490131836929,"avgVisitMinutes":62,"estimatedCostEur":0,"score":3.1002200412985554},{"id":"tsengel_4334","citySlug":"tsengel","name":"Parque Central","category":"ocio","lat":49.48389359837667,"lng":100.88532351779881,"avgVisitMinutes":32,"estimatedCostEur":14,"score":0.6908424423777743},{"id":"tsengel_2590","citySlug":"tsengel","name":"Restaurante Típico de Tsengel","category":"gastronomia","lat":49.473610252813465,"lng":100.89603759683536,"avgVisitMinutes":55,"estimatedCostEur":12,"score":1.5661310590080473},{"id":"tsengel_7681","citySlug":"tsengel","name":"Playa Sur","category":"playa","lat":49.479199193601374,"lng":100.89074509387439,"avgVisitMinutes":86,"estimatedCostEur":22,"score":0.9815990653392958},{"id":"tsengel_5743","citySlug":"tsengel","name":"Punto Panorámico","category":"mirador","lat":49.46980637853768,"lng":100.88520780031814,"avgVisitMinutes":74,"estimatedCostEur":4,"score":3.7174768450326647},{"id":"tsengel_8337","citySlug":"tsengel","name":"Playa Central","category":"playa","lat":49.4757575038144,"lng":100.88213304369542,"avgVisitMinutes":27,"estimatedCostEur":19,"score":4.524257476337513},{"id":"dashinchilling_6708","citySlug":"dashinchilling","name":"Iglesia de Dashinchilling","category":"historia","lat":47.859992264490806,"lng":104.05286920738276,"avgVisitMinutes":87,"estimatedCostEur":24,"score":3.3824968619744227},{"id":"dashinchilling_8258","citySlug":"dashinchilling","name":"Playa Sur","category":"playa","lat":47.84779279041297,"lng":104.04996868900537,"avgVisitMinutes":28,"estimatedCostEur":7,"score":4.336513787393341},{"id":"dashinchilling_2020","citySlug":"dashinchilling","name":"Zona Comercial","category":"ocio","lat":47.84758751383036,"lng":104.05175547476192,"avgVisitMinutes":21,"estimatedCostEur":13,"score":3.92118109659479},{"id":"dashinchilling_8407","citySlug":"dashinchilling","name":"Restaurante Típico de Dashinchilling","category":"gastronomia","lat":47.8545471484117,"lng":104.05289849217856,"avgVisitMinutes":41,"estimatedCostEur":14,"score":0.850569091005225},{"id":"dashinchilling_2458","citySlug":"dashinchilling","name":"Murallas de Dashinchilling","category":"historia","lat":47.84739747381908,"lng":104.0499076596479,"avgVisitMinutes":32,"estimatedCostEur":17,"score":4.76428378541819},{"id":"suhbaatar_9951","citySlug":"suhbaatar","name":"Centro de Arte de Sühbaatar","category":"cultura","lat":50.23462185040273,"lng":106.20090987611792,"avgVisitMinutes":49,"estimatedCostEur":14,"score":3.7866929858329805},{"id":"suhbaatar_1934","citySlug":"suhbaatar","name":"Galería de Arte","category":"cultura","lat":50.227690836462806,"lng":106.21326252558129,"avgVisitMinutes":82,"estimatedCostEur":8,"score":0.9064736395343629},{"id":"suhbaatar_3229","citySlug":"suhbaatar","name":"Centro Histórico","category":"historia","lat":50.22658479128524,"lng":106.21267249700229,"avgVisitMinutes":90,"estimatedCostEur":2,"score":1.28953438140605},{"id":"suhbaatar_2627","citySlug":"suhbaatar","name":"Museo Cultural de Sühbaatar","category":"cultura","lat":50.23354181588803,"lng":106.20813613020826,"avgVisitMinutes":24,"estimatedCostEur":22,"score":1.1845498898763869},{"id":"suhbaatar_7755","citySlug":"suhbaatar","name":"Ruta de Tapas","category":"gastronomia","lat":50.234428794096495,"lng":106.19912840201664,"avgVisitMinutes":35,"estimatedCostEur":19,"score":0.6356805141640649},{"id":"suhbaatar_2017","citySlug":"suhbaatar","name":"Iglesia de Sühbaatar","category":"historia","lat":50.230240367981885,"lng":106.21097626628767,"avgVisitMinutes":66,"estimatedCostEur":19,"score":3.039499503922116},{"id":"suhbaatar_2755","citySlug":"suhbaatar","name":"Museo Cultural de Sühbaatar","category":"cultura","lat":50.234129281221314,"lng":106.20550543834224,"avgVisitMinutes":42,"estimatedCostEur":6,"score":3.3524564527042338},{"id":"suhbaatar_4075","citySlug":"suhbaatar","name":"Museo Local de Sühbaatar","category":"historia","lat":50.233402330029996,"lng":106.2014451128615,"avgVisitMinutes":20,"estimatedCostEur":6,"score":0.7769936127179704},{"id":"suhbaatar_4760","citySlug":"suhbaatar","name":"Teatro Municipal","category":"cultura","lat":50.2276557767935,"lng":106.19867045579738,"avgVisitMinutes":47,"estimatedCostEur":4,"score":3.1783018837002746},{"id":"suhbaatar_7814","citySlug":"suhbaatar","name":"Playa Central","category":"playa","lat":50.22952833407889,"lng":106.20186871860835,"avgVisitMinutes":78,"estimatedCostEur":14,"score":2.407691587915412},{"id":"suhbaatar_5990","citySlug":"suhbaatar","name":"Mercado Gastronómico","category":"gastronomia","lat":50.2413890991291,"lng":106.21617548829377,"avgVisitMinutes":31,"estimatedCostEur":21,"score":2.581680164264287},{"id":"suhbaatar_1312","citySlug":"suhbaatar","name":"Parque Central","category":"ocio","lat":50.22927855255534,"lng":106.2117632142465,"avgVisitMinutes":64,"estimatedCostEur":0,"score":1.3845723664999317},{"id":"sort_8949","citySlug":"sort","name":"Murallas de Sört","category":"historia","lat":49.31211515747155,"lng":104.37980927242636,"avgVisitMinutes":32,"estimatedCostEur":11,"score":2.951606618898598},{"id":"sort_4356","citySlug":"sort","name":"Mercado Gastronómico","category":"gastronomia","lat":49.32287833553394,"lng":104.3859155179812,"avgVisitMinutes":63,"estimatedCostEur":14,"score":3.39953807788223},{"id":"sort_6474","citySlug":"sort","name":"Playa Norte","category":"playa","lat":49.327369780077206,"lng":104.38474440885456,"avgVisitMinutes":34,"estimatedCostEur":13,"score":2.4012605286902744},{"id":"sort_1481","citySlug":"sort","name":"Mercado Gastronómico","category":"gastronomia","lat":49.31462775157656,"lng":104.37700480803315,"avgVisitMinutes":76,"estimatedCostEur":20,"score":3.677935661797115},{"id":"sort_5710","citySlug":"sort","name":"Museo Cultural de Sört","category":"cultura","lat":49.310037592606214,"lng":104.37586653426447,"avgVisitMinutes":50,"estimatedCostEur":2,"score":3.477219437555522},{"id":"sort_8465","citySlug":"sort","name":"Teatro Municipal","category":"cultura","lat":49.31202462420271,"lng":104.39129821571255,"avgVisitMinutes":61,"estimatedCostEur":15,"score":3.2299119143123547},{"id":"sort_2904","citySlug":"sort","name":"Murallas de Sört","category":"historia","lat":49.32279582203812,"lng":104.3812934854968,"avgVisitMinutes":45,"estimatedCostEur":0,"score":4.62456999691424},{"id":"sort_5202","citySlug":"sort","name":"Ruta de Tapas","category":"gastronomia","lat":49.32391159572095,"lng":104.37340564148838,"avgVisitMinutes":72,"estimatedCostEur":7,"score":3.1725145128880867},{"id":"sort_5180","citySlug":"sort","name":"Teatro Municipal","category":"cultura","lat":49.32206827394666,"lng":104.37381143419019,"avgVisitMinutes":84,"estimatedCostEur":11,"score":2.8198323989680176},{"id":"sort_8536","citySlug":"sort","name":"Mercado Gastronómico","category":"gastronomia","lat":49.308286897928404,"lng":104.37308889886064,"avgVisitMinutes":87,"estimatedCostEur":6,"score":3.29453096015296},{"id":"sort_8557","citySlug":"sort","name":"Restaurante Típico de Sört","category":"gastronomia","lat":49.31684678373784,"lng":104.39195081158144,"avgVisitMinutes":41,"estimatedCostEur":10,"score":4.564463171117749},{"id":"sort_9606","citySlug":"sort","name":"Playa Norte","category":"playa","lat":49.32212496104772,"lng":104.37226878861637,"avgVisitMinutes":84,"estimatedCostEur":5,"score":2.525391662214675},{"id":"sharingol_1769","citySlug":"sharingol","name":"Museo Local de Sharïngol","category":"historia","lat":49.229295292204704,"lng":106.43747672707242,"avgVisitMinutes":32,"estimatedCostEur":4,"score":3.050057850280384},{"id":"sharingol_6062","citySlug":"sharingol","name":"Restaurante Típico de Sharïngol","category":"gastronomia","lat":49.22788578873507,"lng":106.42188244908758,"avgVisitMinutes":23,"estimatedCostEur":23,"score":4.8503399929487685},{"id":"sharingol_6052","citySlug":"sharingol","name":"Playa Norte","category":"playa","lat":49.231771665946496,"lng":106.43982385708111,"avgVisitMinutes":55,"estimatedCostEur":9,"score":4.93383721766052},{"id":"sharingol_3317","citySlug":"sharingol","name":"Restaurante Típico de Sharïngol","category":"gastronomia","lat":49.22911879521442,"lng":106.42192164331395,"avgVisitMinutes":60,"estimatedCostEur":3,"score":4.926417218959504},{"id":"sharingol_4355","citySlug":"sharingol","name":"Playa Sur","category":"playa","lat":49.24132822480877,"lng":106.42969154702494,"avgVisitMinutes":52,"estimatedCostEur":19,"score":2.8960624166810085},{"id":"sharingol_4107","citySlug":"sharingol","name":"Parque Central","category":"ocio","lat":49.23140375041215,"lng":106.42552322201949,"avgVisitMinutes":90,"estimatedCostEur":23,"score":1.1148852964583993},{"id":"sharingol_1845","citySlug":"sharingol","name":"Punto Panorámico","category":"mirador","lat":49.237663908212845,"lng":106.43675122465538,"avgVisitMinutes":24,"estimatedCostEur":13,"score":3.5376571221897266},{"id":"sharga_2782","citySlug":"sharga","name":"Galería de Arte","category":"cultura","lat":49.042631093374,"lng":102.09084466391306,"avgVisitMinutes":27,"estimatedCostEur":8,"score":0.5922112298644648},{"id":"sharga_6785","citySlug":"sharga","name":"Playa Norte","category":"playa","lat":49.04095912957225,"lng":102.08152429664402,"avgVisitMinutes":69,"estimatedCostEur":12,"score":4.090191438628185},{"id":"sharga_1247","citySlug":"sharga","name":"Centro de Arte de Sharga","category":"cultura","lat":49.045328821647296,"lng":102.08720588896729,"avgVisitMinutes":28,"estimatedCostEur":11,"score":2.668133505947803},{"id":"sharga_5263","citySlug":"sharga","name":"Paseo Principal","category":"ocio","lat":49.03405949388851,"lng":102.09170860915103,"avgVisitMinutes":89,"estimatedCostEur":20,"score":1.7792914080072644},{"id":"sharga_7386","citySlug":"sharga","name":"Mirador de Sharga","category":"mirador","lat":49.047670054317635,"lng":102.09023397337194,"avgVisitMinutes":72,"estimatedCostEur":22,"score":3.0546909982644044},{"id":"sharga_1947","citySlug":"sharga","name":"Teatro Municipal","category":"cultura","lat":49.03678327088169,"lng":102.08328877091675,"avgVisitMinutes":23,"estimatedCostEur":1,"score":3.9844546593566275},{"id":"sharga_6663","citySlug":"sharga","name":"Zona Comercial","category":"ocio","lat":49.04017276160905,"lng":102.09023028158138,"avgVisitMinutes":67,"estimatedCostEur":6,"score":1.7518301767543982},{"id":"sharga_3505","citySlug":"sharga","name":"Restaurante Típico de Sharga","category":"gastronomia","lat":49.04886040141817,"lng":102.09740884318809,"avgVisitMinutes":45,"estimatedCostEur":5,"score":0.7672385202685967},{"id":"sharga_6098","citySlug":"sharga","name":"Playa Central","category":"playa","lat":49.04202303064103,"lng":102.0873817542335,"avgVisitMinutes":45,"estimatedCostEur":25,"score":4.501720021267135},{"id":"sharga_8003","citySlug":"sharga","name":"Centro Histórico","category":"historia","lat":49.033672640653,"lng":102.09359291277562,"avgVisitMinutes":35,"estimatedCostEur":25,"score":4.595185490127367},{"id":"sharga_3113","citySlug":"sharga","name":"Punto Panorámico","category":"mirador","lat":49.037934560448385,"lng":102.0952603415395,"avgVisitMinutes":76,"estimatedCostEur":1,"score":4.0520536579904425},{"id":"undurkhaan_8572","citySlug":"undurkhaan","name":"Ruta de Tapas","category":"gastronomia","lat":47.322226146715884,"lng":110.64629578274658,"avgVisitMinutes":62,"estimatedCostEur":12,"score":4.284328916640148},{"id":"undurkhaan_1356","citySlug":"undurkhaan","name":"Restaurante Típico de Undurkhaan","category":"gastronomia","lat":47.329244309974875,"lng":110.66183109664297,"avgVisitMinutes":41,"estimatedCostEur":8,"score":4.215167654364195},{"id":"undurkhaan_1674","citySlug":"undurkhaan","name":"Playa Sur","category":"playa","lat":47.31783855467932,"lng":110.66163019113881,"avgVisitMinutes":67,"estimatedCostEur":17,"score":0.820457533764174},{"id":"undurkhaan_8979","citySlug":"undurkhaan","name":"Ruta de Tapas","category":"gastronomia","lat":47.328087100132564,"lng":110.65395920316672,"avgVisitMinutes":36,"estimatedCostEur":6,"score":3.113186499529601},{"id":"undurkhaan_4950","citySlug":"undurkhaan","name":"Centro Histórico","category":"historia","lat":47.31008164362699,"lng":110.65440648730737,"avgVisitMinutes":61,"estimatedCostEur":5,"score":2.4756840465308683},{"id":"undurkhaan_8533","citySlug":"undurkhaan","name":"Centro de Arte de Undurkhaan","category":"cultura","lat":47.32558499301286,"lng":110.6523465905206,"avgVisitMinutes":21,"estimatedCostEur":5,"score":3.9787220144059514},{"id":"undurkhaan_2665","citySlug":"undurkhaan","name":"Museo Cultural de Undurkhaan","category":"cultura","lat":47.31154950285238,"lng":110.64882800628007,"avgVisitMinutes":61,"estimatedCostEur":3,"score":1.0581716083519233},{"id":"undurkhaan_1165","citySlug":"undurkhaan","name":"Ruta de Tapas","category":"gastronomia","lat":47.31631614355577,"lng":110.64998326252746,"avgVisitMinutes":77,"estimatedCostEur":19,"score":3.1571531568342657},{"id":"undurkhaan_8915","citySlug":"undurkhaan","name":"Vista Alta de Undurkhaan","category":"mirador","lat":47.32075604779898,"lng":110.65959985217482,"avgVisitMinutes":28,"estimatedCostEur":6,"score":3.3956068435740523},{"id":"undurkhaan_6581","citySlug":"undurkhaan","name":"Restaurante Típico de Undurkhaan","category":"gastronomia","lat":47.31551565719214,"lng":110.66478188807773,"avgVisitMinutes":58,"estimatedCostEur":21,"score":3.84904802271469},{"id":"nalayh_1947","citySlug":"nalayh","name":"Castillo de Nalayh","category":"historia","lat":47.7706190054823,"lng":107.27999818267487,"avgVisitMinutes":46,"estimatedCostEur":0,"score":0.8593410975257073},{"id":"nalayh_5891","citySlug":"nalayh","name":"Zona Comercial","category":"ocio","lat":47.763976868492925,"lng":107.29252428759723,"avgVisitMinutes":60,"estimatedCostEur":14,"score":4.9890702536331295},{"id":"nalayh_3217","citySlug":"nalayh","name":"Playa Norte","category":"playa","lat":47.75997143316419,"lng":107.28690982481822,"avgVisitMinutes":32,"estimatedCostEur":20,"score":3.3679783057674926},{"id":"nalayh_8738","citySlug":"nalayh","name":"Zona Comercial","category":"ocio","lat":47.77480107615731,"lng":107.28669950160715,"avgVisitMinutes":64,"estimatedCostEur":9,"score":2.611182669464666},{"id":"nalayh_6864","citySlug":"nalayh","name":"Playa Sur","category":"playa","lat":47.76382282989274,"lng":107.29214563594716,"avgVisitMinutes":64,"estimatedCostEur":15,"score":3.1588841507779573},{"id":"nalayh_4903","citySlug":"nalayh","name":"Parque Central","category":"ocio","lat":47.76917207228935,"lng":107.28464249853553,"avgVisitMinutes":54,"estimatedCostEur":25,"score":2.3058229321425436},{"id":"nalayh_4621","citySlug":"nalayh","name":"Playa Central","category":"playa","lat":47.76550960099483,"lng":107.27476346926717,"avgVisitMinutes":77,"estimatedCostEur":3,"score":3.2750266250432114},{"id":"nalayh_4938","citySlug":"nalayh","name":"Centro de Arte de Nalayh","category":"cultura","lat":47.75743808166778,"lng":107.29274449447226,"avgVisitMinutes":29,"estimatedCostEur":5,"score":4.701862181986824},{"id":"nalayh_5232","citySlug":"nalayh","name":"Ruta de Tapas","category":"gastronomia","lat":47.75872169892832,"lng":107.27757340079357,"avgVisitMinutes":78,"estimatedCostEur":16,"score":2.668741830914442},{"id":"moron_9714","citySlug":"moron","name":"Ruta de Tapas","category":"gastronomia","lat":49.6305559196017,"lng":100.16274277045993,"avgVisitMinutes":67,"estimatedCostEur":18,"score":3.0399152555078164},{"id":"moron_2922","citySlug":"moron","name":"Centro Histórico","category":"historia","lat":49.62464885761952,"lng":100.16184810212457,"avgVisitMinutes":38,"estimatedCostEur":6,"score":1.6359148057469024},{"id":"moron_6403","citySlug":"moron","name":"Mirador de Mörön","category":"mirador","lat":49.62536041508271,"lng":100.16253543570946,"avgVisitMinutes":33,"estimatedCostEur":17,"score":2.756094482442957},{"id":"moron_9183","citySlug":"moron","name":"Paseo Principal","category":"ocio","lat":49.62576575200288,"lng":100.15529302459902,"avgVisitMinutes":81,"estimatedCostEur":12,"score":3.8925591833044493},{"id":"moron_4886","citySlug":"moron","name":"Paseo Principal","category":"ocio","lat":49.628608631708744,"lng":100.16428728634479,"avgVisitMinutes":77,"estimatedCostEur":25,"score":0.8374354967291457},{"id":"moron_1995","citySlug":"moron","name":"Playa Sur","category":"playa","lat":49.63087961677342,"lng":100.15660258852718,"avgVisitMinutes":20,"estimatedCostEur":8,"score":1.3197489628018328},{"id":"moron_1874","citySlug":"moron","name":"Iglesia de Mörön","category":"historia","lat":49.62716290504223,"lng":100.16840526787146,"avgVisitMinutes":90,"estimatedCostEur":4,"score":1.7265937245161944},{"id":"moron_6546","citySlug":"moron","name":"Teatro Municipal","category":"cultura","lat":49.635870549516625,"lng":100.15690043841856,"avgVisitMinutes":86,"estimatedCostEur":13,"score":1.4479329114465624},{"id":"mandalgovi_5447","citySlug":"mandalgovi","name":"Playa Central","category":"playa","lat":45.75846917345715,"lng":106.27517366124896,"avgVisitMinutes":24,"estimatedCostEur":23,"score":2.7402948406529095},{"id":"mandalgovi_8021","citySlug":"mandalgovi","name":"Zona Comercial","category":"ocio","lat":45.759319408520376,"lng":106.26809159954347,"avgVisitMinutes":36,"estimatedCostEur":6,"score":4.748130075812054},{"id":"mandalgovi_5255","citySlug":"mandalgovi","name":"Restaurante Típico de Mandalgovi","category":"gastronomia","lat":45.759519643918125,"lng":106.2616521954379,"avgVisitMinutes":90,"estimatedCostEur":25,"score":3.672343054687166},{"id":"mandalgovi_7956","citySlug":"mandalgovi","name":"Galería de Arte","category":"cultura","lat":45.75492924313969,"lng":106.27012977920343,"avgVisitMinutes":49,"estimatedCostEur":14,"score":2.0397253036381064},{"id":"mandalgovi_8725","citySlug":"mandalgovi","name":"Playa Sur","category":"playa","lat":45.754812550194536,"lng":106.26642994183175,"avgVisitMinutes":32,"estimatedCostEur":15,"score":1.3830656756693642},{"id":"mandalgovi_9095","citySlug":"mandalgovi","name":"Museo Cultural de Mandalgovi","category":"cultura","lat":45.759307168147664,"lng":106.27802402822596,"avgVisitMinutes":20,"estimatedCostEur":6,"score":2.322326446469628},{"id":"mandalgovi_8303","citySlug":"mandalgovi","name":"Murallas de Mandalgovi","category":"historia","lat":45.76804902409067,"lng":106.27971954999327,"avgVisitMinutes":48,"estimatedCostEur":21,"score":3.648663503070531},{"id":"mandalgovi_8275","citySlug":"mandalgovi","name":"Mirador de Mandalgovi","category":"mirador","lat":45.76724558332164,"lng":106.27047603782925,"avgVisitMinutes":77,"estimatedCostEur":9,"score":3.653101088444416},{"id":"mandalgovi_5839","citySlug":"mandalgovi","name":"Ruta de Tapas","category":"gastronomia","lat":45.77048186292154,"lng":106.27926734300868,"avgVisitMinutes":71,"estimatedCostEur":12,"score":2.3691228664786257},{"id":"mandalgovi_6478","citySlug":"mandalgovi","name":"Zona Comercial","category":"ocio","lat":45.76653720008344,"lng":106.27743362287806,"avgVisitMinutes":47,"estimatedCostEur":0,"score":2.9345480240304482},{"id":"mandalgovi_5568","citySlug":"mandalgovi","name":"Centro Histórico","category":"historia","lat":45.76068814756047,"lng":106.26320669029185,"avgVisitMinutes":52,"estimatedCostEur":25,"score":2.829211963831858},{"id":"mandalgovi_4325","citySlug":"mandalgovi","name":"Punto Panorámico","category":"mirador","lat":45.76583808201488,"lng":106.27388938782653,"avgVisitMinutes":37,"estimatedCostEur":18,"score":4.049997817749545},{"id":"hutag_6246","citySlug":"hutag","name":"Castillo de Hutag","category":"historia","lat":49.39113740471118,"lng":102.69055621124225,"avgVisitMinutes":21,"estimatedCostEur":5,"score":1.8793622536538956},{"id":"hutag_4018","citySlug":"hutag","name":"Murallas de Hutag","category":"historia","lat":49.4003362280087,"lng":102.69301162148741,"avgVisitMinutes":44,"estimatedCostEur":13,"score":3.248638034288795},{"id":"hutag_9359","citySlug":"hutag","name":"Punto Panorámico","category":"mirador","lat":49.402068755292554,"lng":102.68467157843956,"avgVisitMinutes":73,"estimatedCostEur":25,"score":2.2878991151973547},{"id":"hutag_1903","citySlug":"hutag","name":"Castillo de Hutag","category":"historia","lat":49.39743351378541,"lng":102.68386224860637,"avgVisitMinutes":74,"estimatedCostEur":6,"score":2.3391071276862867},{"id":"hutag_3059","citySlug":"hutag","name":"Castillo de Hutag","category":"historia","lat":49.393788199465874,"lng":102.68569947671305,"avgVisitMinutes":42,"estimatedCostEur":22,"score":1.4326653569839614},{"id":"hutag_9119","citySlug":"hutag","name":"Iglesia de Hutag","category":"historia","lat":49.38532782628237,"lng":102.69154139399943,"avgVisitMinutes":44,"estimatedCostEur":1,"score":2.6495884513988455},{"id":"hutag_8227","citySlug":"hutag","name":"Castillo de Hutag","category":"historia","lat":49.404798288667784,"lng":102.69275842037148,"avgVisitMinutes":80,"estimatedCostEur":1,"score":1.1061008217098505},{"id":"hutag_5010","citySlug":"hutag","name":"Vista Alta de Hutag","category":"mirador","lat":49.386249719147784,"lng":102.70305675432905,"avgVisitMinutes":84,"estimatedCostEur":14,"score":3.1207306971833204},{"id":"hutag_6844","citySlug":"hutag","name":"Punto Panorámico","category":"mirador","lat":49.39690054234747,"lng":102.68526310108163,"avgVisitMinutes":45,"estimatedCostEur":0,"score":1.3772320034378822},{"id":"hutag_1088","citySlug":"hutag","name":"Playa Norte","category":"playa","lat":49.394866776954416,"lng":102.69941571149194,"avgVisitMinutes":50,"estimatedCostEur":24,"score":1.2026400095329948},{"id":"hutag_2882","citySlug":"hutag","name":"Murallas de Hutag","category":"historia","lat":49.399811250713974,"lng":102.69585027783211,"avgVisitMinutes":74,"estimatedCostEur":23,"score":3.524019611352384},{"id":"hutag_5461","citySlug":"hutag","name":"Murallas de Hutag","category":"historia","lat":49.402173425068725,"lng":102.69439616982758,"avgVisitMinutes":76,"estimatedCostEur":25,"score":2.6079532877905063},{"id":"bogd_8172","citySlug":"bogd","name":"Restaurante Típico de Bogd","category":"gastronomia","lat":44.667589293163864,"lng":102.18387026008548,"avgVisitMinutes":21,"estimatedCostEur":2,"score":1.8832688421385961},{"id":"bogd_3495","citySlug":"bogd","name":"Zona Comercial","category":"ocio","lat":44.672262236656316,"lng":102.18044629022747,"avgVisitMinutes":56,"estimatedCostEur":16,"score":2.9930668540881484},{"id":"bogd_1456","citySlug":"bogd","name":"Zona Comercial","category":"ocio","lat":44.669582722426114,"lng":102.18437995123793,"avgVisitMinutes":58,"estimatedCostEur":11,"score":4.082695437172354},{"id":"bogd_7513","citySlug":"bogd","name":"Castillo de Bogd","category":"historia","lat":44.66803254670332,"lng":102.17074307898723,"avgVisitMinutes":66,"estimatedCostEur":11,"score":3.787089199004033},{"id":"bogd_1292","citySlug":"bogd","name":"Museo Local de Bogd","category":"historia","lat":44.664600126435765,"lng":102.17625763437162,"avgVisitMinutes":27,"estimatedCostEur":24,"score":1.4656567871038257},{"id":"bogd_2595","citySlug":"bogd","name":"Centro de Arte de Bogd","category":"cultura","lat":44.6625388360004,"lng":102.1777171619179,"avgVisitMinutes":81,"estimatedCostEur":4,"score":4.655756004480983},{"id":"bogd_9769","citySlug":"bogd","name":"Museo Local de Bogd","category":"historia","lat":44.67317381232373,"lng":102.18082794481734,"avgVisitMinutes":21,"estimatedCostEur":3,"score":4.948405859746145},{"id":"bogd_5516","citySlug":"bogd","name":"Paseo Principal","category":"ocio","lat":44.67384062065803,"lng":102.17092015402993,"avgVisitMinutes":87,"estimatedCostEur":11,"score":3.854606719432758},{"id":"bogd_3569","citySlug":"bogd","name":"Centro de Arte de Bogd","category":"cultura","lat":44.673539569295805,"lng":102.17868817854072,"avgVisitMinutes":46,"estimatedCostEur":25,"score":1.8620587513565312},{"id":"hongor_5456","citySlug":"hongor","name":"Mercado Gastronómico","category":"gastronomia","lat":45.800312479596975,"lng":111.19814150769456,"avgVisitMinutes":58,"estimatedCostEur":21,"score":4.420204672216657},{"id":"hongor_6822","citySlug":"hongor","name":"Paseo Principal","category":"ocio","lat":45.79279201247013,"lng":111.20709651396349,"avgVisitMinutes":74,"estimatedCostEur":23,"score":4.5741662396289495},{"id":"hongor_9169","citySlug":"hongor","name":"Castillo de Hongor","category":"historia","lat":45.79017579574354,"lng":111.20681828348982,"avgVisitMinutes":29,"estimatedCostEur":19,"score":4.132160079030309},{"id":"hongor_8210","citySlug":"hongor","name":"Parque Central","category":"ocio","lat":45.794063466978606,"lng":111.20307615415632,"avgVisitMinutes":72,"estimatedCostEur":4,"score":1.7846257952799185},{"id":"hongor_9206","citySlug":"hongor","name":"Museo Local de Hongor","category":"historia","lat":45.80241014575603,"lng":111.19650093177795,"avgVisitMinutes":68,"estimatedCostEur":11,"score":4.565963763501489},{"id":"hongor_5993","citySlug":"hongor","name":"Ruta de Tapas","category":"gastronomia","lat":45.79053960114109,"lng":111.205255599899,"avgVisitMinutes":72,"estimatedCostEur":21,"score":1.9314900023439754},{"id":"hongor_5853","citySlug":"hongor","name":"Castillo de Hongor","category":"historia","lat":45.792452447398695,"lng":111.19264496215234,"avgVisitMinutes":29,"estimatedCostEur":16,"score":3.885031227690535},{"id":"orhon_7274","citySlug":"orhon","name":"Playa Central","category":"playa","lat":49.82851628612244,"lng":106.13839623870297,"avgVisitMinutes":32,"estimatedCostEur":21,"score":3.15753660955571},{"id":"orhon_6269","citySlug":"orhon","name":"Centro de Arte de Orhon","category":"cultura","lat":49.83033641810903,"lng":106.12815388289998,"avgVisitMinutes":55,"estimatedCostEur":15,"score":0.535114532308081},{"id":"orhon_5905","citySlug":"orhon","name":"Zona Comercial","category":"ocio","lat":49.84212420881783,"lng":106.14482659648374,"avgVisitMinutes":38,"estimatedCostEur":5,"score":3.0889590966309615},{"id":"orhon_3654","citySlug":"orhon","name":"Playa Norte","category":"playa","lat":49.82715320816593,"lng":106.12749929095531,"avgVisitMinutes":47,"estimatedCostEur":14,"score":4.683561138106726},{"id":"orhon_8902","citySlug":"orhon","name":"Punto Panorámico","category":"mirador","lat":49.84125809695366,"lng":106.13448044430683,"avgVisitMinutes":80,"estimatedCostEur":17,"score":1.5674452884359602},{"id":"orhon_4498","citySlug":"orhon","name":"Centro de Arte de Orhon","category":"cultura","lat":49.834194019158815,"lng":106.12749883279118,"avgVisitMinutes":55,"estimatedCostEur":1,"score":4.422707653331665},{"id":"orhon_6267","citySlug":"orhon","name":"Mercado Gastronómico","category":"gastronomia","lat":49.84157069032406,"lng":106.13826956028564,"avgVisitMinutes":62,"estimatedCostEur":3,"score":1.5112878850319298},{"id":"orhon_7058","citySlug":"orhon","name":"Playa Norte","category":"playa","lat":49.83829111305285,"lng":106.13322802533744,"avgVisitMinutes":68,"estimatedCostEur":1,"score":3.4315335032009573},{"id":"orhon_6193","citySlug":"orhon","name":"Museo Local de Orhon","category":"historia","lat":49.83418395218856,"lng":106.14249616925085,"avgVisitMinutes":66,"estimatedCostEur":25,"score":3.1332145439219694},{"id":"orhon_9454","citySlug":"orhon","name":"Centro Histórico","category":"historia","lat":49.83656004390432,"lng":106.13628542520057,"avgVisitMinutes":52,"estimatedCostEur":14,"score":0.6511840817667953},{"id":"halhgol_9356","citySlug":"halhgol","name":"Zona Comercial","category":"ocio","lat":48.180114838836275,"lng":114.90641741376106,"avgVisitMinutes":25,"estimatedCostEur":14,"score":0.8206781603108055},{"id":"halhgol_7566","citySlug":"halhgol","name":"Mirador de Halhgol","category":"mirador","lat":48.175740989478435,"lng":114.90979322025626,"avgVisitMinutes":54,"estimatedCostEur":9,"score":4.281134412363523},{"id":"halhgol_9442","citySlug":"halhgol","name":"Vista Alta de Halhgol","category":"mirador","lat":48.18479606004949,"lng":114.89775979660111,"avgVisitMinutes":63,"estimatedCostEur":13,"score":3.835843271843051},{"id":"halhgol_7466","citySlug":"halhgol","name":"Mirador de Halhgol","category":"mirador","lat":48.17858292060916,"lng":114.90615140148974,"avgVisitMinutes":83,"estimatedCostEur":3,"score":1.2945680206336652},{"id":"halhgol_7973","citySlug":"halhgol","name":"Paseo Principal","category":"ocio","lat":48.19316195390573,"lng":114.89435037522696,"avgVisitMinutes":79,"estimatedCostEur":5,"score":2.471055066222072},{"id":"halhgol_8530","citySlug":"halhgol","name":"Punto Panorámico","category":"mirador","lat":48.179464553919736,"lng":114.90483069248639,"avgVisitMinutes":33,"estimatedCostEur":17,"score":2.438909903579848},{"id":"halhgol_3777","citySlug":"halhgol","name":"Teatro Municipal","category":"cultura","lat":48.1738948097603,"lng":114.90556264493172,"avgVisitMinutes":88,"estimatedCostEur":19,"score":4.190487276541306},{"id":"ergel_8668","citySlug":"ergel","name":"Museo Local de Ergel","category":"historia","lat":43.14083643124827,"lng":109.1266638899511,"avgVisitMinutes":28,"estimatedCostEur":7,"score":4.036680132330055},{"id":"ergel_7286","citySlug":"ergel","name":"Teatro Municipal","category":"cultura","lat":43.146255526235315,"lng":109.14168643748624,"avgVisitMinutes":63,"estimatedCostEur":12,"score":0.8340175937156638},{"id":"ergel_2074","citySlug":"ergel","name":"Playa Sur","category":"playa","lat":43.15649728797158,"lng":109.12358389975822,"avgVisitMinutes":70,"estimatedCostEur":18,"score":2.3600743433256657},{"id":"ergel_1933","citySlug":"ergel","name":"Museo Cultural de Ergel","category":"cultura","lat":43.144132058898116,"lng":109.12384821602923,"avgVisitMinutes":55,"estimatedCostEur":24,"score":1.338641908201871},{"id":"ergel_6832","citySlug":"ergel","name":"Playa Sur","category":"playa","lat":43.14757202620316,"lng":109.13656157124237,"avgVisitMinutes":64,"estimatedCostEur":2,"score":4.334500906228627},{"id":"ergel_4127","citySlug":"ergel","name":"Museo Cultural de Ergel","category":"cultura","lat":43.14930044138223,"lng":109.12596303473751,"avgVisitMinutes":84,"estimatedCostEur":12,"score":4.95722136547646},{"id":"ergel_9729","citySlug":"ergel","name":"Castillo de Ergel","category":"historia","lat":43.148055715082634,"lng":109.13165054985564,"avgVisitMinutes":31,"estimatedCostEur":4,"score":1.9536851092455456},{"id":"ergel_6513","citySlug":"ergel","name":"Playa Sur","category":"playa","lat":43.14797292596803,"lng":109.13522114581619,"avgVisitMinutes":40,"estimatedCostEur":13,"score":4.297727687823881},{"id":"ergel_5548","citySlug":"ergel","name":"Playa Central","category":"playa","lat":43.1540229595378,"lng":109.12368453030982,"avgVisitMinutes":69,"estimatedCostEur":21,"score":1.0074594022679888},{"id":"ergel_9612","citySlug":"ergel","name":"Mirador de Ergel","category":"mirador","lat":43.15369112055768,"lng":109.1282593676888,"avgVisitMinutes":44,"estimatedCostEur":24,"score":4.677714202545645},{"id":"erdenet_4665","citySlug":"erdenet","name":"Vista Alta de Erdenet","category":"mirador","lat":49.031161853877194,"lng":104.07725706867807,"avgVisitMinutes":79,"estimatedCostEur":0,"score":3.6912058389257583},{"id":"erdenet_3018","citySlug":"erdenet","name":"Playa Sur","category":"playa","lat":49.03511882591071,"lng":104.08630138010089,"avgVisitMinutes":59,"estimatedCostEur":14,"score":3.769957086054555},{"id":"erdenet_4881","citySlug":"erdenet","name":"Playa Sur","category":"playa","lat":49.02668066874123,"lng":104.0735053297696,"avgVisitMinutes":21,"estimatedCostEur":3,"score":0.7622085432434453},{"id":"erdenet_1304","citySlug":"erdenet","name":"Mirador de Erdenet","category":"mirador","lat":49.0275081445755,"lng":104.07412949551197,"avgVisitMinutes":74,"estimatedCostEur":9,"score":3.845852620081393},{"id":"erdenet_9482","citySlug":"erdenet","name":"Playa Sur","category":"playa","lat":49.035819478809,"lng":104.08913379526595,"avgVisitMinutes":44,"estimatedCostEur":17,"score":4.925468985010496},{"id":"erdenet_1807","citySlug":"erdenet","name":"Zona Comercial","category":"ocio","lat":49.0413493670909,"lng":104.07993936131933,"avgVisitMinutes":67,"estimatedCostEur":2,"score":4.425165463976995},{"id":"dzuunmod_7147","citySlug":"dzuunmod","name":"Zona Comercial","category":"ocio","lat":47.6987865241677,"lng":106.9588828263355,"avgVisitMinutes":52,"estimatedCostEur":23,"score":4.823425225199347},{"id":"dzuunmod_2704","citySlug":"dzuunmod","name":"Paseo Principal","category":"ocio","lat":47.71402233668183,"lng":106.96055620338288,"avgVisitMinutes":60,"estimatedCostEur":10,"score":4.835157840577847},{"id":"dzuunmod_1653","citySlug":"dzuunmod","name":"Paseo Principal","category":"ocio","lat":47.69864611079894,"lng":106.96081515135019,"avgVisitMinutes":45,"estimatedCostEur":19,"score":3.12949800818061},{"id":"dzuunmod_2579","citySlug":"dzuunmod","name":"Museo Local de Dzuunmod","category":"historia","lat":47.701066966790776,"lng":106.94556841889461,"avgVisitMinutes":63,"estimatedCostEur":14,"score":2.2767225388238153},{"id":"dzuunmod_7719","citySlug":"dzuunmod","name":"Mercado Gastronómico","category":"gastronomia","lat":47.71230992745591,"lng":106.96083457400512,"avgVisitMinutes":72,"estimatedCostEur":17,"score":2.111024470939106},{"id":"dzuunmod_7669","citySlug":"dzuunmod","name":"Museo Local de Dzuunmod","category":"historia","lat":47.7015750528505,"lng":106.95809976885779,"avgVisitMinutes":61,"estimatedCostEur":21,"score":4.9477685348181115},{"id":"dzuunharaa_8319","citySlug":"dzuunharaa","name":"Mercado Gastronómico","category":"gastronomia","lat":48.845150176779335,"lng":106.45102289581105,"avgVisitMinutes":35,"estimatedCostEur":24,"score":3.1750203496146763},{"id":"dzuunharaa_4707","citySlug":"dzuunharaa","name":"Restaurante Típico de Dzüünharaa","category":"gastronomia","lat":48.85910745906039,"lng":106.46282154200583,"avgVisitMinutes":61,"estimatedCostEur":0,"score":3.700631730761938},{"id":"dzuunharaa_4650","citySlug":"dzuunharaa","name":"Ruta de Tapas","category":"gastronomia","lat":48.85928314922632,"lng":106.45257986207997,"avgVisitMinutes":74,"estimatedCostEur":2,"score":0.8268574416293732},{"id":"dzuunharaa_5679","citySlug":"dzuunharaa","name":"Galería de Arte","category":"cultura","lat":48.84255045887102,"lng":106.45007802378753,"avgVisitMinutes":59,"estimatedCostEur":18,"score":4.616909767725121},{"id":"dzuunharaa_6184","citySlug":"dzuunharaa","name":"Centro Histórico","category":"historia","lat":48.86155768131535,"lng":106.45448807191549,"avgVisitMinutes":64,"estimatedCostEur":19,"score":1.8733579006932104},{"id":"darhan_1495","citySlug":"darhan","name":"Teatro Municipal","category":"cultura","lat":49.49649933598459,"lng":105.9151511903917,"avgVisitMinutes":56,"estimatedCostEur":6,"score":3.571667086135152},{"id":"darhan_6442","citySlug":"darhan","name":"Mercado Gastronómico","category":"gastronomia","lat":49.4864401852108,"lng":105.91448471744958,"avgVisitMinutes":46,"estimatedCostEur":21,"score":3.3864943192695796},{"id":"darhan_7692","citySlug":"darhan","name":"Playa Central","category":"playa","lat":49.488181367820815,"lng":105.9187651800985,"avgVisitMinutes":75,"estimatedCostEur":12,"score":1.8499622667447504},{"id":"darhan_2682","citySlug":"darhan","name":"Playa Central","category":"playa","lat":49.49547766515984,"lng":105.93275522325148,"avgVisitMinutes":46,"estimatedCostEur":24,"score":3.153623104382373},{"id":"darhan_4984","citySlug":"darhan","name":"Teatro Municipal","category":"cultura","lat":49.48261316689662,"lng":105.91700004393425,"avgVisitMinutes":39,"estimatedCostEur":19,"score":2.0660890692388274},{"id":"darhan_7684","citySlug":"darhan","name":"Mercado Gastronómico","category":"gastronomia","lat":49.47850861281252,"lng":105.91610283801086,"avgVisitMinutes":70,"estimatedCostEur":16,"score":4.048621225668278},{"id":"darhan_7597","citySlug":"darhan","name":"Mirador de Darhan","category":"mirador","lat":49.487091604345515,"lng":105.9228180254945,"avgVisitMinutes":46,"estimatedCostEur":21,"score":3.0871562229988143},{"id":"dalandzadgad_8073","citySlug":"dalandzadgad","name":"Museo Local de Dalandzadgad","category":"historia","lat":43.56317295777232,"lng":104.42304720259314,"avgVisitMinutes":75,"estimatedCostEur":23,"score":1.8519698220568523},{"id":"dalandzadgad_2840","citySlug":"dalandzadgad","name":"Centro de Arte de Dalandzadgad","category":"cultura","lat":43.56320718163088,"lng":104.43168733484956,"avgVisitMinutes":22,"estimatedCostEur":24,"score":4.178175046883002},{"id":"dalandzadgad_4864","citySlug":"dalandzadgad","name":"Punto Panorámico","category":"mirador","lat":43.562286567352054,"lng":104.43199714887656,"avgVisitMinutes":83,"estimatedCostEur":8,"score":4.321021381025307},{"id":"dalandzadgad_8303","citySlug":"dalandzadgad","name":"Iglesia de Dalandzadgad","category":"historia","lat":43.56779207469937,"lng":104.43078503115021,"avgVisitMinutes":25,"estimatedCostEur":6,"score":0.9651598069044978},{"id":"dalandzadgad_3808","citySlug":"dalandzadgad","name":"Playa Central","category":"playa","lat":43.56261358895892,"lng":104.43170531062903,"avgVisitMinutes":88,"estimatedCostEur":10,"score":1.8423984137389424},{"id":"dalandzadgad_1446","citySlug":"dalandzadgad","name":"Punto Panorámico","category":"mirador","lat":43.579093783255715,"lng":104.42979119794387,"avgVisitMinutes":79,"estimatedCostEur":23,"score":1.7375319706703471},{"id":"dalandzadgad_7130","citySlug":"dalandzadgad","name":"Teatro Municipal","category":"cultura","lat":43.570354284388806,"lng":104.43306656125323,"avgVisitMinutes":25,"estimatedCostEur":12,"score":4.903267626758624},{"id":"dalandzadgad_1784","citySlug":"dalandzadgad","name":"Parque Central","category":"ocio","lat":43.57109107545246,"lng":104.42744124123865,"avgVisitMinutes":66,"estimatedCostEur":18,"score":1.5319858779483482},{"id":"choyr_2574","citySlug":"choyr","name":"Mirador de Choyr","category":"mirador","lat":46.36765137278877,"lng":108.36658944636775,"avgVisitMinutes":75,"estimatedCostEur":25,"score":1.7707024434524445},{"id":"choyr_1488","citySlug":"choyr","name":"Punto Panorámico","category":"mirador","lat":46.36745470741604,"lng":108.3661880180026,"avgVisitMinutes":69,"estimatedCostEur":13,"score":2.5459831077786843},{"id":"choyr_2249","citySlug":"choyr","name":"Museo Cultural de Choyr","category":"cultura","lat":46.35662676178677,"lng":108.37101445035225,"avgVisitMinutes":39,"estimatedCostEur":22,"score":4.722302432599947},{"id":"choyr_5630","citySlug":"choyr","name":"Playa Central","category":"playa","lat":46.36884678999614,"lng":108.35125680391172,"avgVisitMinutes":24,"estimatedCostEur":15,"score":1.9922884904166942},{"id":"choyr_9475","citySlug":"choyr","name":"Museo Cultural de Choyr","category":"cultura","lat":46.35906407301962,"lng":108.36057198464438,"avgVisitMinutes":65,"estimatedCostEur":12,"score":2.7439556690414313},{"id":"choyr_5765","citySlug":"choyr","name":"Museo Cultural de Choyr","category":"cultura","lat":46.35396057058552,"lng":108.36048441297224,"avgVisitMinutes":86,"estimatedCostEur":1,"score":1.7143683206014233},{"id":"choyr_4096","citySlug":"choyr","name":"Punto Panorámico","category":"mirador","lat":46.359377642971076,"lng":108.3552241568361,"avgVisitMinutes":46,"estimatedCostEur":14,"score":2.901890064681674},{"id":"choyr_9722","citySlug":"choyr","name":"Galería de Arte","category":"cultura","lat":46.13422523351564,"lng":108.64343860686238,"avgVisitMinutes":63,"estimatedCostEur":1,"score":4.631036084282433},{"id":"choyr_2138","citySlug":"choyr","name":"Vista Alta de Choyr","category":"mirador","lat":46.141124534122476,"lng":108.64036653009893,"avgVisitMinutes":47,"estimatedCostEur":13,"score":2.9438501859531585},{"id":"choyr_8780","citySlug":"choyr","name":"Restaurante Típico de Choyr","category":"gastronomia","lat":46.127019185791944,"lng":108.64583071038314,"avgVisitMinutes":22,"estimatedCostEur":12,"score":3.5492518263803086},{"id":"choyr_1087","citySlug":"choyr","name":"Paseo Principal","category":"ocio","lat":46.12763547925209,"lng":108.65832264049692,"avgVisitMinutes":32,"estimatedCostEur":1,"score":2.760310926701081},{"id":"choyr_6792","citySlug":"choyr","name":"Ruta de Tapas","category":"gastronomia","lat":46.138371534269176,"lng":108.65191567259724,"avgVisitMinutes":25,"estimatedCostEur":14,"score":4.219278417409743},{"id":"choibalsan_6793","citySlug":"choibalsan","name":"Vista Alta de Choibalsan","category":"mirador","lat":48.080927678212305,"lng":114.53174988348147,"avgVisitMinutes":56,"estimatedCostEur":14,"score":1.558237126311611},{"id":"choibalsan_2536","citySlug":"choibalsan","name":"Parque Central","category":"ocio","lat":48.07417093161022,"lng":114.54153500652855,"avgVisitMinutes":27,"estimatedCostEur":9,"score":3.1076324468327376},{"id":"choibalsan_6786","citySlug":"choibalsan","name":"Mirador de Choibalsan","category":"mirador","lat":48.08061595708781,"lng":114.53559409490451,"avgVisitMinutes":44,"estimatedCostEur":6,"score":0.7213292387675376},{"id":"choibalsan_3526","citySlug":"choibalsan","name":"Mirador de Choibalsan","category":"mirador","lat":48.0714852967934,"lng":114.53435874628448,"avgVisitMinutes":20,"estimatedCostEur":0,"score":1.0869900707114117},{"id":"choibalsan_7957","citySlug":"choibalsan","name":"Castillo de Choibalsan","category":"historia","lat":48.06708251867358,"lng":114.53700557806856,"avgVisitMinutes":55,"estimatedCostEur":2,"score":2.947288481606727},{"id":"choibalsan_5663","citySlug":"choibalsan","name":"Zona Comercial","category":"ocio","lat":48.07087038616045,"lng":114.54123374216964,"avgVisitMinutes":71,"estimatedCostEur":22,"score":2.318491977216036},{"id":"choibalsan_4873","citySlug":"choibalsan","name":"Paseo Principal","category":"ocio","lat":48.072928451796834,"lng":114.53899025812731,"avgVisitMinutes":78,"estimatedCostEur":6,"score":1.2961571365859241},{"id":"choibalsan_9644","citySlug":"choibalsan","name":"Ruta de Tapas","category":"gastronomia","lat":48.074281142086754,"lng":114.52843105520569,"avgVisitMinutes":49,"estimatedCostEur":23,"score":2.2247430131225654},{"id":"saynshand_4342","citySlug":"saynshand","name":"Restaurante Típico de Saynshand","category":"gastronomia","lat":44.87613848543686,"lng":110.12131423641465,"avgVisitMinutes":79,"estimatedCostEur":12,"score":3.2510246787364174},{"id":"saynshand_5768","citySlug":"saynshand","name":"Centro Histórico","category":"historia","lat":44.88842049308926,"lng":110.10900914441733,"avgVisitMinutes":82,"estimatedCostEur":17,"score":3.8872493735231495},{"id":"saynshand_6477","citySlug":"saynshand","name":"Teatro Municipal","category":"cultura","lat":44.884120105425886,"lng":110.11411856520319,"avgVisitMinutes":36,"estimatedCostEur":13,"score":4.777210167911014},{"id":"saynshand_9185","citySlug":"saynshand","name":"Zona Comercial","category":"ocio","lat":44.87677122355155,"lng":110.11285939080629,"avgVisitMinutes":73,"estimatedCostEur":13,"score":3.4120930898663433},{"id":"saynshand_9038","citySlug":"saynshand","name":"Museo Cultural de Saynshand","category":"cultura","lat":44.88363387719419,"lng":110.11770530095829,"avgVisitMinutes":79,"estimatedCostEur":10,"score":4.6671480229999736},{"id":"saynshand_4132","citySlug":"saynshand","name":"Murallas de Saynshand","category":"historia","lat":44.87497755427561,"lng":110.122275265312,"avgVisitMinutes":55,"estimatedCostEur":19,"score":2.5304571309598662},{"id":"bulgan_8624","citySlug":"bulgan","name":"Museo Cultural de Bulgan","category":"cultura","lat":48.80491877267273,"lng":103.5377425731362,"avgVisitMinutes":20,"estimatedCostEur":10,"score":4.230551792837211},{"id":"bulgan_9225","citySlug":"bulgan","name":"Murallas de Bulgan","category":"historia","lat":48.81575593935684,"lng":103.52872546675657,"avgVisitMinutes":28,"estimatedCostEur":9,"score":4.813850304563882},{"id":"bulgan_4349","citySlug":"bulgan","name":"Centro de Arte de Bulgan","category":"cultura","lat":48.81489323556357,"lng":103.53499224245077,"avgVisitMinutes":73,"estimatedCostEur":19,"score":4.470385026538946},{"id":"bulgan_7549","citySlug":"bulgan","name":"Castillo de Bulgan","category":"historia","lat":48.81726521068217,"lng":103.5272928348593,"avgVisitMinutes":44,"estimatedCostEur":21,"score":2.7880559160561544},{"id":"bulgan_5741","citySlug":"bulgan","name":"Paseo Principal","category":"ocio","lat":48.81986683165534,"lng":103.52809479835352,"avgVisitMinutes":23,"estimatedCostEur":21,"score":2.143857041000705},{"id":"berh_8448","citySlug":"berh","name":"Murallas de Berh","category":"historia","lat":47.79270054510742,"lng":111.17451011793233,"avgVisitMinutes":76,"estimatedCostEur":2,"score":4.442912022518058},{"id":"berh_2509","citySlug":"berh","name":"Playa Central","category":"playa","lat":47.780682751668266,"lng":111.17513273256715,"avgVisitMinutes":21,"estimatedCostEur":13,"score":0.5846774524426717},{"id":"berh_1103","citySlug":"berh","name":"Playa Central","category":"playa","lat":47.790617510637915,"lng":111.16829134453981,"avgVisitMinutes":39,"estimatedCostEur":8,"score":2.781610296953254},{"id":"berh_3351","citySlug":"berh","name":"Zona Comercial","category":"ocio","lat":47.787847434842085,"lng":111.1599714361766,"avgVisitMinutes":77,"estimatedCostEur":12,"score":4.950230257008407},{"id":"berh_4848","citySlug":"berh","name":"Mirador de Berh","category":"mirador","lat":47.775892485203464,"lng":111.16461535010195,"avgVisitMinutes":81,"estimatedCostEur":17,"score":3.1794473373254544},{"id":"berh_7117","citySlug":"berh","name":"Ruta de Tapas","category":"gastronomia","lat":47.786267567044455,"lng":111.16873161014125,"avgVisitMinutes":82,"estimatedCostEur":24,"score":1.032022368012957},{"id":"bayanhongor_7135","citySlug":"bayanhongor","name":"Museo Cultural de Bayanhongor","category":"cultura","lat":46.187471652705135,"lng":100.71669843668852,"avgVisitMinutes":43,"estimatedCostEur":10,"score":4.206974090581889},{"id":"bayanhongor_1986","citySlug":"bayanhongor","name":"Mercado Gastronómico","category":"gastronomia","lat":46.19433573132687,"lng":100.72356011922189,"avgVisitMinutes":79,"estimatedCostEur":21,"score":2.5951744784111512},{"id":"bayanhongor_4142","citySlug":"bayanhongor","name":"Punto Panorámico","category":"mirador","lat":46.20196815690014,"lng":100.71244182908431,"avgVisitMinutes":68,"estimatedCostEur":1,"score":2.673819451085438},{"id":"bayanhongor_4116","citySlug":"bayanhongor","name":"Mirador de Bayanhongor","category":"mirador","lat":46.18966819814203,"lng":100.70809770467281,"avgVisitMinutes":64,"estimatedCostEur":6,"score":1.3310011551230212},{"id":"bayanhongor_3639","citySlug":"bayanhongor","name":"Centro Histórico","category":"historia","lat":46.20301580182875,"lng":100.71669263673446,"avgVisitMinutes":33,"estimatedCostEur":13,"score":1.2202696528328438},{"id":"bayanhongor_9806","citySlug":"bayanhongor","name":"Punto Panorámico","category":"mirador","lat":46.18803953262726,"lng":100.70809498286147,"avgVisitMinutes":36,"estimatedCostEur":22,"score":1.7992286733832898},{"id":"bayanhongor_5246","citySlug":"bayanhongor","name":"Galería de Arte","category":"cultura","lat":46.19078339078365,"lng":100.72668298136918,"avgVisitMinutes":42,"estimatedCostEur":12,"score":4.888191426562503},{"id":"bayanhongor_5296","citySlug":"bayanhongor","name":"Vista Alta de Bayanhongor","category":"mirador","lat":46.18500994505137,"lng":100.71636587725948,"avgVisitMinutes":67,"estimatedCostEur":3,"score":0.522434747635224},{"id":"bayanhongor_1752","citySlug":"bayanhongor","name":"Punto Panorámico","category":"mirador","lat":46.20056006033439,"lng":100.72446984430059,"avgVisitMinutes":58,"estimatedCostEur":6,"score":1.6759531520788535},{"id":"bayanhongor_9832","citySlug":"bayanhongor","name":"Mercado Gastronómico","category":"gastronomia","lat":46.1963705103271,"lng":100.71033904750121,"avgVisitMinutes":58,"estimatedCostEur":16,"score":0.9980761372863237},{"id":"bayanhongor_5697","citySlug":"bayanhongor","name":"Restaurante Típico de Bayanhongor","category":"gastronomia","lat":46.189135444052035,"lng":100.72650820070638,"avgVisitMinutes":81,"estimatedCostEur":14,"score":2.236654753524897},{"id":"baruun-urt_7855","citySlug":"baruun-urt","name":"Vista Alta de Baruun-Urt","category":"mirador","lat":46.68855239445981,"lng":113.26946308895526,"avgVisitMinutes":71,"estimatedCostEur":18,"score":4.0095516011918},{"id":"baruun-urt_4148","citySlug":"baruun-urt","name":"Playa Norte","category":"playa","lat":46.682105249478056,"lng":113.27831969382454,"avgVisitMinutes":66,"estimatedCostEur":25,"score":3.2168634979585207},{"id":"baruun-urt_3350","citySlug":"baruun-urt","name":"Ruta de Tapas","category":"gastronomia","lat":46.67088918392474,"lng":113.26921632986972,"avgVisitMinutes":55,"estimatedCostEur":13,"score":0.7059649906783694},{"id":"baruun-urt_6312","citySlug":"baruun-urt","name":"Playa Sur","category":"playa","lat":46.686452734378804,"lng":113.27145387034149,"avgVisitMinutes":68,"estimatedCostEur":6,"score":1.1126579040209565},{"id":"baruun-urt_1550","citySlug":"baruun-urt","name":"Centro de Arte de Baruun-Urt","category":"cultura","lat":46.68084318839218,"lng":113.28281646804113,"avgVisitMinutes":24,"estimatedCostEur":11,"score":4.921613887460457},{"id":"baruun-urt_6352","citySlug":"baruun-urt","name":"Iglesia de Baruun-Urt","category":"historia","lat":46.68915068140846,"lng":113.2767624528156,"avgVisitMinutes":66,"estimatedCostEur":25,"score":4.603344039766487},{"id":"baruun-urt_6079","citySlug":"baruun-urt","name":"Parque Central","category":"ocio","lat":46.68478817629244,"lng":113.28312880946983,"avgVisitMinutes":43,"estimatedCostEur":6,"score":0.7618517477029836},{"id":"baruun-urt_3518","citySlug":"baruun-urt","name":"Playa Sur","category":"playa","lat":46.68649745379476,"lng":113.28576873258837,"avgVisitMinutes":22,"estimatedCostEur":14,"score":0.5157397324807814},{"id":"baruun-urt_1056","citySlug":"baruun-urt","name":"Restaurante Típico de Baruun-Urt","category":"gastronomia","lat":46.67724910867176,"lng":113.28037919272913,"avgVisitMinutes":44,"estimatedCostEur":25,"score":3.246760866581343},{"id":"arvayheer_8874","citySlug":"arvayheer","name":"Mercado Gastronómico","category":"gastronomia","lat":46.25653190134044,"lng":102.78459366055333,"avgVisitMinutes":62,"estimatedCostEur":19,"score":1.079726997059249},{"id":"arvayheer_3628","citySlug":"arvayheer","name":"Playa Sur","category":"playa","lat":46.26210586192461,"lng":102.77944946126705,"avgVisitMinutes":21,"estimatedCostEur":3,"score":1.6735729193566753},{"id":"arvayheer_9643","citySlug":"arvayheer","name":"Zona Comercial","category":"ocio","lat":46.26035026041922,"lng":102.77707614979231,"avgVisitMinutes":31,"estimatedCostEur":17,"score":2.8810058468372772},{"id":"arvayheer_7831","citySlug":"arvayheer","name":"Parque Central","category":"ocio","lat":46.2680480755091,"lng":102.77935442903588,"avgVisitMinutes":82,"estimatedCostEur":1,"score":4.660801198479595},{"id":"arvayheer_4541","citySlug":"arvayheer","name":"Museo Cultural de Arvayheer","category":"cultura","lat":46.26375635879492,"lng":102.77172766945726,"avgVisitMinutes":38,"estimatedCostEur":11,"score":3.805805883596731},{"id":"arvayheer_5441","citySlug":"arvayheer","name":"Ruta de Tapas","category":"gastronomia","lat":46.25769727862326,"lng":102.78457227968599,"avgVisitMinutes":63,"estimatedCostEur":11,"score":0.6644516917574713},{"id":"arvayheer_8020","citySlug":"arvayheer","name":"Centro Histórico","category":"historia","lat":46.26596679765907,"lng":102.78253997226747,"avgVisitMinutes":52,"estimatedCostEur":25,"score":4.831474763487505},{"id":"argalant_4135","citySlug":"argalant","name":"Castillo de Argalant","category":"historia","lat":47.94087269627853,"lng":105.89570337217833,"avgVisitMinutes":39,"estimatedCostEur":15,"score":2.091266327408756},{"id":"argalant_1219","citySlug":"argalant","name":"Castillo de Argalant","category":"historia","lat":47.95176822667797,"lng":105.89362596513699,"avgVisitMinutes":50,"estimatedCostEur":11,"score":1.041364377814145},{"id":"argalant_7959","citySlug":"argalant","name":"Vista Alta de Argalant","category":"mirador","lat":47.94403599952731,"lng":105.89530382105629,"avgVisitMinutes":77,"estimatedCostEur":5,"score":4.507527445538126},{"id":"argalant_8117","citySlug":"argalant","name":"Galería de Arte","category":"cultura","lat":47.93716264570825,"lng":105.8893269534363,"avgVisitMinutes":53,"estimatedCostEur":3,"score":4.128157384999598},{"id":"argalant_7362","citySlug":"argalant","name":"Museo Local de Argalant","category":"historia","lat":47.93689815630633,"lng":105.90173109210023,"avgVisitMinutes":67,"estimatedCostEur":0,"score":0.760403606591122},{"id":"argalant_4969","citySlug":"argalant","name":"Centro de Arte de Argalant","category":"cultura","lat":47.94190895371235,"lng":105.8928728207205,"avgVisitMinutes":28,"estimatedCostEur":19,"score":3.006897560371077},{"id":"argalant_7851","citySlug":"argalant","name":"Teatro Municipal","category":"cultura","lat":47.947281901834394,"lng":105.88646807075253,"avgVisitMinutes":20,"estimatedCostEur":9,"score":1.2505756938423662},{"id":"altanbulag_6586","citySlug":"altanbulag","name":"Murallas de Altanbulag","category":"historia","lat":50.31631640884651,"lng":106.5085778089656,"avgVisitMinutes":89,"estimatedCostEur":13,"score":2.857815217620765},{"id":"altanbulag_4669","citySlug":"altanbulag","name":"Teatro Municipal","category":"cultura","lat":50.31440320591568,"lng":106.50290252154414,"avgVisitMinutes":86,"estimatedCostEur":15,"score":2.0441200965047397},{"id":"altanbulag_1832","citySlug":"altanbulag","name":"Castillo de Altanbulag","category":"historia","lat":50.31846859335145,"lng":106.5047995035528,"avgVisitMinutes":77,"estimatedCostEur":16,"score":3.8196761751214106},{"id":"altanbulag_4242","citySlug":"altanbulag","name":"Centro Histórico","category":"historia","lat":50.31710622723207,"lng":106.50140169228203,"avgVisitMinutes":21,"estimatedCostEur":4,"score":3.372245567285061},{"id":"altanbulag_3313","citySlug":"altanbulag","name":"Teatro Municipal","category":"cultura","lat":50.31388042439941,"lng":106.50791052133373,"avgVisitMinutes":29,"estimatedCostEur":5,"score":1.6897160388204855},{"id":"altanbulag_8052","citySlug":"altanbulag","name":"Centro de Arte de Altanbulag","category":"cultura","lat":50.32298760945648,"lng":106.5038056426365,"avgVisitMinutes":43,"estimatedCostEur":2,"score":3.3068695125477907},{"id":"altanbulag_7944","citySlug":"altanbulag","name":"Galería de Arte","category":"cultura","lat":50.3114352286496,"lng":106.50075811255877,"avgVisitMinutes":67,"estimatedCostEur":15,"score":3.870896256735847},{"id":"altanbulag_4581","citySlug":"altanbulag","name":"Museo Local de Altanbulag","category":"historia","lat":50.32350723704533,"lng":106.5061583940226,"avgVisitMinutes":68,"estimatedCostEur":17,"score":2.705093135355331},{"id":"altanbulag_1033","citySlug":"altanbulag","name":"Playa Norte","category":"playa","lat":50.32128216844981,"lng":106.49025211835652,"avgVisitMinutes":67,"estimatedCostEur":14,"score":4.994256846205168},{"id":"altanbulag_3839","citySlug":"altanbulag","name":"Iglesia de Altanbulag","category":"historia","lat":50.32163552005803,"lng":106.50818517017716,"avgVisitMinutes":77,"estimatedCostEur":23,"score":3.674672132582515},{"id":"altanbulag_8321","citySlug":"altanbulag","name":"Mirador de Altanbulag","category":"mirador","lat":50.31275664861577,"lng":106.5022964883388,"avgVisitMinutes":27,"estimatedCostEur":24,"score":4.061552070282943},{"id":"bor-ondor_9165","citySlug":"bor-ondor","name":"Punto Panorámico","category":"mirador","lat":46.26650301550458,"lng":109.43268250681056,"avgVisitMinutes":39,"estimatedCostEur":7,"score":4.21588207585013},{"id":"bor-ondor_6012","citySlug":"bor-ondor","name":"Museo Cultural de Bor-Öndör","category":"cultura","lat":46.26647670266392,"lng":109.44001413522008,"avgVisitMinutes":78,"estimatedCostEur":21,"score":3.583937174083469},{"id":"bor-ondor_6342","citySlug":"bor-ondor","name":"Playa Central","category":"playa","lat":46.27588608524809,"lng":109.43044640889205,"avgVisitMinutes":33,"estimatedCostEur":2,"score":0.9855263408610999},{"id":"bor-ondor_6933","citySlug":"bor-ondor","name":"Restaurante Típico de Bor-Öndör","category":"gastronomia","lat":46.26911075862852,"lng":109.44775785146584,"avgVisitMinutes":64,"estimatedCostEur":23,"score":1.4667090736413315},{"id":"bor-ondor_7445","citySlug":"bor-ondor","name":"Paseo Principal","category":"ocio","lat":46.267665259349535,"lng":109.44079672680465,"avgVisitMinutes":65,"estimatedCostEur":22,"score":1.4330366245184332},{"id":"bor-ondor_2590","citySlug":"bor-ondor","name":"Restaurante Típico de Bor-Öndör","category":"gastronomia","lat":46.25752182740749,"lng":109.44473801128674,"avgVisitMinutes":61,"estimatedCostEur":23,"score":4.926308792892742},{"id":"bor-ondor_3416","citySlug":"bor-ondor","name":"Museo Local de Bor-Öndör","category":"historia","lat":46.267561848145114,"lng":109.43533185551443,"avgVisitMinutes":86,"estimatedCostEur":10,"score":1.9304182727863894},{"id":"bor-ondor_9001","citySlug":"bor-ondor","name":"Ruta de Tapas","category":"gastronomia","lat":46.27352303354367,"lng":109.44068425231089,"avgVisitMinutes":36,"estimatedCostEur":0,"score":0.9754537692422092},{"id":"bor-ondor_3516","citySlug":"bor-ondor","name":"Centro de Arte de Bor-Öndör","category":"cultura","lat":46.27548275074115,"lng":109.44037058214849,"avgVisitMinutes":23,"estimatedCostEur":3,"score":2.3305996491818965},{"id":"bor-ondor_1938","citySlug":"bor-ondor","name":"Restaurante Típico de Bor-Öndör","category":"gastronomia","lat":46.264959001799866,"lng":109.447755639287,"avgVisitMinutes":21,"estimatedCostEur":12,"score":3.74392470817231},{"id":"bor-ondor_3465","citySlug":"bor-ondor","name":"Castillo de Bor-Öndör","category":"historia","lat":46.26502286440476,"lng":109.43435606580823,"avgVisitMinutes":67,"estimatedCostEur":8,"score":3.3179673346487526},{"id":"jargalant_2144","citySlug":"jargalant","name":"Parque Central","category":"ocio","lat":49.05743929806786,"lng":104.40750953683848,"avgVisitMinutes":41,"estimatedCostEur":23,"score":2.1488808717607926},{"id":"jargalant_4895","citySlug":"jargalant","name":"Zona Comercial","category":"ocio","lat":49.048551916557436,"lng":104.40441918816951,"avgVisitMinutes":48,"estimatedCostEur":5,"score":3.7651066414746355},{"id":"jargalant_2661","citySlug":"jargalant","name":"Mirador de Jargalant","category":"mirador","lat":49.053956382055546,"lng":104.40744199541136,"avgVisitMinutes":63,"estimatedCostEur":25,"score":0.8649180183402093},{"id":"jargalant_9238","citySlug":"jargalant","name":"Playa Central","category":"playa","lat":49.05008744801169,"lng":104.39888656537009,"avgVisitMinutes":62,"estimatedCostEur":24,"score":4.258599065708361},{"id":"jargalant_5641","citySlug":"jargalant","name":"Mercado Gastronómico","category":"gastronomia","lat":49.06320213914088,"lng":104.39449201811124,"avgVisitMinutes":76,"estimatedCostEur":17,"score":1.3997846367758071},{"id":"hongor_3677","citySlug":"hongor","name":"Iglesia de Hongor","category":"historia","lat":49.23327478445546,"lng":105.8900132257725,"avgVisitMinutes":70,"estimatedCostEur":14,"score":4.534494688720467},{"id":"hongor_5538","citySlug":"hongor","name":"Punto Panorámico","category":"mirador","lat":49.22517571040272,"lng":105.9015454776719,"avgVisitMinutes":83,"estimatedCostEur":10,"score":4.6006153265845615},{"id":"hongor_7445","citySlug":"hongor","name":"Restaurante Típico de Hongor","category":"gastronomia","lat":49.23402919289602,"lng":105.88951274626667,"avgVisitMinutes":69,"estimatedCostEur":22,"score":4.822203588664153},{"id":"hongor_1295","citySlug":"hongor","name":"Zona Comercial","category":"ocio","lat":49.2364068087498,"lng":105.89881312216802,"avgVisitMinutes":78,"estimatedCostEur":12,"score":2.385834344582916},{"id":"hongor_7638","citySlug":"hongor","name":"Paseo Principal","category":"ocio","lat":49.239728890398666,"lng":105.88694758591042,"avgVisitMinutes":28,"estimatedCostEur":6,"score":1.8132602487959517},{"id":"hongor_9044","citySlug":"hongor","name":"Centro de Arte de Hongor","category":"cultura","lat":49.23799623921034,"lng":105.90248985089015,"avgVisitMinutes":38,"estimatedCostEur":10,"score":2.885791744665927},{"id":"hongor_3471","citySlug":"hongor","name":"Playa Sur","category":"playa","lat":49.23748716312386,"lng":105.90226731601685,"avgVisitMinutes":76,"estimatedCostEur":20,"score":2.630818845652805},{"id":"hongor_1839","citySlug":"hongor","name":"Playa Central","category":"playa","lat":49.237640981936146,"lng":105.88735614495116,"avgVisitMinutes":31,"estimatedCostEur":16,"score":0.5355561826136022},{"id":"hongor_6906","citySlug":"hongor","name":"Teatro Municipal","category":"cultura","lat":49.22703377152946,"lng":105.89748081804828,"avgVisitMinutes":51,"estimatedCostEur":12,"score":3.551834404394685},{"id":"hongor_1946","citySlug":"hongor","name":"Playa Central","category":"playa","lat":49.23237246750367,"lng":105.90468493675353,"avgVisitMinutes":44,"estimatedCostEur":12,"score":2.0965669637706634},{"id":"hongor_1323","citySlug":"hongor","name":"Teatro Municipal","category":"cultura","lat":49.233022985630875,"lng":105.89186595426918,"avgVisitMinutes":76,"estimatedCostEur":23,"score":3.5177794609472937},{"id":"hongor_7676","citySlug":"hongor","name":"Punto Panorámico","category":"mirador","lat":49.22818884523702,"lng":105.90577793276098,"avgVisitMinutes":36,"estimatedCostEur":16,"score":2.2969228811703246},{"id":"zuunmod_4066","citySlug":"zuunmod","name":"Paseo Principal","category":"ocio","lat":47.70814140890433,"lng":106.95625790701342,"avgVisitMinutes":63,"estimatedCostEur":25,"score":0.518766300211436},{"id":"zuunmod_9160","citySlug":"zuunmod","name":"Teatro Municipal","category":"cultura","lat":47.71253060612982,"lng":106.95310885839979,"avgVisitMinutes":85,"estimatedCostEur":6,"score":4.895914598943414},{"id":"zuunmod_5552","citySlug":"zuunmod","name":"Parque Central","category":"ocio","lat":47.710507781845784,"lng":106.95659590725984,"avgVisitMinutes":24,"estimatedCostEur":17,"score":4.764355111769408},{"id":"zuunmod_8694","citySlug":"zuunmod","name":"Playa Sur","category":"playa","lat":47.69905339540769,"lng":106.95746121611369,"avgVisitMinutes":58,"estimatedCostEur":7,"score":3.734078092238522},{"id":"zuunmod_6900","citySlug":"zuunmod","name":"Centro Histórico","category":"historia","lat":47.71002976526103,"lng":106.95349569034596,"avgVisitMinutes":82,"estimatedCostEur":17,"score":3.6345069387556284},{"id":"zuunmod_2205","citySlug":"zuunmod","name":"Parque Central","category":"ocio","lat":47.71212099286575,"lng":106.95023581376229,"avgVisitMinutes":45,"estimatedCostEur":16,"score":3.458688529994688},{"id":"zuunmod_3739","citySlug":"zuunmod","name":"Playa Central","category":"playa","lat":47.709479435734785,"lng":106.94680728613207,"avgVisitMinutes":31,"estimatedCostEur":21,"score":2.032828629291501},{"id":"zuunmod_1350","citySlug":"zuunmod","name":"Playa Norte","category":"playa","lat":47.70263704677351,"lng":106.95394077888459,"avgVisitMinutes":26,"estimatedCostEur":17,"score":0.8101250777293013},{"id":"kharkhorin_8802","citySlug":"kharkhorin","name":"Mirador de Kharkhorin","category":"mirador","lat":47.198650939098634,"lng":102.80570903576712,"avgVisitMinutes":69,"estimatedCostEur":12,"score":4.827572042801508},{"id":"kharkhorin_8065","citySlug":"kharkhorin","name":"Paseo Principal","category":"ocio","lat":47.19171695168697,"lng":102.80600842270148,"avgVisitMinutes":68,"estimatedCostEur":8,"score":2.267692373749405},{"id":"kharkhorin_8778","citySlug":"kharkhorin","name":"Centro Histórico","category":"historia","lat":47.19139477243492,"lng":102.80965980667135,"avgVisitMinutes":71,"estimatedCostEur":3,"score":2.6493355053339394},{"id":"kharkhorin_5275","citySlug":"kharkhorin","name":"Playa Sur","category":"playa","lat":47.19200874055784,"lng":102.8121633796646,"avgVisitMinutes":70,"estimatedCostEur":12,"score":1.0993502480183934},{"id":"kharkhorin_5659","citySlug":"kharkhorin","name":"Zona Comercial","category":"ocio","lat":47.191884884913605,"lng":102.81709587975841,"avgVisitMinutes":83,"estimatedCostEur":19,"score":2.902353023086528},{"id":"kharkhorin_5316","citySlug":"kharkhorin","name":"Playa Norte","category":"playa","lat":47.191965499416064,"lng":102.81080207917498,"avgVisitMinutes":46,"estimatedCostEur":23,"score":3.923888896657136},{"id":"kharkhorin_2527","citySlug":"kharkhorin","name":"Ruta de Tapas","category":"gastronomia","lat":47.19984097750199,"lng":102.8182791789775,"avgVisitMinutes":74,"estimatedCostEur":12,"score":4.616383989730681},{"id":"kharkhorin_9355","citySlug":"kharkhorin","name":"Museo Cultural de Kharkhorin","category":"cultura","lat":47.2013149336748,"lng":102.81661431478611,"avgVisitMinutes":50,"estimatedCostEur":2,"score":3.522250759714395},{"id":"kharkhorin_7962","citySlug":"kharkhorin","name":"Playa Sur","category":"playa","lat":47.19447178449516,"lng":102.81338381609035,"avgVisitMinutes":45,"estimatedCostEur":22,"score":2.7131534458840454},{"id":"zamiin-uud_8833","citySlug":"zamiin-uud","name":"Museo Cultural de Zamiin Uud","category":"cultura","lat":43.71903884498038,"lng":111.89985501550521,"avgVisitMinutes":83,"estimatedCostEur":4,"score":3.1227775269702565},{"id":"zamiin-uud_9145","citySlug":"zamiin-uud","name":"Vista Alta de Zamiin Uud","category":"mirador","lat":43.7179905658493,"lng":111.91253719216151,"avgVisitMinutes":79,"estimatedCostEur":16,"score":4.579846598403876},{"id":"zamiin-uud_9614","citySlug":"zamiin-uud","name":"Punto Panorámico","category":"mirador","lat":43.711030188281576,"lng":111.89966366885865,"avgVisitMinutes":73,"estimatedCostEur":2,"score":2.241840225768354},{"id":"zamiin-uud_9078","citySlug":"zamiin-uud","name":"Galería de Arte","category":"cultura","lat":43.72205957455685,"lng":111.90201524947105,"avgVisitMinutes":27,"estimatedCostEur":21,"score":0.8474336058700609},{"id":"zamiin-uud_4516","citySlug":"zamiin-uud","name":"Punto Panorámico","category":"mirador","lat":43.719271557813265,"lng":111.91379295298393,"avgVisitMinutes":34,"estimatedCostEur":7,"score":3.7394561168562315}]}