{"country":"MR","pois":[{"id":"zouerat_3221","citySlug":"zouerat","name":"Playa Norte","category":"playa","lat":22.733563382652378,"lng":-12.481015068465588,"avgVisitMinutes":68,"estimatedCostEur":2,"score":3.751918745707355},{"id":"zouerat_8758","citySlug":"zouerat","name":"Galería de Arte","category":"cultura","lat":22.745221717845315,"lng":-12.480878679330596,"avgVisitMinutes":21,"estimatedCostEur":25,"score":3.161724999104166},{"id":"zouerat_1258","citySlug":"zouerat","name":"Mirador de Zouérat","category":"mirador","lat":22.745073172680474,"lng":-12.476713621954143,"avgVisitMinutes":71,"estimatedCostEur":19,"score":1.51065253585021},{"id":"zouerat_7460","citySlug":"zouerat","name":"Iglesia de Zouérat","category":"historia","lat":22.735386335787386,"lng":-12.477158500961883,"avgVisitMinutes":89,"estimatedCostEur":22,"score":3.5341477426619323},{"id":"zouerat_8516","citySlug":"zouerat","name":"Restaurante Típico de Zouérat","category":"gastronomia","lat":22.729853385479736,"lng":-12.479929512184738,"avgVisitMinutes":24,"estimatedCostEur":21,"score":4.433631426461417},{"id":"zouerat_4326","citySlug":"zouerat","name":"Playa Norte","category":"playa","lat":22.740596612644378,"lng":-12.48080614315936,"avgVisitMinutes":86,"estimatedCostEur":23,"score":2.8622394536673954},{"id":"zouerat_7696","citySlug":"zouerat","name":"Centro de Arte de Zouérat","category":"cultura","lat":22.74409097374709,"lng":-12.478109058611276,"avgVisitMinutes":78,"estimatedCostEur":15,"score":0.6443577121795664},{"id":"zouerat_5980","citySlug":"zouerat","name":"Playa Sur","category":"playa","lat":22.743432845987655,"lng":-12.471091039328046,"avgVisitMinutes":60,"estimatedCostEur":19,"score":3.182863746042389},{"id":"zouerat_3468","citySlug":"zouerat","name":"Centro de Arte de Zouérat","category":"cultura","lat":22.74034453156711,"lng":-12.462735624493364,"avgVisitMinutes":39,"estimatedCostEur":24,"score":3.3842075858632237},{"id":"zouerat_9199","citySlug":"zouerat","name":"Centro Histórico","category":"historia","lat":22.735897419641145,"lng":-12.473748579480052,"avgVisitMinutes":44,"estimatedCostEur":25,"score":3.434403844016355},{"id":"woumpou_6875","citySlug":"woumpou","name":"Museo Local de Woumpou","category":"historia","lat":15.13934654231356,"lng":-12.716881410639143,"avgVisitMinutes":72,"estimatedCostEur":23,"score":3.367756333751442},{"id":"woumpou_6493","citySlug":"woumpou","name":"Museo Cultural de Woumpou","category":"cultura","lat":15.123149854030821,"lng":-12.727832844407821,"avgVisitMinutes":35,"estimatedCostEur":4,"score":4.319563451776655},{"id":"woumpou_6771","citySlug":"woumpou","name":"Restaurante Típico de Woumpou","category":"gastronomia","lat":15.124127116014847,"lng":-12.726292512601148,"avgVisitMinutes":61,"estimatedCostEur":20,"score":1.511453659336779},{"id":"woumpou_6015","citySlug":"woumpou","name":"Restaurante Típico de Woumpou","category":"gastronomia","lat":15.12873887211219,"lng":-12.723912259654913,"avgVisitMinutes":32,"estimatedCostEur":0,"score":0.7527998556610966},{"id":"woumpou_5772","citySlug":"woumpou","name":"Playa Sur","category":"playa","lat":15.12755588826116,"lng":-12.720329890794751,"avgVisitMinutes":72,"estimatedCostEur":21,"score":4.605882628581675},{"id":"woumpou_1717","citySlug":"woumpou","name":"Galería de Arte","category":"cultura","lat":15.121308010571898,"lng":-12.720259495822383,"avgVisitMinutes":31,"estimatedCostEur":8,"score":3.9394945615709585},{"id":"woumpou_5398","citySlug":"woumpou","name":"Mirador de Woumpou","category":"mirador","lat":15.126170506179918,"lng":-12.722157090309452,"avgVisitMinutes":29,"estimatedCostEur":22,"score":3.1520610578657546},{"id":"woumpou_3376","citySlug":"woumpou","name":"Galería de Arte","category":"cultura","lat":15.123939276590104,"lng":-12.728354942177685,"avgVisitMinutes":57,"estimatedCostEur":22,"score":3.3170521971279165},{"id":"woumpou_7769","citySlug":"woumpou","name":"Castillo de Woumpou","category":"historia","lat":15.127096342551598,"lng":-12.72898649000577,"avgVisitMinutes":75,"estimatedCostEur":8,"score":2.5975204710069164},{"id":"woumpou_5227","citySlug":"woumpou","name":"Restaurante Típico de Woumpou","category":"gastronomia","lat":15.139038518515166,"lng":-12.731346146902284,"avgVisitMinutes":88,"estimatedCostEur":20,"score":3.7220641072467195},{"id":"woumpou_9427","citySlug":"woumpou","name":"Mirador de Woumpou","category":"mirador","lat":15.121927110533212,"lng":-12.728099779634588,"avgVisitMinutes":80,"estimatedCostEur":3,"score":1.125948636866183},{"id":"woumpou_3502","citySlug":"woumpou","name":"Parque Central","category":"ocio","lat":15.131888565569202,"lng":-12.73067856772286,"avgVisitMinutes":57,"estimatedCostEur":16,"score":4.743206331740743},{"id":"tembedgha_1646","citySlug":"tembedgha","name":"Ruta de Tapas","category":"gastronomia","lat":16.236471355980324,"lng":-8.175960620721561,"avgVisitMinutes":30,"estimatedCostEur":1,"score":4.743283562803347},{"id":"tembedgha_3664","citySlug":"tembedgha","name":"Playa Central","category":"playa","lat":16.246736834422943,"lng":-8.166482058631729,"avgVisitMinutes":29,"estimatedCostEur":12,"score":3.774787084277464},{"id":"tembedgha_1942","citySlug":"tembedgha","name":"Ruta de Tapas","category":"gastronomia","lat":16.24278087404984,"lng":-8.173412057489806,"avgVisitMinutes":24,"estimatedCostEur":0,"score":4.160522810366539},{"id":"tembedgha_2281","citySlug":"tembedgha","name":"Ruta de Tapas","category":"gastronomia","lat":16.23307995267861,"lng":-8.169164741435837,"avgVisitMinutes":20,"estimatedCostEur":19,"score":3.2694400607934915},{"id":"tembedgha_1619","citySlug":"tembedgha","name":"Punto Panorámico","category":"mirador","lat":16.236149997253786,"lng":-8.16528763114697,"avgVisitMinutes":48,"estimatedCostEur":12,"score":3.8616068586484875},{"id":"tembedgha_1355","citySlug":"tembedgha","name":"Teatro Municipal","category":"cultura","lat":16.24169173846444,"lng":-8.182510644480212,"avgVisitMinutes":53,"estimatedCostEur":0,"score":4.843578753188942},{"id":"tembedgha_5700","citySlug":"tembedgha","name":"Restaurante Típico de Tembedgha","category":"gastronomia","lat":16.23749912870963,"lng":-8.17346538670988,"avgVisitMinutes":85,"estimatedCostEur":23,"score":3.558257115618684},{"id":"tembedgha_7414","citySlug":"tembedgha","name":"Teatro Municipal","category":"cultura","lat":16.24858860773095,"lng":-8.182344867448457,"avgVisitMinutes":73,"estimatedCostEur":9,"score":2.9674474232209107},{"id":"tekane_9863","citySlug":"tekane","name":"Vista Alta de Tékane","category":"mirador","lat":16.606432464238072,"lng":-15.348108979192183,"avgVisitMinutes":90,"estimatedCostEur":9,"score":2.4463396104225836},{"id":"tekane_1723","citySlug":"tekane","name":"Paseo Principal","category":"ocio","lat":16.59255192517475,"lng":-15.35085955843498,"avgVisitMinutes":48,"estimatedCostEur":8,"score":3.3904026938161627},{"id":"tekane_8594","citySlug":"tekane","name":"Centro de Arte de Tékane","category":"cultura","lat":16.60877293294067,"lng":-15.350999866789751,"avgVisitMinutes":38,"estimatedCostEur":16,"score":0.9240338052323733},{"id":"tekane_3798","citySlug":"tekane","name":"Museo Local de Tékane","category":"historia","lat":16.605194771722374,"lng":-15.355874047985946,"avgVisitMinutes":57,"estimatedCostEur":23,"score":3.3889542714423495},{"id":"tekane_1693","citySlug":"tekane","name":"Parque Central","category":"ocio","lat":16.596542797501964,"lng":-15.356245380519615,"avgVisitMinutes":23,"estimatedCostEur":4,"score":0.6665063057815481},{"id":"tekane_6689","citySlug":"tekane","name":"Zona Comercial","category":"ocio","lat":16.597451288229617,"lng":-15.342319159693709,"avgVisitMinutes":58,"estimatedCostEur":11,"score":1.4334551184669535},{"id":"tekane_6965","citySlug":"tekane","name":"Restaurante Típico de Tékane","category":"gastronomia","lat":16.607995926747222,"lng":-15.352035072895939,"avgVisitMinutes":69,"estimatedCostEur":12,"score":3.4562442630834256},{"id":"tekane_7673","citySlug":"tekane","name":"Iglesia de Tékane","category":"historia","lat":16.606107460421843,"lng":-15.338718488005282,"avgVisitMinutes":74,"estimatedCostEur":18,"score":4.607156041556815},{"id":"tidjikja_5483","citySlug":"tidjikja","name":"Museo Cultural de Tidjikja","category":"cultura","lat":18.566293255593695,"lng":-11.424865187500155,"avgVisitMinutes":33,"estimatedCostEur":16,"score":3.399352840733705},{"id":"tidjikja_8176","citySlug":"tidjikja","name":"Playa Central","category":"playa","lat":18.55845931940282,"lng":-11.422052750922076,"avgVisitMinutes":46,"estimatedCostEur":2,"score":4.651523883311826},{"id":"tidjikja_6466","citySlug":"tidjikja","name":"Restaurante Típico de Tidjikja","category":"gastronomia","lat":18.56119402596904,"lng":-11.420679727326467,"avgVisitMinutes":76,"estimatedCostEur":22,"score":2.0608492310886435},{"id":"tidjikja_6329","citySlug":"tidjikja","name":"Parque Central","category":"ocio","lat":18.565186995447633,"lng":-11.437021632682047,"avgVisitMinutes":60,"estimatedCostEur":13,"score":3.6329883448818387},{"id":"tidjikja_7924","citySlug":"tidjikja","name":"Zona Comercial","category":"ocio","lat":18.5473338124932,"lng":-11.434547705584594,"avgVisitMinutes":23,"estimatedCostEur":6,"score":0.7643594743704509},{"id":"tidjikja_6064","citySlug":"tidjikja","name":"Paseo Principal","category":"ocio","lat":18.547593848056852,"lng":-11.427269061972321,"avgVisitMinutes":52,"estimatedCostEur":12,"score":1.649992299621099},{"id":"tidjikja_7048","citySlug":"tidjikja","name":"Galería de Arte","category":"cultura","lat":18.564658331450676,"lng":-11.433937058811388,"avgVisitMinutes":55,"estimatedCostEur":1,"score":2.4875682880048258},{"id":"tichit_9502","citySlug":"tichit","name":"Castillo de Tîchît","category":"historia","lat":18.44464340643958,"lng":-9.487664286459577,"avgVisitMinutes":31,"estimatedCostEur":25,"score":4.598116826647697},{"id":"tichit_8675","citySlug":"tichit","name":"Playa Central","category":"playa","lat":18.43451276357653,"lng":-9.494009812542814,"avgVisitMinutes":66,"estimatedCostEur":16,"score":4.888910632374412},{"id":"tichit_3387","citySlug":"tichit","name":"Ruta de Tapas","category":"gastronomia","lat":18.435516514845876,"lng":-9.500041134209324,"avgVisitMinutes":76,"estimatedCostEur":7,"score":4.3571738270972755},{"id":"tichit_9683","citySlug":"tichit","name":"Punto Panorámico","category":"mirador","lat":18.432617687270938,"lng":-9.496952162741609,"avgVisitMinutes":34,"estimatedCostEur":25,"score":3.7228437298652817},{"id":"tichit_7665","citySlug":"tichit","name":"Murallas de Tîchît","category":"historia","lat":18.450113029727778,"lng":-9.487466135843015,"avgVisitMinutes":77,"estimatedCostEur":17,"score":2.7323700771075536},{"id":"tichit_8347","citySlug":"tichit","name":"Galería de Arte","category":"cultura","lat":18.443163206110658,"lng":-9.497815186444296,"avgVisitMinutes":90,"estimatedCostEur":9,"score":4.138917094913063},{"id":"tichit_6122","citySlug":"tichit","name":"Mercado Gastronómico","category":"gastronomia","lat":18.43553530698608,"lng":-9.492998559127702,"avgVisitMinutes":67,"estimatedCostEur":8,"score":1.166212694958992},{"id":"tachott-brana_8906","citySlug":"tachott-brana","name":"Ruta de Tapas","category":"gastronomia","lat":15.42781839869929,"lng":-12.263546758703557,"avgVisitMinutes":38,"estimatedCostEur":5,"score":0.6630367514057878},{"id":"tachott-brana_9549","citySlug":"tachott-brana","name":"Mirador de Tachott Brana","category":"mirador","lat":15.427085273405197,"lng":-12.258825643915698,"avgVisitMinutes":72,"estimatedCostEur":21,"score":2.620564618912227},{"id":"tachott-brana_9839","citySlug":"tachott-brana","name":"Mercado Gastronómico","category":"gastronomia","lat":15.436599852949177,"lng":-12.26898902909955,"avgVisitMinutes":33,"estimatedCostEur":4,"score":3.0166960237752183},{"id":"tachott-brana_4367","citySlug":"tachott-brana","name":"Zona Comercial","category":"ocio","lat":15.442407355965791,"lng":-12.272502836897466,"avgVisitMinutes":33,"estimatedCostEur":15,"score":3.2823356149180554},{"id":"tachott-brana_3472","citySlug":"tachott-brana","name":"Parque Central","category":"ocio","lat":15.434325895068655,"lng":-12.266633883088897,"avgVisitMinutes":85,"estimatedCostEur":1,"score":3.689972583695362},{"id":"tachott-brana_2787","citySlug":"tachott-brana","name":"Iglesia de Tachott Brana","category":"historia","lat":15.426761532396666,"lng":-12.270234733333044,"avgVisitMinutes":88,"estimatedCostEur":14,"score":1.1710164710768158},{"id":"tachott-brana_1420","citySlug":"tachott-brana","name":"Museo Local de Tachott Brana","category":"historia","lat":15.432490112986363,"lng":-12.263114121117255,"avgVisitMinutes":41,"estimatedCostEur":7,"score":1.0051587312860766},{"id":"tamchekett_9022","citySlug":"tamchekett","name":"Vista Alta de Tamchekett","category":"mirador","lat":17.24568368978794,"lng":-10.673670983723262,"avgVisitMinutes":54,"estimatedCostEur":22,"score":2.992699024921496},{"id":"tamchekett_9206","citySlug":"tamchekett","name":"Centro de Arte de Tamchekett","category":"cultura","lat":17.243777800134957,"lng":-10.675428130439164,"avgVisitMinutes":24,"estimatedCostEur":4,"score":3.795814486971539},{"id":"tamchekett_5086","citySlug":"tamchekett","name":"Parque Central","category":"ocio","lat":17.244252625341442,"lng":-10.669503999416047,"avgVisitMinutes":39,"estimatedCostEur":1,"score":2.9397572603595497},{"id":"tamchekett_6357","citySlug":"tamchekett","name":"Playa Norte","category":"playa","lat":17.247419086065392,"lng":-10.667443274820215,"avgVisitMinutes":36,"estimatedCostEur":2,"score":2.5934344418160764},{"id":"tamchekett_8047","citySlug":"tamchekett","name":"Zona Comercial","category":"ocio","lat":17.23539913567784,"lng":-10.662600717777293,"avgVisitMinutes":56,"estimatedCostEur":18,"score":2.631989293920308},{"id":"tamchekett_7477","citySlug":"tamchekett","name":"Centro de Arte de Tamchekett","category":"cultura","lat":17.253068957841588,"lng":-10.674007895270003,"avgVisitMinutes":50,"estimatedCostEur":6,"score":2.4400935208032557},{"id":"tamchekett_6952","citySlug":"tamchekett","name":"Zona Comercial","category":"ocio","lat":17.2430602617515,"lng":-10.6622851879599,"avgVisitMinutes":46,"estimatedCostEur":20,"score":1.1421853547312268},{"id":"tamchekett_4408","citySlug":"tamchekett","name":"Centro de Arte de Tamchekett","category":"cultura","lat":17.238789679406874,"lng":-10.664625233276352,"avgVisitMinutes":21,"estimatedCostEur":14,"score":4.000268642759433},{"id":"tamchekett_7390","citySlug":"tamchekett","name":"Playa Norte","category":"playa","lat":17.239696768774806,"lng":-10.674718566267707,"avgVisitMinutes":87,"estimatedCostEur":5,"score":1.6649877683014542},{"id":"tamchekett_7209","citySlug":"tamchekett","name":"Mirador de Tamchekett","category":"mirador","lat":17.24201343565401,"lng":-10.672286880722302,"avgVisitMinutes":89,"estimatedCostEur":10,"score":4.032359352048607},{"id":"selibaby_6339","citySlug":"selibaby","name":"Mercado Gastronómico","category":"gastronomia","lat":15.153114376876127,"lng":-12.184905711324237,"avgVisitMinutes":74,"estimatedCostEur":17,"score":2.0147311009389823},{"id":"selibaby_6627","citySlug":"selibaby","name":"Punto Panorámico","category":"mirador","lat":15.166979672114117,"lng":-12.174911475432104,"avgVisitMinutes":54,"estimatedCostEur":17,"score":1.9307865162771292},{"id":"selibaby_3005","citySlug":"selibaby","name":"Mercado Gastronómico","category":"gastronomia","lat":15.16354033585241,"lng":-12.185163575454629,"avgVisitMinutes":73,"estimatedCostEur":23,"score":1.0640908257176407},{"id":"selibaby_6377","citySlug":"selibaby","name":"Ruta de Tapas","category":"gastronomia","lat":15.166697894223756,"lng":-12.189184082786024,"avgVisitMinutes":20,"estimatedCostEur":1,"score":3.122548437698591},{"id":"selibaby_5008","citySlug":"selibaby","name":"Playa Central","category":"playa","lat":15.163238393310383,"lng":-12.189248607024048,"avgVisitMinutes":90,"estimatedCostEur":8,"score":1.370814408015813},{"id":"selibaby_7427","citySlug":"selibaby","name":"Playa Sur","category":"playa","lat":15.1578826573854,"lng":-12.190563882828553,"avgVisitMinutes":57,"estimatedCostEur":10,"score":0.5445446590617804},{"id":"selibaby_4187","citySlug":"selibaby","name":"Mercado Gastronómico","category":"gastronomia","lat":15.160473675151813,"lng":-12.177317273524526,"avgVisitMinutes":64,"estimatedCostEur":12,"score":2.168626826441797},{"id":"sagne_4480","citySlug":"sagne","name":"Murallas de Sagné","category":"historia","lat":15.199751899103877,"lng":-12.794972901811139,"avgVisitMinutes":30,"estimatedCostEur":20,"score":4.875643921423188},{"id":"sagne_5294","citySlug":"sagne","name":"Restaurante Típico de Sagné","category":"gastronomia","lat":15.198062199941832,"lng":-12.783512704883275,"avgVisitMinutes":41,"estimatedCostEur":20,"score":4.110585626708538},{"id":"sagne_2578","citySlug":"sagne","name":"Centro de Arte de Sagné","category":"cultura","lat":15.196182785230201,"lng":-12.780565244172013,"avgVisitMinutes":22,"estimatedCostEur":14,"score":1.7421978868429635},{"id":"sagne_6687","citySlug":"sagne","name":"Centro de Arte de Sagné","category":"cultura","lat":15.198315671924693,"lng":-12.783569993210259,"avgVisitMinutes":84,"estimatedCostEur":17,"score":1.258407591215256},{"id":"sagne_8748","citySlug":"sagne","name":"Mirador de Sagné","category":"mirador","lat":15.209102664188975,"lng":-12.788353866542684,"avgVisitMinutes":20,"estimatedCostEur":0,"score":2.6330906006998025},{"id":"sagne_5569","citySlug":"sagne","name":"Mercado Gastronómico","category":"gastronomia","lat":15.211479174646453,"lng":-12.788360641095014,"avgVisitMinutes":90,"estimatedCostEur":14,"score":2.4559852026462057},{"id":"rosso_7082","citySlug":"rosso","name":"Zona Comercial","category":"ocio","lat":16.520954201333016,"lng":-15.800775750543973,"avgVisitMinutes":35,"estimatedCostEur":15,"score":3.176725655939113},{"id":"rosso_7705","citySlug":"rosso","name":"Iglesia de Rosso","category":"historia","lat":16.512143832799893,"lng":-15.803167471323363,"avgVisitMinutes":60,"estimatedCostEur":1,"score":1.7089042685942661},{"id":"rosso_6736","citySlug":"rosso","name":"Galería de Arte","category":"cultura","lat":16.506731420099804,"lng":-15.81340089010166,"avgVisitMinutes":60,"estimatedCostEur":8,"score":2.152156368089746},{"id":"rosso_4720","citySlug":"rosso","name":"Playa Sur","category":"playa","lat":16.50535993109746,"lng":-15.809692066342828,"avgVisitMinutes":70,"estimatedCostEur":20,"score":1.8855424012603827},{"id":"rosso_7856","citySlug":"rosso","name":"Castillo de Rosso","category":"historia","lat":16.513094748387132,"lng":-15.79546188702635,"avgVisitMinutes":42,"estimatedCostEur":9,"score":3.082635946165425},{"id":"elghabra_8516","citySlug":"elghabra","name":"Playa Norte","category":"playa","lat":16.64181157866943,"lng":-12.678932881005332,"avgVisitMinutes":78,"estimatedCostEur":1,"score":1.2751423731901441},{"id":"elghabra_4520","citySlug":"elghabra","name":"Paseo Principal","category":"ocio","lat":16.647259875781643,"lng":-12.667641704065,"avgVisitMinutes":42,"estimatedCostEur":24,"score":3.5286712255583734},{"id":"elghabra_8610","citySlug":"elghabra","name":"Paseo Principal","category":"ocio","lat":16.642937320171903,"lng":-12.672261783140057,"avgVisitMinutes":45,"estimatedCostEur":3,"score":1.0456929350610111},{"id":"elghabra_3781","citySlug":"elghabra","name":"Mirador de Elghabra","category":"mirador","lat":16.656927191649967,"lng":-12.668905453390481,"avgVisitMinutes":38,"estimatedCostEur":4,"score":4.996017076879164},{"id":"elghabra_8944","citySlug":"elghabra","name":"Museo Local de Elghabra","category":"historia","lat":16.64643067725627,"lng":-12.67443900830981,"avgVisitMinutes":41,"estimatedCostEur":22,"score":4.5020602351949135},{"id":"elghabra_7179","citySlug":"elghabra","name":"Mercado Gastronómico","category":"gastronomia","lat":16.651295174818408,"lng":-12.680079727829904,"avgVisitMinutes":70,"estimatedCostEur":5,"score":4.39101109997716},{"id":"elghabra_3814","citySlug":"elghabra","name":"Ruta de Tapas","category":"gastronomia","lat":16.652422911807324,"lng":-12.663125284964435,"avgVisitMinutes":87,"estimatedCostEur":17,"score":3.17595006699347},{"id":"elghabra_1853","citySlug":"elghabra","name":"Centro Histórico","category":"historia","lat":16.647467408282253,"lng":-12.67558355951649,"avgVisitMinutes":82,"estimatedCostEur":1,"score":4.400861760302954},{"id":"elghabra_8099","citySlug":"elghabra","name":"Restaurante Típico de Elghabra","category":"gastronomia","lat":16.64383182996602,"lng":-12.669616590298865,"avgVisitMinutes":32,"estimatedCostEur":11,"score":3.172961694973488},{"id":"ould-yenje_1309","citySlug":"ould-yenje","name":"Museo Cultural de Ould Yenjé","category":"cultura","lat":15.534648070819237,"lng":-11.72097106022289,"avgVisitMinutes":89,"estimatedCostEur":5,"score":3.341865377507735},{"id":"ould-yenje_4252","citySlug":"ould-yenje","name":"Restaurante Típico de Ould Yenjé","category":"gastronomia","lat":15.545478162619574,"lng":-11.71555822726361,"avgVisitMinutes":74,"estimatedCostEur":10,"score":1.812524444201156},{"id":"ould-yenje_8054","citySlug":"ould-yenje","name":"Mercado Gastronómico","category":"gastronomia","lat":15.531384053908946,"lng":-11.716489673173571,"avgVisitMinutes":37,"estimatedCostEur":18,"score":2.8020704769932956},{"id":"ould-yenje_8206","citySlug":"ould-yenje","name":"Iglesia de Ould Yenjé","category":"historia","lat":15.545658850041768,"lng":-11.714745345420814,"avgVisitMinutes":34,"estimatedCostEur":12,"score":3.578335391639744},{"id":"ould-yenje_4692","citySlug":"ould-yenje","name":"Teatro Municipal","category":"cultura","lat":15.532887258850156,"lng":-11.70578412848652,"avgVisitMinutes":88,"estimatedCostEur":7,"score":2.7886857733046178},{"id":"ould-yenje_7260","citySlug":"ould-yenje","name":"Iglesia de Ould Yenjé","category":"historia","lat":15.548023528012072,"lng":-11.72199401215167,"avgVisitMinutes":83,"estimatedCostEur":19,"score":3.654515235306169},{"id":"ould-yenje_5453","citySlug":"ould-yenje","name":"Centro Histórico","category":"historia","lat":15.542305735414459,"lng":-11.710310895286478,"avgVisitMinutes":52,"estimatedCostEur":19,"score":4.004172340248074},{"id":"ould-yenje_2584","citySlug":"ould-yenje","name":"Zona Comercial","category":"ocio","lat":15.543373250883226,"lng":-11.70765923478219,"avgVisitMinutes":78,"estimatedCostEur":5,"score":3.66517913073627},{"id":"ould-yenje_8060","citySlug":"ould-yenje","name":"Ruta de Tapas","category":"gastronomia","lat":15.541057886051927,"lng":-11.71229392043387,"avgVisitMinutes":88,"estimatedCostEur":21,"score":3.4143088426384134},{"id":"oujeft_8575","citySlug":"oujeft","name":"Restaurante Típico de Oujeft","category":"gastronomia","lat":19.95991417707947,"lng":-13.066450917246806,"avgVisitMinutes":38,"estimatedCostEur":0,"score":0.5369650598507627},{"id":"oujeft_4846","citySlug":"oujeft","name":"Mirador de Oujeft","category":"mirador","lat":19.953048957264784,"lng":-13.052311020065565,"avgVisitMinutes":61,"estimatedCostEur":4,"score":2.3588510485467293},{"id":"oujeft_8396","citySlug":"oujeft","name":"Murallas de Oujeft","category":"historia","lat":19.96566354552478,"lng":-13.050417087941428,"avgVisitMinutes":57,"estimatedCostEur":9,"score":1.108544896226359},{"id":"oujeft_3537","citySlug":"oujeft","name":"Galería de Arte","category":"cultura","lat":19.97050458832418,"lng":-13.064140211460142,"avgVisitMinutes":50,"estimatedCostEur":21,"score":2.877831422557597},{"id":"oujeft_8877","citySlug":"oujeft","name":"Parque Central","category":"ocio","lat":19.963654963975646,"lng":-13.06891868196468,"avgVisitMinutes":76,"estimatedCostEur":13,"score":4.929224078152777},{"id":"oualata_2061","citySlug":"oualata","name":"Castillo de Oualata","category":"historia","lat":17.301804137549546,"lng":-7.020865885686824,"avgVisitMinutes":27,"estimatedCostEur":22,"score":0.8832246923225455},{"id":"oualata_2820","citySlug":"oualata","name":"Mercado Gastronómico","category":"gastronomia","lat":17.303052416796344,"lng":-7.027616322707804,"avgVisitMinutes":73,"estimatedCostEur":17,"score":4.650824746194445},{"id":"oualata_1807","citySlug":"oualata","name":"Centro Histórico","category":"historia","lat":17.29779864564139,"lng":-7.018575124770755,"avgVisitMinutes":56,"estimatedCostEur":7,"score":4.2569180060201015},{"id":"oualata_3228","citySlug":"oualata","name":"Punto Panorámico","category":"mirador","lat":17.299678454411126,"lng":-7.015802796713564,"avgVisitMinutes":43,"estimatedCostEur":21,"score":4.416363810122942},{"id":"oualata_2377","citySlug":"oualata","name":"Ruta de Tapas","category":"gastronomia","lat":17.297902103549802,"lng":-7.029979575453305,"avgVisitMinutes":84,"estimatedCostEur":21,"score":3.0457489678929575},{"id":"oualata_4187","citySlug":"oualata","name":"Parque Central","category":"ocio","lat":17.293009823861617,"lng":-7.0150259075734605,"avgVisitMinutes":84,"estimatedCostEur":8,"score":4.5052833667664824},{"id":"oualata_7295","citySlug":"oualata","name":"Murallas de Oualata","category":"historia","lat":17.29443517058947,"lng":-7.025214582946424,"avgVisitMinutes":90,"estimatedCostEur":3,"score":0.7757507988256731},{"id":"oualata_9258","citySlug":"oualata","name":"Playa Central","category":"playa","lat":17.297607269556007,"lng":-7.01654324862553,"avgVisitMinutes":41,"estimatedCostEur":17,"score":1.8803356462264325},{"id":"oualata_9847","citySlug":"oualata","name":"Castillo de Oualata","category":"historia","lat":17.301475448447192,"lng":-7.024605647228829,"avgVisitMinutes":72,"estimatedCostEur":9,"score":0.9756375593473445},{"id":"oualata_7840","citySlug":"oualata","name":"Playa Central","category":"playa","lat":17.294977484345683,"lng":-7.016077842386037,"avgVisitMinutes":51,"estimatedCostEur":5,"score":4.550105500765308},{"id":"ouadane_2351","citySlug":"ouadane","name":"Ruta de Tapas","category":"gastronomia","lat":20.930488684636522,"lng":-11.620785230385154,"avgVisitMinutes":62,"estimatedCostEur":13,"score":1.5904905955981565},{"id":"ouadane_4328","citySlug":"ouadane","name":"Parque Central","category":"ocio","lat":20.93594562018935,"lng":-11.62020069711626,"avgVisitMinutes":47,"estimatedCostEur":10,"score":2.8337728864485485},{"id":"ouadane_9139","citySlug":"ouadane","name":"Playa Norte","category":"playa","lat":20.927295673926857,"lng":-11.614564024788377,"avgVisitMinutes":24,"estimatedCostEur":0,"score":3.9930292937580094},{"id":"ouadane_3485","citySlug":"ouadane","name":"Parque Central","category":"ocio","lat":20.918635509008894,"lng":-11.624646611142477,"avgVisitMinutes":81,"estimatedCostEur":14,"score":3.0062057333984615},{"id":"ouadane_7214","citySlug":"ouadane","name":"Playa Central","category":"playa","lat":20.93407584645717,"lng":-11.617222750993133,"avgVisitMinutes":77,"estimatedCostEur":6,"score":3.7548001729887854},{"id":"ouadane_7402","citySlug":"ouadane","name":"Paseo Principal","category":"ocio","lat":20.933722920134773,"lng":-11.624722789666821,"avgVisitMinutes":90,"estimatedCostEur":5,"score":3.7820563797166153},{"id":"ouadane_1600","citySlug":"ouadane","name":"Punto Panorámico","category":"mirador","lat":20.92505633417596,"lng":-11.624082690056115,"avgVisitMinutes":90,"estimatedCostEur":9,"score":4.310803695375826},{"id":"nouamghar_6119","citySlug":"nouamghar","name":"Punto Panorámico","category":"mirador","lat":19.354169974547823,"lng":-16.515769331058767,"avgVisitMinutes":28,"estimatedCostEur":19,"score":2.578258281779496},{"id":"nouamghar_6714","citySlug":"nouamghar","name":"Museo Local de Nouâmghâr","category":"historia","lat":19.36442306220767,"lng":-16.516447022701687,"avgVisitMinutes":64,"estimatedCostEur":1,"score":2.3335263397784476},{"id":"nouamghar_3809","citySlug":"nouamghar","name":"Punto Panorámico","category":"mirador","lat":19.366129389367625,"lng":-16.516362011276286,"avgVisitMinutes":52,"estimatedCostEur":25,"score":3.990471623416415},{"id":"nouamghar_2494","citySlug":"nouamghar","name":"Paseo Principal","category":"ocio","lat":19.364900504823854,"lng":-16.512549767657777,"avgVisitMinutes":34,"estimatedCostEur":9,"score":4.6152934174837315},{"id":"nouamghar_9481","citySlug":"nouamghar","name":"Teatro Municipal","category":"cultura","lat":19.354916632194463,"lng":-16.514165813282364,"avgVisitMinutes":89,"estimatedCostEur":20,"score":3.3850296949309224},{"id":"nouamghar_4413","citySlug":"nouamghar","name":"Playa Norte","category":"playa","lat":19.358318354230885,"lng":-16.50593412633738,"avgVisitMinutes":83,"estimatedCostEur":16,"score":1.5949042151211308},{"id":"nouakchott_3598","citySlug":"nouakchott","name":"Mirador de Nouakchott","category":"mirador","lat":18.081068656637473,"lng":-15.969280710758422,"avgVisitMinutes":85,"estimatedCostEur":0,"score":3.1404009678981644},{"id":"nouakchott_9194","citySlug":"nouakchott","name":"Centro Histórico","category":"historia","lat":18.093545500708775,"lng":-15.979168425091578,"avgVisitMinutes":20,"estimatedCostEur":21,"score":4.036203147255476},{"id":"nouakchott_3513","citySlug":"nouakchott","name":"Mercado Gastronómico","category":"gastronomia","lat":18.09522406801803,"lng":-15.981044629271075,"avgVisitMinutes":86,"estimatedCostEur":18,"score":4.92791202136258},{"id":"nouakchott_3999","citySlug":"nouakchott","name":"Playa Sur","category":"playa","lat":18.091361511807715,"lng":-15.977234793295116,"avgVisitMinutes":47,"estimatedCostEur":15,"score":0.9835716260760303},{"id":"nouakchott_5268","citySlug":"nouakchott","name":"Museo Local de Nouakchott","category":"historia","lat":18.095645234325882,"lng":-15.982489352109651,"avgVisitMinutes":77,"estimatedCostEur":17,"score":3.9576365703359886},{"id":"nouakchott_5742","citySlug":"nouakchott","name":"Centro Histórico","category":"historia","lat":18.080140135667833,"lng":-15.972229196859825,"avgVisitMinutes":50,"estimatedCostEur":8,"score":4.786017482801274},{"id":"nouakchott_1313","citySlug":"nouakchott","name":"Playa Norte","category":"playa","lat":18.081674096414375,"lng":-15.97577059408822,"avgVisitMinutes":23,"estimatedCostEur":25,"score":2.1894542992409316},{"id":"nouakchott_5258","citySlug":"nouakchott","name":"Castillo de Nouakchott","category":"historia","lat":18.077364788003692,"lng":-15.978197029991996,"avgVisitMinutes":45,"estimatedCostEur":21,"score":2.74675233111673},{"id":"nouakchott_6044","citySlug":"nouakchott","name":"Mirador de Nouakchott","category":"mirador","lat":18.084760788336297,"lng":-15.98459539960828,"avgVisitMinutes":81,"estimatedCostEur":8,"score":1.8374129884031396},{"id":"nouakchott_4241","citySlug":"nouakchott","name":"Playa Norte","category":"playa","lat":18.08079027245902,"lng":-15.97437222500145,"avgVisitMinutes":82,"estimatedCostEur":5,"score":1.636868056091735},{"id":"nouadhibou_4192","citySlug":"nouadhibou","name":"Galería de Arte","category":"cultura","lat":20.950683897699395,"lng":-17.03713124103887,"avgVisitMinutes":83,"estimatedCostEur":21,"score":0.8116113516380221},{"id":"nouadhibou_9542","citySlug":"nouadhibou","name":"Galería de Arte","category":"cultura","lat":20.932579477244158,"lng":-17.031109352733836,"avgVisitMinutes":88,"estimatedCostEur":23,"score":2.374208120728358},{"id":"nouadhibou_6955","citySlug":"nouadhibou","name":"Galería de Arte","category":"cultura","lat":20.939762180259486,"lng":-17.04231576349381,"avgVisitMinutes":81,"estimatedCostEur":12,"score":1.947602965064346},{"id":"nouadhibou_8356","citySlug":"nouadhibou","name":"Playa Central","category":"playa","lat":20.934507906997016,"lng":-17.04340415884451,"avgVisitMinutes":49,"estimatedCostEur":13,"score":4.508343143028481},{"id":"nouadhibou_2957","citySlug":"nouadhibou","name":"Playa Norte","category":"playa","lat":20.94263865726153,"lng":-17.04546741537552,"avgVisitMinutes":53,"estimatedCostEur":9,"score":1.5835235696559873},{"id":"nouadhibou_1641","citySlug":"nouadhibou","name":"Playa Central","category":"playa","lat":20.933286129715455,"lng":-17.035827463542486,"avgVisitMinutes":25,"estimatedCostEur":22,"score":3.834804448208077},{"id":"nouadhibou_5529","citySlug":"nouadhibou","name":"Playa Sur","category":"playa","lat":20.93380872057804,"lng":-17.030341854200476,"avgVisitMinutes":21,"estimatedCostEur":21,"score":2.8157611962400164},{"id":"nouadhibou_7458","citySlug":"nouadhibou","name":"Playa Norte","category":"playa","lat":20.950475281559022,"lng":-17.046269404330246,"avgVisitMinutes":26,"estimatedCostEur":22,"score":4.228924912396881},{"id":"nouadhibou_2027","citySlug":"nouadhibou","name":"Galería de Arte","category":"cultura","lat":20.948088867681424,"lng":-17.048292534762805,"avgVisitMinutes":64,"estimatedCostEur":5,"score":2.3444861847397624},{"id":"nema_4096","citySlug":"nema","name":"Playa Sur","category":"playa","lat":16.61085738098283,"lng":-7.259290756405463,"avgVisitMinutes":60,"estimatedCostEur":3,"score":0.6311230464025104},{"id":"nema_6365","citySlug":"nema","name":"Restaurante Típico de Néma","category":"gastronomia","lat":16.626618539723005,"lng":-7.264352625322716,"avgVisitMinutes":55,"estimatedCostEur":5,"score":2.8051138328014056},{"id":"nema_9848","citySlug":"nema","name":"Teatro Municipal","category":"cultura","lat":16.612231474037078,"lng":-7.2468174916077785,"avgVisitMinutes":24,"estimatedCostEur":4,"score":0.8929674994234806},{"id":"nema_2677","citySlug":"nema","name":"Zona Comercial","category":"ocio","lat":16.610689845756834,"lng":-7.255351347544564,"avgVisitMinutes":62,"estimatedCostEur":7,"score":4.550181291789407},{"id":"nema_6340","citySlug":"nema","name":"Playa Norte","category":"playa","lat":16.61068187549535,"lng":-7.257445219836061,"avgVisitMinutes":84,"estimatedCostEur":3,"score":2.056693832797384},{"id":"nema_8088","citySlug":"nema","name":"Teatro Municipal","category":"cultura","lat":16.616278868613723,"lng":-7.253597804532566,"avgVisitMinutes":52,"estimatedCostEur":12,"score":3.7924876095969458},{"id":"nema_5343","citySlug":"nema","name":"Mercado Gastronómico","category":"gastronomia","lat":16.622656090097248,"lng":-7.251268320001241,"avgVisitMinutes":41,"estimatedCostEur":4,"score":4.1704480774578805},{"id":"nema_8237","citySlug":"nema","name":"Mirador de Néma","category":"mirador","lat":16.611741355461778,"lng":-7.2465404437658245,"avgVisitMinutes":25,"estimatedCostEur":7,"score":1.072245768451768},{"id":"nema_7480","citySlug":"nema","name":"Vista Alta de Néma","category":"mirador","lat":16.61294244264516,"lng":-7.247131300765676,"avgVisitMinutes":60,"estimatedCostEur":10,"score":2.6857004594762266},{"id":"nema_5751","citySlug":"nema","name":"Paseo Principal","category":"ocio","lat":16.61389752186059,"lng":-7.259746102674861,"avgVisitMinutes":85,"estimatedCostEur":1,"score":2.7844617947921746},{"id":"nema_6872","citySlug":"nema","name":"Paseo Principal","category":"ocio","lat":16.607900570974532,"lng":-7.2566313218126846,"avgVisitMinutes":33,"estimatedCostEur":17,"score":3.889582420385448},{"id":"ndiago_5416","citySlug":"ndiago","name":"Vista Alta de Ndiago","category":"mirador","lat":16.16254777864356,"lng":-16.506797466799956,"avgVisitMinutes":68,"estimatedCostEur":0,"score":4.596903950845919},{"id":"ndiago_3423","citySlug":"ndiago","name":"Playa Central","category":"playa","lat":16.16722039585805,"lng":-16.517088074147175,"avgVisitMinutes":41,"estimatedCostEur":3,"score":2.310698278096472},{"id":"ndiago_6169","citySlug":"ndiago","name":"Museo Cultural de Ndiago","category":"cultura","lat":16.173486502928462,"lng":-16.519666392310036,"avgVisitMinutes":87,"estimatedCostEur":6,"score":4.7484618675342105},{"id":"ndiago_3972","citySlug":"ndiago","name":"Playa Norte","category":"playa","lat":16.15963551652443,"lng":-16.51062595619488,"avgVisitMinutes":88,"estimatedCostEur":2,"score":4.44179398489558},{"id":"ndiago_6111","citySlug":"ndiago","name":"Galería de Arte","category":"cultura","lat":16.17515629509492,"lng":-16.512094986541126,"avgVisitMinutes":36,"estimatedCostEur":3,"score":3.8449102649964066},{"id":"ndiago_8514","citySlug":"ndiago","name":"Punto Panorámico","category":"mirador","lat":16.171560323290414,"lng":-16.51269428215505,"avgVisitMinutes":55,"estimatedCostEur":0,"score":0.5584317436741086},{"id":"ndiago_5907","citySlug":"ndiago","name":"Playa Norte","category":"playa","lat":16.167931222505214,"lng":-16.504853156705227,"avgVisitMinutes":34,"estimatedCostEur":13,"score":2.562751947021817},{"id":"ndiago_4096","citySlug":"ndiago","name":"Castillo de Ndiago","category":"historia","lat":16.167374250331097,"lng":-16.510028632234754,"avgVisitMinutes":26,"estimatedCostEur":20,"score":3.2909565070601987},{"id":"ndiago_8489","citySlug":"ndiago","name":"Museo Cultural de Ndiago","category":"cultura","lat":16.165273681715394,"lng":-16.509165819864563,"avgVisitMinutes":50,"estimatedCostEur":9,"score":4.196994478760372},{"id":"ndiago_9412","citySlug":"ndiago","name":"Parque Central","category":"ocio","lat":16.177227792939153,"lng":-16.504905445465116,"avgVisitMinutes":76,"estimatedCostEur":0,"score":4.31997153138601},{"id":"ndiago_4920","citySlug":"ndiago","name":"Ruta de Tapas","category":"gastronomia","lat":16.167740028194675,"lng":-16.505657254931183,"avgVisitMinutes":79,"estimatedCostEur":17,"score":3.9375946001575155},{"id":"moudjeria_2723","citySlug":"moudjeria","name":"Playa Norte","category":"playa","lat":17.87931220119866,"lng":-12.337778193839183,"avgVisitMinutes":74,"estimatedCostEur":12,"score":4.485800670823803},{"id":"moudjeria_4121","citySlug":"moudjeria","name":"Mirador de Moudjeria","category":"mirador","lat":17.881391807946777,"lng":-12.325366288356763,"avgVisitMinutes":27,"estimatedCostEur":7,"score":1.4063062025994038},{"id":"moudjeria_9707","citySlug":"moudjeria","name":"Punto Panorámico","category":"mirador","lat":17.87558749622602,"lng":-12.33278142965593,"avgVisitMinutes":68,"estimatedCostEur":20,"score":3.996005976488362},{"id":"moudjeria_3126","citySlug":"moudjeria","name":"Mirador de Moudjeria","category":"mirador","lat":17.876582059368282,"lng":-12.324647711760951,"avgVisitMinutes":56,"estimatedCostEur":18,"score":3.5177749098915005},{"id":"moudjeria_9936","citySlug":"moudjeria","name":"Parque Central","category":"ocio","lat":17.877423144753646,"lng":-12.331918854345687,"avgVisitMinutes":28,"estimatedCostEur":23,"score":0.52360138564873},{"id":"moudjeria_4938","citySlug":"moudjeria","name":"Restaurante Típico de Moudjeria","category":"gastronomia","lat":17.86887652050775,"lng":-12.32825225344871,"avgVisitMinutes":76,"estimatedCostEur":13,"score":3.8016665331978543},{"id":"moudjeria_7516","citySlug":"moudjeria","name":"Museo Cultural de Moudjeria","category":"cultura","lat":17.87748699534579,"lng":-12.33144329889834,"avgVisitMinutes":35,"estimatedCostEur":18,"score":4.702380458355016},{"id":"moudjeria_1143","citySlug":"moudjeria","name":"Playa Norte","category":"playa","lat":17.873789574272312,"lng":-12.336273000515806,"avgVisitMinutes":72,"estimatedCostEur":4,"score":2.5569260865251655},{"id":"moudjeria_7969","citySlug":"moudjeria","name":"Zona Comercial","category":"ocio","lat":17.87537769991819,"lng":-12.3358285335965,"avgVisitMinutes":34,"estimatedCostEur":13,"score":3.371939897385724},{"id":"moudjeria_2423","citySlug":"moudjeria","name":"Playa Central","category":"playa","lat":17.877771146183534,"lng":-12.326627521582996,"avgVisitMinutes":43,"estimatedCostEur":22,"score":4.529422522020026},{"id":"monguel_1490","citySlug":"monguel","name":"Mirador de Mônguel","category":"mirador","lat":16.41700685934605,"lng":-13.136195428610261,"avgVisitMinutes":34,"estimatedCostEur":25,"score":4.974863062345396},{"id":"monguel_2975","citySlug":"monguel","name":"Vista Alta de Mônguel","category":"mirador","lat":16.431347984126113,"lng":-13.138386009539872,"avgVisitMinutes":53,"estimatedCostEur":1,"score":2.267324411313295},{"id":"monguel_2898","citySlug":"monguel","name":"Murallas de Mônguel","category":"historia","lat":16.43124161266035,"lng":-13.138741615990211,"avgVisitMinutes":68,"estimatedCostEur":25,"score":1.3540174503483366},{"id":"monguel_9326","citySlug":"monguel","name":"Teatro Municipal","category":"cultura","lat":16.417928759279633,"lng":-13.144366138783163,"avgVisitMinutes":34,"estimatedCostEur":21,"score":2.9204739854515265},{"id":"monguel_3924","citySlug":"monguel","name":"Murallas de Mônguel","category":"historia","lat":16.430013081247136,"lng":-13.14957250569278,"avgVisitMinutes":59,"estimatedCostEur":14,"score":1.6459149422478636},{"id":"monguel_7121","citySlug":"monguel","name":"Centro de Arte de Mônguel","category":"cultura","lat":16.431895048214074,"lng":-13.144629933955008,"avgVisitMinutes":85,"estimatedCostEur":1,"score":3.9746957423351454},{"id":"monguel_9397","citySlug":"monguel","name":"Mirador de Mônguel","category":"mirador","lat":16.42262496711283,"lng":-13.134709248913843,"avgVisitMinutes":84,"estimatedCostEur":18,"score":0.8611701232275082},{"id":"mederdra_8011","citySlug":"mederdra","name":"Vista Alta de Mederdra","category":"mirador","lat":16.932267949196635,"lng":-15.650751302430809,"avgVisitMinutes":90,"estimatedCostEur":3,"score":1.8127129790167464},{"id":"mederdra_7653","citySlug":"mederdra","name":"Playa Central","category":"playa","lat":16.913879024449592,"lng":-15.66044599257129,"avgVisitMinutes":88,"estimatedCostEur":10,"score":4.1734934128709655},{"id":"mederdra_2769","citySlug":"mederdra","name":"Mirador de Mederdra","category":"mirador","lat":16.916781005692798,"lng":-15.649565649883064,"avgVisitMinutes":65,"estimatedCostEur":19,"score":4.030841675830512},{"id":"mederdra_8142","citySlug":"mederdra","name":"Zona Comercial","category":"ocio","lat":16.917645287309313,"lng":-15.662878503687702,"avgVisitMinutes":37,"estimatedCostEur":2,"score":4.835340574079823},{"id":"mederdra_7298","citySlug":"mederdra","name":"Playa Norte","category":"playa","lat":16.91388040871521,"lng":-15.662764435010082,"avgVisitMinutes":40,"estimatedCostEur":14,"score":1.5238905349297247},{"id":"mederdra_9910","citySlug":"mederdra","name":"Galería de Arte","category":"cultura","lat":16.923620235778237,"lng":-15.662104045229295,"avgVisitMinutes":85,"estimatedCostEur":21,"score":4.86165233855198},{"id":"mederdra_2677","citySlug":"mederdra","name":"Playa Sur","category":"playa","lat":16.920989065678942,"lng":-15.64705161664941,"avgVisitMinutes":87,"estimatedCostEur":4,"score":3.427160322576053},{"id":"mederdra_9941","citySlug":"mederdra","name":"Restaurante Típico de Mederdra","category":"gastronomia","lat":16.932293268149664,"lng":-15.648795387129054,"avgVisitMinutes":66,"estimatedCostEur":22,"score":2.788139908153936},{"id":"mederdra_8635","citySlug":"mederdra","name":"Ruta de Tapas","category":"gastronomia","lat":16.92685739720469,"lng":-15.648606773357008,"avgVisitMinutes":75,"estimatedCostEur":6,"score":3.7002583901513186},{"id":"mboutt_1706","citySlug":"mboutt","name":"Zona Comercial","category":"ocio","lat":16.01451739452141,"lng":-12.576499694422957,"avgVisitMinutes":66,"estimatedCostEur":7,"score":1.3406272552112224},{"id":"mboutt_8008","citySlug":"mboutt","name":"Ruta de Tapas","category":"gastronomia","lat":16.018013421379514,"lng":-12.581037557375232,"avgVisitMinutes":51,"estimatedCostEur":6,"score":2.70738246522871},{"id":"mboutt_9692","citySlug":"mboutt","name":"Mirador de Mboutt","category":"mirador","lat":16.013601608218583,"lng":-12.580303632690136,"avgVisitMinutes":88,"estimatedCostEur":20,"score":0.8097538191661837},{"id":"mboutt_2421","citySlug":"mboutt","name":"Museo Cultural de Mboutt","category":"cultura","lat":16.02616097085774,"lng":-12.57989431294789,"avgVisitMinutes":77,"estimatedCostEur":16,"score":0.5856473742359923},{"id":"mboutt_9388","citySlug":"mboutt","name":"Playa Norte","category":"playa","lat":16.02321998739128,"lng":-12.576994792491114,"avgVisitMinutes":21,"estimatedCostEur":17,"score":2.7256659663476617},{"id":"mboutt_1395","citySlug":"mboutt","name":"Iglesia de Mboutt","category":"historia","lat":16.01853238055017,"lng":-12.581267215575473,"avgVisitMinutes":65,"estimatedCostEur":20,"score":3.821265573468211},{"id":"mbagne_5851","citySlug":"mbagne","name":"Castillo de Mbagne","category":"historia","lat":16.13687209524195,"lng":-13.795675395081215,"avgVisitMinutes":84,"estimatedCostEur":22,"score":4.9492479967945116},{"id":"mbagne_7429","citySlug":"mbagne","name":"Centro de Arte de Mbagne","category":"cultura","lat":16.152595120026675,"lng":-13.797615689478551,"avgVisitMinutes":83,"estimatedCostEur":22,"score":3.418712401448728},{"id":"mbagne_3264","citySlug":"mbagne","name":"Punto Panorámico","category":"mirador","lat":16.150967249032373,"lng":-13.794988749713161,"avgVisitMinutes":49,"estimatedCostEur":1,"score":1.7301907703009096},{"id":"mbagne_8008","citySlug":"mbagne","name":"Museo Local de Mbagne","category":"historia","lat":16.14144917290295,"lng":-13.792945516001263,"avgVisitMinutes":77,"estimatedCostEur":7,"score":0.5833198596200916},{"id":"mbagne_5922","citySlug":"mbagne","name":"Vista Alta de Mbagne","category":"mirador","lat":16.142499520011086,"lng":-13.797188419220346,"avgVisitMinutes":24,"estimatedCostEur":23,"score":2.5052850781366116},{"id":"mbagne_1635","citySlug":"mbagne","name":"Vista Alta de Mbagne","category":"mirador","lat":16.140826549511967,"lng":-13.79982054166484,"avgVisitMinutes":87,"estimatedCostEur":25,"score":4.9209408253405},{"id":"mbagne_1117","citySlug":"mbagne","name":"Castillo de Mbagne","category":"historia","lat":16.145892785889902,"lng":-13.789085027497562,"avgVisitMinutes":36,"estimatedCostEur":24,"score":1.7698727321639784},{"id":"magta-lahjar_7456","citySlug":"magta-lahjar","name":"Murallas de Magṭa‘ Laḥjar","category":"historia","lat":17.504227336952518,"lng":-13.095116058996139,"avgVisitMinutes":68,"estimatedCostEur":14,"score":3.39827910362981},{"id":"magta-lahjar_4888","citySlug":"magta-lahjar","name":"Mercado Gastronómico","category":"gastronomia","lat":17.500058943860594,"lng":-13.090584955739436,"avgVisitMinutes":36,"estimatedCostEur":22,"score":0.7673436580774342},{"id":"magta-lahjar_8195","citySlug":"magta-lahjar","name":"Playa Central","category":"playa","lat":17.50357477539545,"lng":-13.093386300367861,"avgVisitMinutes":72,"estimatedCostEur":2,"score":3.0832665477913235},{"id":"magta-lahjar_6136","citySlug":"magta-lahjar","name":"Playa Sur","category":"playa","lat":17.506995469239936,"lng":-13.097588690979574,"avgVisitMinutes":36,"estimatedCostEur":12,"score":4.55096148803438},{"id":"magta-lahjar_7614","citySlug":"magta-lahjar","name":"Parque Central","category":"ocio","lat":17.50223756364201,"lng":-13.090850316401578,"avgVisitMinutes":29,"estimatedCostEur":19,"score":1.2758370549187639},{"id":"magta-lahjar_4453","citySlug":"magta-lahjar","name":"Paseo Principal","category":"ocio","lat":17.513716556801352,"lng":-13.100880288978153,"avgVisitMinutes":40,"estimatedCostEur":14,"score":1.6941965880989265},{"id":"magta-lahjar_3763","citySlug":"magta-lahjar","name":"Castillo de Magṭa‘ Laḥjar","category":"historia","lat":17.513292733725898,"lng":-13.098859494780125,"avgVisitMinutes":63,"estimatedCostEur":23,"score":0.6776755325484992},{"id":"magta-lahjar_8045","citySlug":"magta-lahjar","name":"Vista Alta de Magṭa‘ Laḥjar","category":"mirador","lat":17.50677346640995,"lng":-13.094170385557634,"avgVisitMinutes":36,"estimatedCostEur":17,"score":1.5494287371324091},{"id":"maghama_7107","citySlug":"maghama","name":"Centro de Arte de Maghama","category":"cultura","lat":15.514737767733232,"lng":-12.854516722228048,"avgVisitMinutes":37,"estimatedCostEur":5,"score":2.8091933412063628},{"id":"maghama_6608","citySlug":"maghama","name":"Playa Sur","category":"playa","lat":15.503398208961253,"lng":-12.844229163492633,"avgVisitMinutes":83,"estimatedCostEur":1,"score":3.119204558499014},{"id":"maghama_7832","citySlug":"maghama","name":"Ruta de Tapas","category":"gastronomia","lat":15.500727065948315,"lng":-12.84517547242579,"avgVisitMinutes":76,"estimatedCostEur":19,"score":2.2061127155838363},{"id":"maghama_8181","citySlug":"maghama","name":"Playa Central","category":"playa","lat":15.505406720618724,"lng":-12.851017106605761,"avgVisitMinutes":55,"estimatedCostEur":21,"score":2.2461523762016338},{"id":"maghama_3315","citySlug":"maghama","name":"Playa Sur","category":"playa","lat":15.518504235751065,"lng":-12.855834880380216,"avgVisitMinutes":20,"estimatedCostEur":24,"score":3.498864155168987},{"id":"maghama_1473","citySlug":"maghama","name":"Ruta de Tapas","category":"gastronomia","lat":15.513438124234627,"lng":-12.85260835668392,"avgVisitMinutes":90,"estimatedCostEur":5,"score":4.791531129699683},{"id":"maghama_5674","citySlug":"maghama","name":"Punto Panorámico","category":"mirador","lat":15.506067777314765,"lng":-12.840996377233678,"avgVisitMinutes":36,"estimatedCostEur":1,"score":4.540550943418165},{"id":"maghama_4527","citySlug":"maghama","name":"Punto Panorámico","category":"mirador","lat":15.512734239909467,"lng":-12.856841827872616,"avgVisitMinutes":32,"estimatedCostEur":24,"score":4.808946102451252},{"id":"kiffa_1970","citySlug":"kiffa","name":"Restaurante Típico de Kiffa","category":"gastronomia","lat":16.61492200290461,"lng":-11.398590831085286,"avgVisitMinutes":79,"estimatedCostEur":4,"score":3.5519055226289837},{"id":"kiffa_3314","citySlug":"kiffa","name":"Restaurante Típico de Kiffa","category":"gastronomia","lat":16.625845635207124,"lng":-11.409038831742599,"avgVisitMinutes":46,"estimatedCostEur":19,"score":1.2604742571304806},{"id":"kiffa_1536","citySlug":"kiffa","name":"Mercado Gastronómico","category":"gastronomia","lat":16.617100637593488,"lng":-11.404932240664031,"avgVisitMinutes":79,"estimatedCostEur":18,"score":3.274622490969731},{"id":"kiffa_7476","citySlug":"kiffa","name":"Playa Sur","category":"playa","lat":16.617058397826263,"lng":-11.402196817177385,"avgVisitMinutes":70,"estimatedCostEur":20,"score":3.7342052662284186},{"id":"kiffa_5169","citySlug":"kiffa","name":"Teatro Municipal","category":"cultura","lat":16.6233409585311,"lng":-11.410163292271282,"avgVisitMinutes":39,"estimatedCostEur":23,"score":2.13207262403009},{"id":"kiffa_5846","citySlug":"kiffa","name":"Restaurante Típico de Kiffa","category":"gastronomia","lat":16.614326685211577,"lng":-11.404958483408473,"avgVisitMinutes":62,"estimatedCostEur":8,"score":4.233185192066613},{"id":"kiffa_8736","citySlug":"kiffa","name":"Restaurante Típico de Kiffa","category":"gastronomia","lat":16.622403087273,"lng":-11.392840405132352,"avgVisitMinutes":36,"estimatedCostEur":4,"score":2.6008317835813415},{"id":"kiffa_4873","citySlug":"kiffa","name":"Ruta de Tapas","category":"gastronomia","lat":16.6196775669072,"lng":-11.410923103653225,"avgVisitMinutes":68,"estimatedCostEur":16,"score":3.3567539059015896},{"id":"kiffa_7945","citySlug":"kiffa","name":"Galería de Arte","category":"cultura","lat":16.628576423462032,"lng":-11.400706031933531,"avgVisitMinutes":37,"estimatedCostEur":8,"score":3.4376967818882944},{"id":"kiffa_8670","citySlug":"kiffa","name":"Playa Norte","category":"playa","lat":16.630327666220367,"lng":-11.409075169980081,"avgVisitMinutes":38,"estimatedCostEur":20,"score":2.0126852035328886},{"id":"kiffa_1834","citySlug":"kiffa","name":"Vista Alta de Kiffa","category":"mirador","lat":16.612899386174362,"lng":-11.411345997486256,"avgVisitMinutes":24,"estimatedCostEur":6,"score":1.5638324806308053},{"id":"keurmassene_4993","citySlug":"keurmassene","name":"Zona Comercial","category":"ocio","lat":16.545401716874224,"lng":-16.214737760198048,"avgVisitMinutes":42,"estimatedCostEur":11,"score":4.59575305419189},{"id":"keurmassene_2060","citySlug":"keurmassene","name":"Museo Cultural de KeurMassène","category":"cultura","lat":16.537063964152026,"lng":-16.216023328557085,"avgVisitMinutes":30,"estimatedCostEur":25,"score":4.643084101365278},{"id":"keurmassene_9765","citySlug":"keurmassene","name":"Paseo Principal","category":"ocio","lat":16.53546521777531,"lng":-16.210668341863464,"avgVisitMinutes":89,"estimatedCostEur":14,"score":1.1415890423637738},{"id":"keurmassene_8639","citySlug":"keurmassene","name":"Punto Panorámico","category":"mirador","lat":16.547906416261114,"lng":-16.217127691587077,"avgVisitMinutes":36,"estimatedCostEur":15,"score":2.0924841824050278},{"id":"keurmassene_3042","citySlug":"keurmassene","name":"Museo Cultural de KeurMassène","category":"cultura","lat":16.54053491613592,"lng":-16.20715983889798,"avgVisitMinutes":51,"estimatedCostEur":6,"score":2.3868971807683237},{"id":"keurmassene_1540","citySlug":"keurmassene","name":"Paseo Principal","category":"ocio","lat":16.542650146355328,"lng":-16.214293597245756,"avgVisitMinutes":61,"estimatedCostEur":4,"score":3.8549359453995375},{"id":"keurmassene_2953","citySlug":"keurmassene","name":"Playa Central","category":"playa","lat":16.540547639532587,"lng":-16.213170722005476,"avgVisitMinutes":81,"estimatedCostEur":0,"score":1.307941248059923},{"id":"keurmassene_4738","citySlug":"keurmassene","name":"Zona Comercial","category":"ocio","lat":16.52848317529635,"lng":-16.22042206728277,"avgVisitMinutes":56,"estimatedCostEur":14,"score":3.43830154418883},{"id":"keurmassene_4396","citySlug":"keurmassene","name":"Parque Central","category":"ocio","lat":16.540581949478792,"lng":-16.22424038532048,"avgVisitMinutes":41,"estimatedCostEur":4,"score":4.612852082301596},{"id":"keurmassene_1443","citySlug":"keurmassene","name":"Restaurante Típico de KeurMassène","category":"gastronomia","lat":16.538190144744156,"lng":-16.21977573245071,"avgVisitMinutes":73,"estimatedCostEur":22,"score":1.4220200217409782},{"id":"keurmassene_9483","citySlug":"keurmassene","name":"Playa Norte","category":"playa","lat":16.53767578038209,"lng":-16.221220607244707,"avgVisitMinutes":53,"estimatedCostEur":6,"score":3.4253217818700206},{"id":"keurmassene_9536","citySlug":"keurmassene","name":"Punto Panorámico","category":"mirador","lat":16.536966738768413,"lng":-16.20530271515159,"avgVisitMinutes":62,"estimatedCostEur":3,"score":4.783344066880185},{"id":"kankossa_8320","citySlug":"kankossa","name":"Iglesia de Kankossa","category":"historia","lat":15.939061443977762,"lng":-11.519521453598868,"avgVisitMinutes":79,"estimatedCostEur":20,"score":1.8499839973418286},{"id":"kankossa_5953","citySlug":"kankossa","name":"Museo Local de Kankossa","category":"historia","lat":15.932711837793066,"lng":-11.532361527999823,"avgVisitMinutes":64,"estimatedCostEur":17,"score":3.386617987754315},{"id":"kankossa_5513","citySlug":"kankossa","name":"Playa Central","category":"playa","lat":15.940680269726217,"lng":-11.517697838261595,"avgVisitMinutes":42,"estimatedCostEur":18,"score":2.393584398487093},{"id":"kankossa_9161","citySlug":"kankossa","name":"Zona Comercial","category":"ocio","lat":15.929591239843486,"lng":-11.534201458878645,"avgVisitMinutes":48,"estimatedCostEur":11,"score":0.7238292596014366},{"id":"kankossa_6928","citySlug":"kankossa","name":"Mercado Gastronómico","category":"gastronomia","lat":15.934034937892495,"lng":-11.518946489574931,"avgVisitMinutes":80,"estimatedCostEur":23,"score":1.6009236074014006},{"id":"kankossa_4351","citySlug":"kankossa","name":"Museo Cultural de Kankossa","category":"cultura","lat":15.941460458270837,"lng":-11.523046747552847,"avgVisitMinutes":80,"estimatedCostEur":18,"score":3.8576638935807877},{"id":"kaedi_9383","citySlug":"kaedi","name":"Playa Norte","category":"playa","lat":16.157887747601734,"lng":-13.51405190731363,"avgVisitMinutes":42,"estimatedCostEur":25,"score":3.645173500068688},{"id":"kaedi_8485","citySlug":"kaedi","name":"Mercado Gastronómico","category":"gastronomia","lat":16.15528947829636,"lng":-13.505966005321419,"avgVisitMinutes":86,"estimatedCostEur":6,"score":2.5576111458685418},{"id":"kaedi_6785","citySlug":"kaedi","name":"Ruta de Tapas","category":"gastronomia","lat":16.151434368391186,"lng":-13.500952227409172,"avgVisitMinutes":63,"estimatedCostEur":8,"score":2.2350378241277133},{"id":"kaedi_1499","citySlug":"kaedi","name":"Museo Local de Kaédi","category":"historia","lat":16.159053760884742,"lng":-13.500711327960714,"avgVisitMinutes":48,"estimatedCostEur":3,"score":4.152721914742395},{"id":"kaedi_4741","citySlug":"kaedi","name":"Iglesia de Kaédi","category":"historia","lat":16.148383001988105,"lng":-13.496979053841496,"avgVisitMinutes":88,"estimatedCostEur":8,"score":1.000118559117134},{"id":"kaedi_8439","citySlug":"kaedi","name":"Playa Central","category":"playa","lat":16.147070912700613,"lng":-13.498501180968447,"avgVisitMinutes":86,"estimatedCostEur":3,"score":4.011381087958533},{"id":"kaedi_4239","citySlug":"kaedi","name":"Playa Central","category":"playa","lat":16.160420582841454,"lng":-13.506664862042856,"avgVisitMinutes":44,"estimatedCostEur":9,"score":4.142137400349955},{"id":"hassi-chegar_2471","citySlug":"hassi-chegar","name":"Vista Alta de Hassi Chegar","category":"mirador","lat":15.363335297306932,"lng":-12.0798804980691,"avgVisitMinutes":84,"estimatedCostEur":11,"score":3.489950246580723},{"id":"hassi-chegar_6837","citySlug":"hassi-chegar","name":"Teatro Municipal","category":"cultura","lat":15.358701873136718,"lng":-12.0892910032792,"avgVisitMinutes":83,"estimatedCostEur":16,"score":3.099625939235239},{"id":"hassi-chegar_6506","citySlug":"hassi-chegar","name":"Playa Norte","category":"playa","lat":15.365251129895215,"lng":-12.082586333766635,"avgVisitMinutes":66,"estimatedCostEur":12,"score":3.3168056775624355},{"id":"hassi-chegar_5281","citySlug":"hassi-chegar","name":"Castillo de Hassi Chegar","category":"historia","lat":15.357957969142122,"lng":-12.089781110220528,"avgVisitMinutes":51,"estimatedCostEur":3,"score":3.27901650129472},{"id":"hassi-chegar_3245","citySlug":"hassi-chegar","name":"Punto Panorámico","category":"mirador","lat":15.357685792014241,"lng":-12.085542602168548,"avgVisitMinutes":37,"estimatedCostEur":15,"score":1.6250700372941718},{"id":"hassi-chegar_1204","citySlug":"hassi-chegar","name":"Zona Comercial","category":"ocio","lat":15.365167541011877,"lng":-12.095194347635582,"avgVisitMinutes":66,"estimatedCostEur":11,"score":2.8908565725895348},{"id":"hassi-chegar_1434","citySlug":"hassi-chegar","name":"Centro de Arte de Hassi Chegar","category":"cultura","lat":15.375368674063273,"lng":-12.083650505904448,"avgVisitMinutes":50,"estimatedCostEur":20,"score":1.4237190658420844},{"id":"hamoud_6105","citySlug":"hamoud","name":"Centro Histórico","category":"historia","lat":15.634970669343412,"lng":-11.518747151677736,"avgVisitMinutes":53,"estimatedCostEur":14,"score":4.664424695446348},{"id":"hamoud_3816","citySlug":"hamoud","name":"Playa Central","category":"playa","lat":15.64250795908707,"lng":-11.524703696536061,"avgVisitMinutes":20,"estimatedCostEur":21,"score":4.407647262536267},{"id":"hamoud_2880","citySlug":"hamoud","name":"Punto Panorámico","category":"mirador","lat":15.643350074690023,"lng":-11.524098208105418,"avgVisitMinutes":28,"estimatedCostEur":25,"score":3.852165193591428},{"id":"hamoud_9162","citySlug":"hamoud","name":"Iglesia de Hamoud","category":"historia","lat":15.633045893569506,"lng":-11.521242532477943,"avgVisitMinutes":26,"estimatedCostEur":4,"score":0.8389436824779124},{"id":"hamoud_5550","citySlug":"hamoud","name":"Playa Sur","category":"playa","lat":15.649019353855282,"lng":-11.525316764985593,"avgVisitMinutes":39,"estimatedCostEur":0,"score":3.0337133561865612},{"id":"hamoud_3604","citySlug":"hamoud","name":"Ruta de Tapas","category":"gastronomia","lat":15.630357996683388,"lng":-11.517372854573754,"avgVisitMinutes":61,"estimatedCostEur":5,"score":2.0633389676614224},{"id":"hamoud_8792","citySlug":"hamoud","name":"Restaurante Típico de Hamoud","category":"gastronomia","lat":15.6370029490046,"lng":-11.52695738799968,"avgVisitMinutes":76,"estimatedCostEur":8,"score":4.499807724447878},{"id":"hamoud_5385","citySlug":"hamoud","name":"Vista Alta de Hamoud","category":"mirador","lat":15.640927821675804,"lng":-11.518882119203353,"avgVisitMinutes":90,"estimatedCostEur":7,"score":2.0742129403302085},{"id":"ganki-un_3448","citySlug":"ganki-un","name":"Iglesia de Ganki Un","category":"historia","lat":16.22128691310553,"lng":-13.236737280697358,"avgVisitMinutes":45,"estimatedCostEur":1,"score":2.6577126854565045},{"id":"ganki-un_6770","citySlug":"ganki-un","name":"Mercado Gastronómico","category":"gastronomia","lat":16.215296652771322,"lng":-13.236891272250277,"avgVisitMinutes":65,"estimatedCostEur":14,"score":3.233702259438238},{"id":"ganki-un_2112","citySlug":"ganki-un","name":"Galería de Arte","category":"cultura","lat":16.22297393073599,"lng":-13.234056172357803,"avgVisitMinutes":38,"estimatedCostEur":20,"score":2.053132567727448},{"id":"ganki-un_2089","citySlug":"ganki-un","name":"Murallas de Ganki Un","category":"historia","lat":16.210011151672624,"lng":-13.235304488557194,"avgVisitMinutes":84,"estimatedCostEur":14,"score":3.6066800418615155},{"id":"ganki-un_7232","citySlug":"ganki-un","name":"Mirador de Ganki Un","category":"mirador","lat":16.222239237974843,"lng":-13.241467698215263,"avgVisitMinutes":72,"estimatedCostEur":2,"score":3.4546287874399004},{"id":"ganki-un_8181","citySlug":"ganki-un","name":"Playa Central","category":"playa","lat":16.211629116891306,"lng":-13.244707779979013,"avgVisitMinutes":51,"estimatedCostEur":3,"score":1.7639614817566724},{"id":"ganki-un_8025","citySlug":"ganki-un","name":"Playa Sur","category":"playa","lat":16.208659622555796,"lng":-13.234094192217414,"avgVisitMinutes":37,"estimatedCostEur":19,"score":1.824804135456548},{"id":"ganki-un_4932","citySlug":"ganki-un","name":"Ruta de Tapas","category":"gastronomia","lat":16.218569370036537,"lng":-13.237231431821767,"avgVisitMinutes":43,"estimatedCostEur":24,"score":2.963068728096631},{"id":"fderick_3191","citySlug":"fderick","name":"Playa Sur","category":"playa","lat":22.668599253061345,"lng":-12.710832566730483,"avgVisitMinutes":43,"estimatedCostEur":16,"score":4.102493586937825},{"id":"fderick_5503","citySlug":"fderick","name":"Teatro Municipal","category":"cultura","lat":22.67733908119791,"lng":-12.715527505221683,"avgVisitMinutes":73,"estimatedCostEur":1,"score":1.8493254251467945},{"id":"fderick_3555","citySlug":"fderick","name":"Punto Panorámico","category":"mirador","lat":22.680101302621214,"lng":-12.708947283089813,"avgVisitMinutes":41,"estimatedCostEur":9,"score":4.362355599744021},{"id":"fderick_8267","citySlug":"fderick","name":"Iglesia de Fderîck","category":"historia","lat":22.6779816528933,"lng":-12.71310985415581,"avgVisitMinutes":64,"estimatedCostEur":11,"score":3.7755633168264975},{"id":"fderick_2775","citySlug":"fderick","name":"Galería de Arte","category":"cultura","lat":22.68288854092202,"lng":-12.713375108414262,"avgVisitMinutes":29,"estimatedCostEur":18,"score":3.4955884808164006},{"id":"fderick_7627","citySlug":"fderick","name":"Galería de Arte","category":"cultura","lat":22.682728559282708,"lng":-12.717099888745791,"avgVisitMinutes":37,"estimatedCostEur":10,"score":4.798955320827115},{"id":"fderick_3820","citySlug":"fderick","name":"Mirador de Fderîck","category":"mirador","lat":22.669423508154832,"lng":-12.706921953775216,"avgVisitMinutes":66,"estimatedCostEur":12,"score":2.8964103214304098},{"id":"vassala_7930","citySlug":"vassala","name":"Mercado Gastronómico","category":"gastronomia","lat":15.559397801505886,"lng":-5.52453111172052,"avgVisitMinutes":28,"estimatedCostEur":20,"score":4.488480969912359},{"id":"vassala_2402","citySlug":"vassala","name":"Parque Central","category":"ocio","lat":15.56183562740242,"lng":-5.516505657864877,"avgVisitMinutes":41,"estimatedCostEur":14,"score":3.828073391373987},{"id":"vassala_5159","citySlug":"vassala","name":"Playa Sur","category":"playa","lat":15.54985835846593,"lng":-5.518758563868009,"avgVisitMinutes":33,"estimatedCostEur":15,"score":4.062461269200242},{"id":"vassala_2915","citySlug":"vassala","name":"Zona Comercial","category":"ocio","lat":15.555282325407335,"lng":-5.522198983015467,"avgVisitMinutes":66,"estimatedCostEur":3,"score":0.5890334996725355},{"id":"vassala_4590","citySlug":"vassala","name":"Ruta de Tapas","category":"gastronomia","lat":15.56464334979629,"lng":-5.515826680971774,"avgVisitMinutes":49,"estimatedCostEur":3,"score":0.5211524124414648},{"id":"el-medda_2814","citySlug":"el-medda","name":"Centro Histórico","category":"historia","lat":19.922911351577003,"lng":-13.311624235090603,"avgVisitMinutes":27,"estimatedCostEur":14,"score":0.5586588118162956},{"id":"el-medda_3296","citySlug":"el-medda","name":"Parque Central","category":"ocio","lat":19.922204826389947,"lng":-13.315667594253489,"avgVisitMinutes":55,"estimatedCostEur":9,"score":0.7798557407068072},{"id":"el-medda_5619","citySlug":"el-medda","name":"Teatro Municipal","category":"cultura","lat":19.918038943679296,"lng":-13.3162265752039,"avgVisitMinutes":68,"estimatedCostEur":2,"score":1.7246911448596078},{"id":"el-medda_5693","citySlug":"el-medda","name":"Playa Norte","category":"playa","lat":19.917139584346035,"lng":-13.322128231128108,"avgVisitMinutes":74,"estimatedCostEur":1,"score":4.525017937695065},{"id":"el-medda_4828","citySlug":"el-medda","name":"Murallas de El Medda","category":"historia","lat":19.92586361695082,"lng":-13.308256984064428,"avgVisitMinutes":42,"estimatedCostEur":4,"score":4.595486816976961},{"id":"el-medda_9401","citySlug":"el-medda","name":"Galería de Arte","category":"cultura","lat":19.914504986205827,"lng":-13.317378779116929,"avgVisitMinutes":57,"estimatedCostEur":16,"score":1.8800987904032418},{"id":"el-medda_6473","citySlug":"el-medda","name":"Museo Cultural de El Medda","category":"cultura","lat":19.908542309074026,"lng":-13.318810081504589,"avgVisitMinutes":51,"estimatedCostEur":5,"score":0.8862712568982145},{"id":"el-medda_8051","citySlug":"el-medda","name":"Punto Panorámico","category":"mirador","lat":19.920720091079907,"lng":-13.325027399977708,"avgVisitMinutes":65,"estimatedCostEur":0,"score":3.4082421372486307},{"id":"el-medda_4814","citySlug":"el-medda","name":"Galería de Arte","category":"cultura","lat":19.920159388259574,"lng":-13.319100238051377,"avgVisitMinutes":27,"estimatedCostEur":22,"score":3.6987970317234975},{"id":"el-medda_3250","citySlug":"el-medda","name":"Centro Histórico","category":"historia","lat":19.915073783937146,"lng":-13.315219297531463,"avgVisitMinutes":43,"estimatedCostEur":10,"score":4.854603148601901},{"id":"el-medda_2953","citySlug":"el-medda","name":"Galería de Arte","category":"cultura","lat":19.919658359030954,"lng":-13.313574935437751,"avgVisitMinutes":30,"estimatedCostEur":25,"score":1.4214730113169394},{"id":"lexeiba-un_4482","citySlug":"lexeiba-un","name":"Restaurante Típico de Lexeiba Un","category":"gastronomia","lat":16.22515411468114,"lng":-13.14167293865071,"avgVisitMinutes":62,"estimatedCostEur":13,"score":3.2084083244382833},{"id":"lexeiba-un_4429","citySlug":"lexeiba-un","name":"Restaurante Típico de Lexeiba Un","category":"gastronomia","lat":16.2316455478323,"lng":-13.150268908108211,"avgVisitMinutes":20,"estimatedCostEur":10,"score":2.4089246641671442},{"id":"lexeiba-un_1925","citySlug":"lexeiba-un","name":"Museo Local de Lexeiba Un","category":"historia","lat":16.234582554287762,"lng":-13.137088981618664,"avgVisitMinutes":83,"estimatedCostEur":20,"score":3.8830928868663834},{"id":"lexeiba-un_7853","citySlug":"lexeiba-un","name":"Paseo Principal","category":"ocio","lat":16.216613191936236,"lng":-13.138955196511343,"avgVisitMinutes":85,"estimatedCostEur":4,"score":1.194214625400647},{"id":"lexeiba-un_9718","citySlug":"lexeiba-un","name":"Playa Sur","category":"playa","lat":16.224129667596937,"lng":-13.131706416091353,"avgVisitMinutes":39,"estimatedCostEur":24,"score":1.4164697168851657},{"id":"lexeiba-un_8180","citySlug":"lexeiba-un","name":"Zona Comercial","category":"ocio","lat":16.21605981318579,"lng":-13.136349787233874,"avgVisitMinutes":39,"estimatedCostEur":15,"score":4.920592297540246},{"id":"lexeiba-un_8562","citySlug":"lexeiba-un","name":"Playa Central","category":"playa","lat":16.231442530943543,"lng":-13.136232500459457,"avgVisitMinutes":62,"estimatedCostEur":25,"score":0.9123954172424754},{"id":"lexeiba-un_3628","citySlug":"lexeiba-un","name":"Playa Sur","category":"playa","lat":16.2193412828552,"lng":-13.135054180827527,"avgVisitMinutes":35,"estimatedCostEur":23,"score":3.1348953990819246},{"id":"lexeiba-un_6843","citySlug":"lexeiba-un","name":"Centro Histórico","category":"historia","lat":16.224365890714353,"lng":-13.134534091447565,"avgVisitMinutes":55,"estimatedCostEur":4,"score":2.4522367192193295},{"id":"lexeiba-un_2180","citySlug":"lexeiba-un","name":"Playa Norte","category":"playa","lat":16.224337470134305,"lng":-13.14877312600217,"avgVisitMinutes":40,"estimatedCostEur":3,"score":4.389120253939872},{"id":"lexeiba-un_3771","citySlug":"lexeiba-un","name":"Playa Central","category":"playa","lat":16.233357246307207,"lng":-13.148437569037348,"avgVisitMinutes":48,"estimatedCostEur":24,"score":3.9264549032540694},{"id":"lexeiba-un_3306","citySlug":"lexeiba-un","name":"Punto Panorámico","category":"mirador","lat":16.234064438551595,"lng":-13.136808252152433,"avgVisitMinutes":22,"estimatedCostEur":18,"score":1.3130216047685526},{"id":"el-ayoun_6686","citySlug":"el-ayoun","name":"Iglesia de El ’Ayoûn","category":"historia","lat":15.548018260132414,"lng":-11.177019910423589,"avgVisitMinutes":73,"estimatedCostEur":1,"score":4.152193985105693},{"id":"el-ayoun_1381","citySlug":"el-ayoun","name":"Paseo Principal","category":"ocio","lat":15.548497958732298,"lng":-11.186352470872285,"avgVisitMinutes":62,"estimatedCostEur":16,"score":1.4292140582412234},{"id":"el-ayoun_7127","citySlug":"el-ayoun","name":"Playa Central","category":"playa","lat":15.564330633343673,"lng":-11.189382985215891,"avgVisitMinutes":28,"estimatedCostEur":1,"score":3.1024900100268553},{"id":"el-ayoun_5166","citySlug":"el-ayoun","name":"Ruta de Tapas","category":"gastronomia","lat":15.55664519303991,"lng":-11.182017626979514,"avgVisitMinutes":78,"estimatedCostEur":19,"score":0.6191141130496678},{"id":"el-ayoun_8511","citySlug":"el-ayoun","name":"Murallas de El ’Ayoûn","category":"historia","lat":15.564684859620037,"lng":-11.172318623039363,"avgVisitMinutes":72,"estimatedCostEur":3,"score":4.0370257846357935},{"id":"el-ayoun_8520","citySlug":"el-ayoun","name":"Punto Panorámico","category":"mirador","lat":15.552401199226614,"lng":-11.186474317412092,"avgVisitMinutes":24,"estimatedCostEur":12,"score":4.309154654776203},{"id":"djowol_9155","citySlug":"djowol","name":"Playa Norte","category":"playa","lat":16.062019956154735,"lng":-13.379006761931926,"avgVisitMinutes":51,"estimatedCostEur":17,"score":1.8782432369106214},{"id":"djowol_1688","citySlug":"djowol","name":"Museo Local de Djowol","category":"historia","lat":16.07082612425329,"lng":-13.37574580947049,"avgVisitMinutes":38,"estimatedCostEur":15,"score":4.596626527998238},{"id":"djowol_4841","citySlug":"djowol","name":"Ruta de Tapas","category":"gastronomia","lat":16.073736099839508,"lng":-13.368413328682736,"avgVisitMinutes":54,"estimatedCostEur":9,"score":1.6891743981452623},{"id":"djowol_9914","citySlug":"djowol","name":"Restaurante Típico de Djowol","category":"gastronomia","lat":16.07183861304764,"lng":-13.365359124560747,"avgVisitMinutes":69,"estimatedCostEur":14,"score":2.749516578762037},{"id":"djowol_6194","citySlug":"djowol","name":"Mirador de Djowol","category":"mirador","lat":16.053990301677267,"lng":-13.377542225098935,"avgVisitMinutes":89,"estimatedCostEur":25,"score":4.071701078781809},{"id":"djiguenni_6017","citySlug":"djiguenni","name":"Punto Panorámico","category":"mirador","lat":15.727736786538028,"lng":-8.67542251945256,"avgVisitMinutes":85,"estimatedCostEur":16,"score":0.5039073418315687},{"id":"djiguenni_3024","citySlug":"djiguenni","name":"Ruta de Tapas","category":"gastronomia","lat":15.729353279160472,"lng":-8.65885777105343,"avgVisitMinutes":52,"estimatedCostEur":0,"score":1.8995572018550164},{"id":"djiguenni_5157","citySlug":"djiguenni","name":"Parque Central","category":"ocio","lat":15.73554618551754,"lng":-8.656881871832145,"avgVisitMinutes":77,"estimatedCostEur":18,"score":2.2951041996784447},{"id":"djiguenni_6620","citySlug":"djiguenni","name":"Playa Norte","category":"playa","lat":15.7293712339807,"lng":-8.66370679713677,"avgVisitMinutes":24,"estimatedCostEur":17,"score":2.4278945710114552},{"id":"djiguenni_1796","citySlug":"djiguenni","name":"Galería de Arte","category":"cultura","lat":15.738644824068121,"lng":-8.66913581877805,"avgVisitMinutes":43,"estimatedCostEur":20,"score":4.481546145826215},{"id":"djiguenni_6108","citySlug":"djiguenni","name":"Paseo Principal","category":"ocio","lat":15.72258443432951,"lng":-8.667857041395372,"avgVisitMinutes":54,"estimatedCostEur":0,"score":0.8270491357217249},{"id":"djiguenni_5868","citySlug":"djiguenni","name":"Parque Central","category":"ocio","lat":15.730120077045687,"lng":-8.671209230206516,"avgVisitMinutes":23,"estimatedCostEur":25,"score":0.9632125684313596},{"id":"diogountourou_9007","citySlug":"diogountourou","name":"Zona Comercial","category":"ocio","lat":14.773848367458216,"lng":-12.252265679673542,"avgVisitMinutes":63,"estimatedCostEur":17,"score":4.9904125063602285},{"id":"diogountourou_9049","citySlug":"diogountourou","name":"Restaurante Típico de Diogountourou","category":"gastronomia","lat":14.77743495819986,"lng":-12.255908772411544,"avgVisitMinutes":73,"estimatedCostEur":2,"score":4.982252909047653},{"id":"diogountourou_7804","citySlug":"diogountourou","name":"Centro Histórico","category":"historia","lat":14.769349101373969,"lng":-12.241369195063433,"avgVisitMinutes":90,"estimatedCostEur":4,"score":3.7920926163086417},{"id":"diogountourou_6349","citySlug":"diogountourou","name":"Playa Sur","category":"playa","lat":14.765844001097474,"lng":-12.247974366894816,"avgVisitMinutes":71,"estimatedCostEur":14,"score":1.328494284242224},{"id":"diogountourou_5437","citySlug":"diogountourou","name":"Paseo Principal","category":"ocio","lat":14.764934943716716,"lng":-12.248956745794404,"avgVisitMinutes":30,"estimatedCostEur":13,"score":4.586613393918002},{"id":"diaguily_6423","citySlug":"diaguily","name":"Iglesia de Diaguily","category":"historia","lat":14.843269803139993,"lng":-12.39344986477522,"avgVisitMinutes":37,"estimatedCostEur":23,"score":0.9946767461853772},{"id":"diaguily_5410","citySlug":"diaguily","name":"Mirador de Diaguily","category":"mirador","lat":14.841347996310892,"lng":-12.400656079095667,"avgVisitMinutes":33,"estimatedCostEur":20,"score":2.4112673496517254},{"id":"diaguily_2190","citySlug":"diaguily","name":"Punto Panorámico","category":"mirador","lat":14.844382948755607,"lng":-12.399681545825596,"avgVisitMinutes":81,"estimatedCostEur":21,"score":2.6589495884028067},{"id":"diaguily_4683","citySlug":"diaguily","name":"Ruta de Tapas","category":"gastronomia","lat":14.840030317739254,"lng":-12.389540865014327,"avgVisitMinutes":68,"estimatedCostEur":21,"score":0.7302542858459368},{"id":"diaguily_6010","citySlug":"diaguily","name":"Parque Central","category":"ocio","lat":14.841603763307614,"lng":-12.388996610851246,"avgVisitMinutes":24,"estimatedCostEur":6,"score":2.160023949081487},{"id":"diaguily_3355","citySlug":"diaguily","name":"Parque Central","category":"ocio","lat":14.85478724908658,"lng":-12.395927773888536,"avgVisitMinutes":68,"estimatedCostEur":22,"score":4.883626542373911},{"id":"diaguily_1623","citySlug":"diaguily","name":"Galería de Arte","category":"cultura","lat":14.842138242060397,"lng":-12.38700050338526,"avgVisitMinutes":71,"estimatedCostEur":8,"score":1.9208742110211952},{"id":"dar-el-barka_6091","citySlug":"dar-el-barka","name":"Parque Central","category":"ocio","lat":16.67516029930247,"lng":-14.699004110175721,"avgVisitMinutes":55,"estimatedCostEur":10,"score":2.0368396042871204},{"id":"dar-el-barka_5346","citySlug":"dar-el-barka","name":"Museo Local de Dar el Barka","category":"historia","lat":16.67858329948903,"lng":-14.703460437929813,"avgVisitMinutes":87,"estimatedCostEur":17,"score":1.8391643488343723},{"id":"dar-el-barka_7558","citySlug":"dar-el-barka","name":"Playa Norte","category":"playa","lat":16.690453840451735,"lng":-14.702539027046184,"avgVisitMinutes":26,"estimatedCostEur":11,"score":3.096956320759475},{"id":"dar-el-barka_6747","citySlug":"dar-el-barka","name":"Ruta de Tapas","category":"gastronomia","lat":16.692674377458747,"lng":-14.698701713294595,"avgVisitMinutes":24,"estimatedCostEur":0,"score":2.3169578146599927},{"id":"dar-el-barka_3456","citySlug":"dar-el-barka","name":"Ruta de Tapas","category":"gastronomia","lat":16.68808581834555,"lng":-14.709473889566453,"avgVisitMinutes":36,"estimatedCostEur":22,"score":0.8660472626057112},{"id":"chkata_8164","citySlug":"chkata","name":"Mirador de Chkata","category":"mirador","lat":15.282077806493305,"lng":-11.01514441497709,"avgVisitMinutes":90,"estimatedCostEur":17,"score":1.5603396426520113},{"id":"chkata_9805","citySlug":"chkata","name":"Museo Cultural de Chkata","category":"cultura","lat":15.283988200940572,"lng":-11.009557366886037,"avgVisitMinutes":63,"estimatedCostEur":16,"score":4.099620074817437},{"id":"chkata_4251","citySlug":"chkata","name":"Teatro Municipal","category":"cultura","lat":15.282693353468817,"lng":-11.018396732614843,"avgVisitMinutes":77,"estimatedCostEur":25,"score":1.9616166622441717},{"id":"chkata_4157","citySlug":"chkata","name":"Galería de Arte","category":"cultura","lat":15.28006905480348,"lng":-11.019365512887873,"avgVisitMinutes":73,"estimatedCostEur":16,"score":2.6525936766674647},{"id":"chkata_4713","citySlug":"chkata","name":"Zona Comercial","category":"ocio","lat":15.29479975708241,"lng":-11.01473021646927,"avgVisitMinutes":57,"estimatedCostEur":4,"score":1.031281506705694},{"id":"chkata_5933","citySlug":"chkata","name":"Playa Central","category":"playa","lat":15.279350837630885,"lng":-11.009516452482371,"avgVisitMinutes":59,"estimatedCostEur":13,"score":2.5004847345594334},{"id":"chkata_5583","citySlug":"chkata","name":"Zona Comercial","category":"ocio","lat":15.277919032110502,"lng":-11.021520870703181,"avgVisitMinutes":68,"estimatedCostEur":3,"score":0.7492009894205054},{"id":"chkata_3210","citySlug":"chkata","name":"Mercado Gastronómico","category":"gastronomia","lat":15.283799495287406,"lng":-11.020410340548178,"avgVisitMinutes":86,"estimatedCostEur":6,"score":2.525702587858357},{"id":"chkata_2959","citySlug":"chkata","name":"Playa Sur","category":"playa","lat":15.281312729242485,"lng":-11.003178046388534,"avgVisitMinutes":73,"estimatedCostEur":18,"score":4.45487453557125},{"id":"chkata_3752","citySlug":"chkata","name":"Vista Alta de Chkata","category":"mirador","lat":15.280864894627216,"lng":-11.004731200030434,"avgVisitMinutes":85,"estimatedCostEur":9,"score":2.2820136395607804},{"id":"chkata_6298","citySlug":"chkata","name":"Paseo Principal","category":"ocio","lat":15.293588005598425,"lng":-11.003485446070775,"avgVisitMinutes":62,"estimatedCostEur":23,"score":2.2669265325762087},{"id":"chkata_7540","citySlug":"chkata","name":"Centro Histórico","category":"historia","lat":15.278916969540212,"lng":-11.015669440068992,"avgVisitMinutes":24,"estimatedCostEur":6,"score":0.5711690640979608},{"id":"chinguetti_2161","citySlug":"chinguetti","name":"Galería de Arte","category":"cultura","lat":20.467141155728747,"lng":-12.363023788204474,"avgVisitMinutes":90,"estimatedCostEur":0,"score":4.8233252823065484},{"id":"chinguetti_4724","citySlug":"chinguetti","name":"Ruta de Tapas","category":"gastronomia","lat":20.458967955377737,"lng":-12.365980172224312,"avgVisitMinutes":89,"estimatedCostEur":2,"score":3.447147017654463},{"id":"chinguetti_2695","citySlug":"chinguetti","name":"Playa Norte","category":"playa","lat":20.461074122287584,"lng":-12.355124840878707,"avgVisitMinutes":31,"estimatedCostEur":14,"score":0.9543521294813957},{"id":"chinguetti_6522","citySlug":"chinguetti","name":"Zona Comercial","category":"ocio","lat":20.469488151271676,"lng":-12.353998971159044,"avgVisitMinutes":49,"estimatedCostEur":25,"score":1.8088028965984333},{"id":"chinguetti_8536","citySlug":"chinguetti","name":"Restaurante Típico de Chingueṭṭi","category":"gastronomia","lat":20.469490224139975,"lng":-12.36882084615651,"avgVisitMinutes":58,"estimatedCostEur":25,"score":2.281419114533106},{"id":"boutilimitt_1457","citySlug":"boutilimitt","name":"Playa Central","category":"playa","lat":17.545407778746,"lng":-14.705977739821407,"avgVisitMinutes":49,"estimatedCostEur":18,"score":1.3239008855828749},{"id":"boutilimitt_8940","citySlug":"boutilimitt","name":"Mercado Gastronómico","category":"gastronomia","lat":17.55300958023691,"lng":-14.690679309561999,"avgVisitMinutes":58,"estimatedCostEur":11,"score":3.8429638030779367},{"id":"boutilimitt_9406","citySlug":"boutilimitt","name":"Teatro Municipal","category":"cultura","lat":17.536094071292947,"lng":-14.699878350868065,"avgVisitMinutes":65,"estimatedCostEur":0,"score":1.9481288260172775},{"id":"boutilimitt_6900","citySlug":"boutilimitt","name":"Zona Comercial","category":"ocio","lat":17.547419856798207,"lng":-14.706079393255576,"avgVisitMinutes":49,"estimatedCostEur":2,"score":3.2114349973909753},{"id":"boutilimitt_6137","citySlug":"boutilimitt","name":"Zona Comercial","category":"ocio","lat":17.538353652762527,"lng":-14.699453286659011,"avgVisitMinutes":75,"estimatedCostEur":13,"score":2.3636978089427014},{"id":"boutilimitt_2295","citySlug":"boutilimitt","name":"Mercado Gastronómico","category":"gastronomia","lat":17.547089896541138,"lng":-14.700026470962976,"avgVisitMinutes":66,"estimatedCostEur":4,"score":4.4827461430185025},{"id":"boutilimitt_7200","citySlug":"boutilimitt","name":"Iglesia de Boutilimitt","category":"historia","lat":17.54522208876334,"lng":-14.700215116966106,"avgVisitMinutes":51,"estimatedCostEur":23,"score":1.9837303352730102},{"id":"boutilimitt_4670","citySlug":"boutilimitt","name":"Vista Alta de Boutilimitt","category":"mirador","lat":17.540828175494745,"lng":-14.701544771739195,"avgVisitMinutes":44,"estimatedCostEur":3,"score":0.5877048508256766},{"id":"boutilimitt_7427","citySlug":"boutilimitt","name":"Vista Alta de Boutilimitt","category":"mirador","lat":17.547459611222223,"lng":-14.699560127342425,"avgVisitMinutes":25,"estimatedCostEur":8,"score":3.810860645690271},{"id":"boutilimitt_4722","citySlug":"boutilimitt","name":"Playa Central","category":"playa","lat":17.554455749268286,"lng":-14.704016050517254,"avgVisitMinutes":89,"estimatedCostEur":7,"score":0.5489377773714061},{"id":"boutilimitt_1207","citySlug":"boutilimitt","name":"Museo Cultural de Boutilimitt","category":"cultura","lat":17.54861729028492,"lng":-14.698736916341717,"avgVisitMinutes":46,"estimatedCostEur":10,"score":2.3724023739505027},{"id":"boutilimitt_8631","citySlug":"boutilimitt","name":"Parque Central","category":"ocio","lat":17.5369848414785,"lng":-14.689056573018737,"avgVisitMinutes":88,"estimatedCostEur":1,"score":3.349575118383929},{"id":"bousteila_3508","citySlug":"bousteila","name":"Museo Local de Bousteila","category":"historia","lat":15.57058319284631,"lng":-8.080512702732616,"avgVisitMinutes":78,"estimatedCostEur":0,"score":0.6018290408939695},{"id":"bousteila_6756","citySlug":"bousteila","name":"Playa Norte","category":"playa","lat":15.567859332356132,"lng":-8.08717555713521,"avgVisitMinutes":35,"estimatedCostEur":3,"score":1.8472799947466456},{"id":"bousteila_3299","citySlug":"bousteila","name":"Parque Central","category":"ocio","lat":15.577657810111953,"lng":-8.080321037540454,"avgVisitMinutes":35,"estimatedCostEur":11,"score":1.031679633445056},{"id":"bousteila_7459","citySlug":"bousteila","name":"Playa Norte","category":"playa","lat":15.582252513957247,"lng":-8.085266408500123,"avgVisitMinutes":31,"estimatedCostEur":15,"score":3.115708125153703},{"id":"bousteila_6150","citySlug":"bousteila","name":"Teatro Municipal","category":"cultura","lat":15.569060796986566,"lng":-8.09224079089634,"avgVisitMinutes":80,"estimatedCostEur":3,"score":1.9631342574142476},{"id":"bousteila_5900","citySlug":"bousteila","name":"Parque Central","category":"ocio","lat":15.575814770326328,"lng":-8.088074963964191,"avgVisitMinutes":21,"estimatedCostEur":17,"score":4.087587790026833},{"id":"bousteila_1415","citySlug":"bousteila","name":"Centro de Arte de Bousteila","category":"cultura","lat":15.581013963797373,"lng":-8.095404499143788,"avgVisitMinutes":65,"estimatedCostEur":16,"score":3.201035784249695},{"id":"bousteila_8411","citySlug":"bousteila","name":"Playa Sur","category":"playa","lat":15.577684521502313,"lng":-8.093992898931061,"avgVisitMinutes":60,"estimatedCostEur":11,"score":3.1661112131119102},{"id":"bousteila_4730","citySlug":"bousteila","name":"Playa Sur","category":"playa","lat":15.578494907301732,"lng":-8.082957206371924,"avgVisitMinutes":57,"estimatedCostEur":7,"score":4.515004315453306},{"id":"bousteila_8783","citySlug":"bousteila","name":"Restaurante Típico de Bousteila","category":"gastronomia","lat":15.566439819959793,"lng":-8.091824550075016,"avgVisitMinutes":83,"estimatedCostEur":0,"score":4.393496918975473},{"id":"bousteila_4406","citySlug":"bousteila","name":"Iglesia de Bousteila","category":"historia","lat":15.583761189774018,"lng":-8.08759334343627,"avgVisitMinutes":35,"estimatedCostEur":19,"score":1.2437765903017228},{"id":"boumdeid-un-zira_9457","citySlug":"boumdeid-un-zira","name":"Playa Central","category":"playa","lat":17.449082948415093,"lng":-11.338356424819185,"avgVisitMinutes":84,"estimatedCostEur":9,"score":2.7985736188279007},{"id":"boumdeid-un-zira_9596","citySlug":"boumdeid-un-zira","name":"Castillo de Boumdeid Un Zira","category":"historia","lat":17.44772464965826,"lng":-11.339630641834658,"avgVisitMinutes":53,"estimatedCostEur":3,"score":1.0918582191830526},{"id":"boumdeid-un-zira_9023","citySlug":"boumdeid-un-zira","name":"Parque Central","category":"ocio","lat":17.44206674785394,"lng":-11.338569044638279,"avgVisitMinutes":26,"estimatedCostEur":5,"score":2.18864744091473},{"id":"boumdeid-un-zira_6533","citySlug":"boumdeid-un-zira","name":"Restaurante Típico de Boumdeid Un Zira","category":"gastronomia","lat":17.443163911832272,"lng":-11.349353944007808,"avgVisitMinutes":37,"estimatedCostEur":10,"score":4.183310226305001},{"id":"boumdeid-un-zira_2544","citySlug":"boumdeid-un-zira","name":"Ruta de Tapas","category":"gastronomia","lat":17.438044032409287,"lng":-11.345657435501256,"avgVisitMinutes":71,"estimatedCostEur":1,"score":2.943686572732179},{"id":"boumdeid-un-zira_8769","citySlug":"boumdeid-un-zira","name":"Galería de Arte","category":"cultura","lat":17.44943132979955,"lng":-11.341222149291283,"avgVisitMinutes":73,"estimatedCostEur":21,"score":4.191224851184991},{"id":"boumdeid-un-zira_4670","citySlug":"boumdeid-un-zira","name":"Parque Central","category":"ocio","lat":17.444426244786634,"lng":-11.35187301717083,"avgVisitMinutes":60,"estimatedCostEur":12,"score":1.1474889912034274},{"id":"bouly_6313","citySlug":"bouly","name":"Restaurante Típico de Bouly","category":"gastronomia","lat":15.315301348492081,"lng":-11.796073196519623,"avgVisitMinutes":84,"estimatedCostEur":15,"score":1.9861355285607298},{"id":"bouly_9807","citySlug":"bouly","name":"Restaurante Típico de Bouly","category":"gastronomia","lat":15.309257119226544,"lng":-11.808192682404131,"avgVisitMinutes":57,"estimatedCostEur":20,"score":1.1906320182609234},{"id":"bouly_5829","citySlug":"bouly","name":"Teatro Municipal","category":"cultura","lat":15.31749872335854,"lng":-11.807569333593731,"avgVisitMinutes":42,"estimatedCostEur":12,"score":2.382828454188612},{"id":"bouly_8770","citySlug":"bouly","name":"Centro de Arte de Bouly","category":"cultura","lat":15.308489063206185,"lng":-11.793530752815094,"avgVisitMinutes":30,"estimatedCostEur":21,"score":1.8427839670526747},{"id":"bouly_9176","citySlug":"bouly","name":"Ruta de Tapas","category":"gastronomia","lat":15.321541321040856,"lng":-11.796119827674902,"avgVisitMinutes":65,"estimatedCostEur":4,"score":3.190447522295159},{"id":"bougadoum_6075","citySlug":"bougadoum","name":"Centro de Arte de Bougadoum","category":"cultura","lat":15.86044325772299,"lng":-7.361380091966538,"avgVisitMinutes":76,"estimatedCostEur":15,"score":4.833100768047861},{"id":"bougadoum_4782","citySlug":"bougadoum","name":"Zona Comercial","category":"ocio","lat":15.863401153029209,"lng":-7.377944945095431,"avgVisitMinutes":60,"estimatedCostEur":12,"score":1.05218080813402},{"id":"bougadoum_5319","citySlug":"bougadoum","name":"Teatro Municipal","category":"cultura","lat":15.865257849518526,"lng":-7.361681007933423,"avgVisitMinutes":42,"estimatedCostEur":18,"score":3.203175204474914},{"id":"bougadoum_8836","citySlug":"bougadoum","name":"Centro de Arte de Bougadoum","category":"cultura","lat":15.87083214968823,"lng":-7.36428111441549,"avgVisitMinutes":30,"estimatedCostEur":8,"score":2.2144132258174385},{"id":"bougadoum_7401","citySlug":"bougadoum","name":"Galería de Arte","category":"cultura","lat":15.874845377617818,"lng":-7.367638835021411,"avgVisitMinutes":81,"estimatedCostEur":13,"score":3.9555544646512018},{"id":"bougadoum_7134","citySlug":"bougadoum","name":"Playa Norte","category":"playa","lat":15.871087601721078,"lng":-7.370808841380567,"avgVisitMinutes":41,"estimatedCostEur":5,"score":2.023086126172913},{"id":"bougadoum_8116","citySlug":"bougadoum","name":"Parque Central","category":"ocio","lat":15.858947977376467,"lng":-7.376490996739152,"avgVisitMinutes":39,"estimatedCostEur":14,"score":3.2905493395294076},{"id":"bougadoum_9633","citySlug":"bougadoum","name":"Museo Cultural de Bougadoum","category":"cultura","lat":15.868017241297228,"lng":-7.378345555523939,"avgVisitMinutes":57,"estimatedCostEur":12,"score":3.38292816221192},{"id":"bougadoum_4304","citySlug":"bougadoum","name":"Mercado Gastronómico","category":"gastronomia","lat":15.8684516718043,"lng":-7.373119357087844,"avgVisitMinutes":28,"estimatedCostEur":10,"score":1.7438211741651077},{"id":"bouanze_6247","citySlug":"bouanze","name":"Zona Comercial","category":"ocio","lat":15.827584593490554,"lng":-12.229024049441781,"avgVisitMinutes":56,"estimatedCostEur":4,"score":1.4754040028531392},{"id":"bouanze_9582","citySlug":"bouanze","name":"Zona Comercial","category":"ocio","lat":15.809968992846928,"lng":-12.234263873250491,"avgVisitMinutes":35,"estimatedCostEur":6,"score":4.837726583578098},{"id":"bouanze_4525","citySlug":"bouanze","name":"Playa Sur","category":"playa","lat":15.816004466472897,"lng":-12.239338476535286,"avgVisitMinutes":30,"estimatedCostEur":0,"score":1.0400147119600471},{"id":"bouanze_3302","citySlug":"bouanze","name":"Zona Comercial","category":"ocio","lat":15.826538444256073,"lng":-12.227858829285756,"avgVisitMinutes":30,"estimatedCostEur":19,"score":4.69856599655207},{"id":"bouanze_9054","citySlug":"bouanze","name":"Ruta de Tapas","category":"gastronomia","lat":15.813039549242546,"lng":-12.24002436303807,"avgVisitMinutes":52,"estimatedCostEur":12,"score":0.7632352570565969},{"id":"bouanze_1344","citySlug":"bouanze","name":"Castillo de Bouanzé","category":"historia","lat":15.824778082000398,"lng":-12.237837354691235,"avgVisitMinutes":86,"estimatedCostEur":10,"score":3.7873653413866957},{"id":"bouanze_9795","citySlug":"bouanze","name":"Playa Central","category":"playa","lat":15.808705339438106,"lng":-12.230169562505724,"avgVisitMinutes":58,"estimatedCostEur":12,"score":2.326201660021008},{"id":"bouanze_9094","citySlug":"bouanze","name":"Castillo de Bouanzé","category":"historia","lat":15.818509710759695,"lng":-12.240377583128273,"avgVisitMinutes":33,"estimatedCostEur":13,"score":3.461437784641665},{"id":"bouanze_4978","citySlug":"bouanze","name":"Parque Central","category":"ocio","lat":15.817849748730307,"lng":-12.23433062643649,"avgVisitMinutes":32,"estimatedCostEur":4,"score":4.910255440240173},{"id":"bogue_2928","citySlug":"bogue","name":"Paseo Principal","category":"ocio","lat":16.59437396213078,"lng":-14.263136489184905,"avgVisitMinutes":71,"estimatedCostEur":19,"score":1.585344105855031},{"id":"bogue_3863","citySlug":"bogue","name":"Playa Norte","category":"playa","lat":16.591321790108523,"lng":-14.262056912880517,"avgVisitMinutes":49,"estimatedCostEur":12,"score":1.8860589152421865},{"id":"bogue_7954","citySlug":"bogue","name":"Paseo Principal","category":"ocio","lat":16.581975870631318,"lng":-14.270345805103124,"avgVisitMinutes":29,"estimatedCostEur":20,"score":0.5703130059929505},{"id":"bogue_5486","citySlug":"bogue","name":"Ruta de Tapas","category":"gastronomia","lat":16.601195115559833,"lng":-14.27019296101655,"avgVisitMinutes":54,"estimatedCostEur":7,"score":2.523553080100943},{"id":"bogue_4030","citySlug":"bogue","name":"Zona Comercial","category":"ocio","lat":16.60058933678061,"lng":-14.271217716449824,"avgVisitMinutes":88,"estimatedCostEur":13,"score":1.9640725073813572},{"id":"bogue_8780","citySlug":"bogue","name":"Zona Comercial","category":"ocio","lat":16.593353778588025,"lng":-14.261336311378829,"avgVisitMinutes":61,"estimatedCostEur":17,"score":4.083383186087671},{"id":"bogue_7867","citySlug":"bogue","name":"Paseo Principal","category":"ocio","lat":16.595838451324056,"lng":-14.26590274773081,"avgVisitMinutes":64,"estimatedCostEur":12,"score":2.97120222512547},{"id":"bogue_1845","citySlug":"bogue","name":"Ruta de Tapas","category":"gastronomia","lat":16.586383269172725,"lng":-14.27053642176755,"avgVisitMinutes":27,"estimatedCostEur":12,"score":3.2268448095902027},{"id":"bogue_2971","citySlug":"bogue","name":"Museo Cultural de Bogué","category":"cultura","lat":16.595330766240732,"lng":-14.254032570255536,"avgVisitMinutes":65,"estimatedCostEur":23,"score":2.2810570872381737},{"id":"bogue_7019","citySlug":"bogue","name":"Centro Histórico","category":"historia","lat":16.582555159650436,"lng":-14.266075783930988,"avgVisitMinutes":83,"estimatedCostEur":2,"score":1.6551144511399276},{"id":"bogue_8331","citySlug":"bogue","name":"Playa Sur","category":"playa","lat":16.591502179155924,"lng":-14.261227318602375,"avgVisitMinutes":35,"estimatedCostEur":20,"score":3.410299082381663},{"id":"bogue_1934","citySlug":"bogue","name":"Playa Central","category":"playa","lat":16.58511084730397,"lng":-14.266448061325411,"avgVisitMinutes":60,"estimatedCostEur":24,"score":4.856215256903507},{"id":"bir-mogrein_8478","citySlug":"bir-mogrein","name":"Castillo de Bîr Mogreïn","category":"historia","lat":25.214935479660618,"lng":-11.58610195985461,"avgVisitMinutes":25,"estimatedCostEur":3,"score":0.7801307625495406},{"id":"bir-mogrein_4585","citySlug":"bir-mogrein","name":"Castillo de Bîr Mogreïn","category":"historia","lat":25.212442152848542,"lng":-11.581776109305443,"avgVisitMinutes":27,"estimatedCostEur":12,"score":0.9499059823948502},{"id":"bir-mogrein_2606","citySlug":"bir-mogrein","name":"Museo Local de Bîr Mogreïn","category":"historia","lat":25.2206611634203,"lng":-11.580752248078092,"avgVisitMinutes":22,"estimatedCostEur":14,"score":4.047716501790621},{"id":"bir-mogrein_5206","citySlug":"bir-mogrein","name":"Murallas de Bîr Mogreïn","category":"historia","lat":25.228316758382284,"lng":-11.5730103064353,"avgVisitMinutes":88,"estimatedCostEur":7,"score":3.2535697693171857},{"id":"bir-mogrein_6307","citySlug":"bir-mogrein","name":"Playa Sur","category":"playa","lat":25.21710190610367,"lng":-11.572438206855416,"avgVisitMinutes":21,"estimatedCostEur":24,"score":4.414161688915554},{"id":"bir-mogrein_4776","citySlug":"bir-mogrein","name":"Restaurante Típico de Bîr Mogreïn","category":"gastronomia","lat":25.227444445992838,"lng":-11.582274629326907,"avgVisitMinutes":48,"estimatedCostEur":7,"score":1.7844588554229188},{"id":"bir-mogrein_3045","citySlug":"bir-mogrein","name":"Teatro Municipal","category":"cultura","lat":25.226022998320452,"lng":-11.58155236889725,"avgVisitMinutes":50,"estimatedCostEur":14,"score":1.4939047867829969},{"id":"basseknou_3843","citySlug":"basseknou","name":"Galería de Arte","category":"cultura","lat":15.87617613778508,"lng":-5.941084708178629,"avgVisitMinutes":20,"estimatedCostEur":22,"score":1.8759784567492712},{"id":"basseknou_8375","citySlug":"basseknou","name":"Museo Local de Basseknou","category":"historia","lat":15.87079745213269,"lng":-5.940115644615119,"avgVisitMinutes":89,"estimatedCostEur":0,"score":1.309931542161444},{"id":"basseknou_7775","citySlug":"basseknou","name":"Punto Panorámico","category":"mirador","lat":15.863837020272111,"lng":-5.946003101576039,"avgVisitMinutes":39,"estimatedCostEur":14,"score":3.234737185668835},{"id":"basseknou_5104","citySlug":"basseknou","name":"Teatro Municipal","category":"cultura","lat":15.860426066151497,"lng":-5.945841086590085,"avgVisitMinutes":60,"estimatedCostEur":15,"score":4.738629864943412},{"id":"basseknou_5494","citySlug":"basseknou","name":"Playa Central","category":"playa","lat":15.872456600661767,"lng":-5.955390309202752,"avgVisitMinutes":72,"estimatedCostEur":10,"score":2.2069956511197377},{"id":"basseknou_9367","citySlug":"basseknou","name":"Murallas de Basseknou","category":"historia","lat":15.87228668900915,"lng":-5.941563513776382,"avgVisitMinutes":72,"estimatedCostEur":20,"score":1.0797882639125964},{"id":"basseknou_1657","citySlug":"basseknou","name":"Paseo Principal","category":"ocio","lat":15.866116480554995,"lng":-5.949216181375668,"avgVisitMinutes":44,"estimatedCostEur":14,"score":4.607925712540896},{"id":"basseknou_1777","citySlug":"basseknou","name":"Teatro Municipal","category":"cultura","lat":15.85815579942501,"lng":-5.937122281908151,"avgVisitMinutes":72,"estimatedCostEur":15,"score":2.4906855109326473},{"id":"basseknou_3294","citySlug":"basseknou","name":"Playa Central","category":"playa","lat":15.872321278408439,"lng":-5.9509326150849615,"avgVisitMinutes":45,"estimatedCostEur":12,"score":4.679477978321508},{"id":"basseknou_5166","citySlug":"basseknou","name":"Castillo de Basseknou","category":"historia","lat":15.865328850653173,"lng":-5.950243044873948,"avgVisitMinutes":49,"estimatedCostEur":8,"score":1.0392005331871101},{"id":"basseknou_8597","citySlug":"basseknou","name":"Centro de Arte de Basseknou","category":"cultura","lat":15.86364340755632,"lng":-5.941113017446272,"avgVisitMinutes":24,"estimatedCostEur":25,"score":1.6633875002135379},{"id":"barogal_2412","citySlug":"barogal","name":"Zona Comercial","category":"ocio","lat":16.114839998766644,"lng":-13.497099654228856,"avgVisitMinutes":76,"estimatedCostEur":5,"score":1.3831142529296125},{"id":"barogal_8528","citySlug":"barogal","name":"Parque Central","category":"ocio","lat":16.113963992123722,"lng":-13.505586829592543,"avgVisitMinutes":22,"estimatedCostEur":14,"score":2.203309827724814},{"id":"barogal_4497","citySlug":"barogal","name":"Vista Alta de Barogal","category":"mirador","lat":16.113334088875366,"lng":-13.501582641433297,"avgVisitMinutes":61,"estimatedCostEur":3,"score":1.7291460211329475},{"id":"barogal_7997","citySlug":"barogal","name":"Playa Norte","category":"playa","lat":16.127198749134514,"lng":-13.502790915453863,"avgVisitMinutes":44,"estimatedCostEur":15,"score":1.8471006372192065},{"id":"barogal_8098","citySlug":"barogal","name":"Murallas de Barogal","category":"historia","lat":16.115246926458312,"lng":-13.504682888936468,"avgVisitMinutes":74,"estimatedCostEur":5,"score":3.8244341489165574},{"id":"barogal_6524","citySlug":"barogal","name":"Playa Norte","category":"playa","lat":16.12897157918593,"lng":-13.492130541106059,"avgVisitMinutes":61,"estimatedCostEur":7,"score":4.0071442989343},{"id":"barogal_1464","citySlug":"barogal","name":"Punto Panorámico","category":"mirador","lat":16.118767709424514,"lng":-13.490698716398834,"avgVisitMinutes":77,"estimatedCostEur":12,"score":3.0145532372076977},{"id":"barogal_1926","citySlug":"barogal","name":"Restaurante Típico de Barogal","category":"gastronomia","lat":16.123851816462782,"lng":-13.491046827635456,"avgVisitMinutes":42,"estimatedCostEur":1,"score":3.938318327513924},{"id":"barogal_4426","citySlug":"barogal","name":"Paseo Principal","category":"ocio","lat":16.110699306006754,"lng":-13.504153533623741,"avgVisitMinutes":40,"estimatedCostEur":24,"score":0.556464798967707},{"id":"barogal_6208","citySlug":"barogal","name":"Teatro Municipal","category":"cultura","lat":16.1195469054465,"lng":-13.493082235372983,"avgVisitMinutes":72,"estimatedCostEur":8,"score":3.8966997099937615},{"id":"barogal_9844","citySlug":"barogal","name":"Teatro Municipal","category":"cultura","lat":16.125771245581397,"lng":-13.495557868057023,"avgVisitMinutes":35,"estimatedCostEur":17,"score":3.658195071418626},