{"country":"PG","pois":[{"id":"wewak_1836","citySlug":"wewak","name":"Restaurante Típico de Wewak","category":"gastronomia","lat":-3.544889822329289,"lng":143.63987390010504,"avgVisitMinutes":35,"estimatedCostEur":7,"score":0.5020828464835845},{"id":"wewak_6510","citySlug":"wewak","name":"Museo Local de Wewak","category":"historia","lat":-3.5513019919162008,"lng":143.6408069407495,"avgVisitMinutes":72,"estimatedCostEur":20,"score":2.2710500538580627},{"id":"wewak_8439","citySlug":"wewak","name":"Museo Cultural de Wewak","category":"cultura","lat":-3.544105756071202,"lng":143.63773275905854,"avgVisitMinutes":70,"estimatedCostEur":19,"score":3.8958726782701545},{"id":"wewak_1481","citySlug":"wewak","name":"Zona Comercial","category":"ocio","lat":-3.555663131470509,"lng":143.6390488216673,"avgVisitMinutes":21,"estimatedCostEur":10,"score":4.641364883074874},{"id":"wewak_7293","citySlug":"wewak","name":"Playa Sur","category":"playa","lat":-3.5495192271192857,"lng":143.62829062559175,"avgVisitMinutes":62,"estimatedCostEur":0,"score":1.9044999190348184},{"id":"wau_6208","citySlug":"wau","name":"Museo Local de Wau","category":"historia","lat":-7.347032906695341,"lng":146.7162292458758,"avgVisitMinutes":29,"estimatedCostEur":4,"score":2.675714889773319},{"id":"wau_7812","citySlug":"wau","name":"Playa Sur","category":"playa","lat":-7.34587180582133,"lng":146.7226407336205,"avgVisitMinutes":89,"estimatedCostEur":15,"score":1.0381725203045855},{"id":"wau_2030","citySlug":"wau","name":"Museo Cultural de Wau","category":"cultura","lat":-7.349453045759221,"lng":146.71618842731527,"avgVisitMinutes":80,"estimatedCostEur":20,"score":0.6959052229923575},{"id":"wau_8628","citySlug":"wau","name":"Murallas de Wau","category":"historia","lat":-7.341759774608338,"lng":146.72671055455208,"avgVisitMinutes":72,"estimatedCostEur":20,"score":4.663212632998892},{"id":"wau_6754","citySlug":"wau","name":"Murallas de Wau","category":"historia","lat":-7.350402317506987,"lng":146.7304348438651,"avgVisitMinutes":74,"estimatedCostEur":14,"score":0.5743805103285986},{"id":"wau_7594","citySlug":"wau","name":"Vista Alta de Wau","category":"mirador","lat":-7.3456602069657,"lng":146.7217367483437,"avgVisitMinutes":81,"estimatedCostEur":25,"score":3.1392597680535603},{"id":"wau_4247","citySlug":"wau","name":"Teatro Municipal","category":"cultura","lat":-7.341427718869913,"lng":146.73209644392952,"avgVisitMinutes":80,"estimatedCostEur":1,"score":4.3786224330218975},{"id":"wau_9071","citySlug":"wau","name":"Playa Norte","category":"playa","lat":-7.346359072047068,"lng":146.7287834465446,"avgVisitMinutes":44,"estimatedCostEur":23,"score":1.1363575786789342},{"id":"wau_7582","citySlug":"wau","name":"Parque Central","category":"ocio","lat":-7.344994988665022,"lng":146.72272235278732,"avgVisitMinutes":62,"estimatedCostEur":23,"score":3.526815098562046},{"id":"wau_6637","citySlug":"wau","name":"Centro de Arte de Wau","category":"cultura","lat":-7.34607260702557,"lng":146.72501238497574,"avgVisitMinutes":60,"estimatedCostEur":22,"score":2.8009986604102446},{"id":"wau_5161","citySlug":"wau","name":"Mirador de Wau","category":"mirador","lat":-7.341338752194132,"lng":146.7318190972614,"avgVisitMinutes":72,"estimatedCostEur":13,"score":4.199725467972021},{"id":"wau_1271","citySlug":"wau","name":"Parque Central","category":"ocio","lat":-7.342345712446821,"lng":146.73090618968453,"avgVisitMinutes":29,"estimatedCostEur":23,"score":0.7822545078263438},{"id":"wakunai_6075","citySlug":"wakunai","name":"Museo Local de Wakunai","category":"historia","lat":-5.862543869166612,"lng":155.2142369164609,"avgVisitMinutes":45,"estimatedCostEur":13,"score":1.1102632414378173},{"id":"wakunai_5054","citySlug":"wakunai","name":"Paseo Principal","category":"ocio","lat":-5.869091490106824,"lng":155.206793468909,"avgVisitMinutes":37,"estimatedCostEur":16,"score":2.6145810301482824},{"id":"wakunai_3996","citySlug":"wakunai","name":"Paseo Principal","category":"ocio","lat":-5.873675349726189,"lng":155.21403959397813,"avgVisitMinutes":24,"estimatedCostEur":19,"score":3.0760809251131764},{"id":"wakunai_4324","citySlug":"wakunai","name":"Zona Comercial","category":"ocio","lat":-5.863961379736387,"lng":155.21349366883115,"avgVisitMinutes":75,"estimatedCostEur":6,"score":2.5878539593293257},{"id":"wakunai_5345","citySlug":"wakunai","name":"Mercado Gastronómico","category":"gastronomia","lat":-5.864409676118123,"lng":155.21689472656288,"avgVisitMinutes":82,"estimatedCostEur":7,"score":3.838338190608477},{"id":"wakunai_7316","citySlug":"wakunai","name":"Vista Alta de Wakunai","category":"mirador","lat":-5.878032024771384,"lng":155.2142584769034,"avgVisitMinutes":70,"estimatedCostEur":13,"score":4.538186948138696},{"id":"wakunai_5310","citySlug":"wakunai","name":"Zona Comercial","category":"ocio","lat":-5.872549701189493,"lng":155.20180834237325,"avgVisitMinutes":47,"estimatedCostEur":20,"score":1.3790473575786233},{"id":"wakunai_9893","citySlug":"wakunai","name":"Zona Comercial","category":"ocio","lat":-5.878837196748052,"lng":155.2181551204886,"avgVisitMinutes":25,"estimatedCostEur":20,"score":4.33154377535873},{"id":"wakunai_1460","citySlug":"wakunai","name":"Vista Alta de Wakunai","category":"mirador","lat":-5.860744622710236,"lng":155.21185425888487,"avgVisitMinutes":85,"estimatedCostEur":9,"score":3.0142755645688277},{"id":"wakunai_5225","citySlug":"wakunai","name":"Vista Alta de Wakunai","category":"mirador","lat":-5.867179939865022,"lng":155.2160503014213,"avgVisitMinutes":33,"estimatedCostEur":6,"score":4.25786114989529},{"id":"wabag_7476","citySlug":"wabag","name":"Zona Comercial","category":"ocio","lat":-5.492543021502865,"lng":143.7129444009588,"avgVisitMinutes":27,"estimatedCostEur":17,"score":1.890210830024566},{"id":"wabag_7843","citySlug":"wabag","name":"Vista Alta de Wabag","category":"mirador","lat":-5.500227724118573,"lng":143.72308772451055,"avgVisitMinutes":54,"estimatedCostEur":10,"score":2.3414314305369484},{"id":"wabag_8473","citySlug":"wabag","name":"Paseo Principal","category":"ocio","lat":-5.489551523042803,"lng":143.72797203746117,"avgVisitMinutes":76,"estimatedCostEur":7,"score":1.2346209365098346},{"id":"wabag_8736","citySlug":"wabag","name":"Playa Central","category":"playa","lat":-5.49439847262461,"lng":143.71812226683878,"avgVisitMinutes":65,"estimatedCostEur":12,"score":4.572146911821076},{"id":"wabag_6488","citySlug":"wabag","name":"Iglesia de Wabag","category":"historia","lat":-5.4947662919826765,"lng":143.73144684435798,"avgVisitMinutes":29,"estimatedCostEur":24,"score":1.7456181364078631},{"id":"wabag_3968","citySlug":"wabag","name":"Galería de Arte","category":"cultura","lat":-5.489275215449932,"lng":143.71805412098993,"avgVisitMinutes":80,"estimatedCostEur":12,"score":0.7616972577400207},{"id":"wabag_1965","citySlug":"wabag","name":"Vista Alta de Wabag","category":"mirador","lat":-5.493816391472608,"lng":143.72902153726315,"avgVisitMinutes":89,"estimatedCostEur":23,"score":4.046263838355339},{"id":"wabag_8803","citySlug":"wabag","name":"Punto Panorámico","category":"mirador","lat":-5.486016367880385,"lng":143.7188415200351,"avgVisitMinutes":41,"estimatedCostEur":24,"score":4.365073838244301},{"id":"wabag_7747","citySlug":"wabag","name":"Iglesia de Wabag","category":"historia","lat":-5.49997329825739,"lng":143.71772816229253,"avgVisitMinutes":47,"estimatedCostEur":1,"score":1.5308326493060251},{"id":"wabag_4178","citySlug":"wabag","name":"Mercado Gastronómico","category":"gastronomia","lat":-5.4962897109732785,"lng":143.73082199835596,"avgVisitMinutes":83,"estimatedCostEur":19,"score":0.6832179273856891},{"id":"wabag_2903","citySlug":"wabag","name":"Centro de Arte de Wabag","category":"cultura","lat":-5.49293622535728,"lng":143.7193258788689,"avgVisitMinutes":51,"estimatedCostEur":3,"score":3.1593079099569126},{"id":"wabag_9751","citySlug":"wabag","name":"Restaurante Típico de Wabag","category":"gastronomia","lat":-5.483390282779655,"lng":143.72519823089866,"avgVisitMinutes":81,"estimatedCostEur":15,"score":2.147730216422257},{"id":"vanimo_3153","citySlug":"vanimo","name":"Paseo Principal","category":"ocio","lat":-2.681231824762691,"lng":141.30040062872774,"avgVisitMinutes":40,"estimatedCostEur":9,"score":2.6773653109460405},{"id":"vanimo_1979","citySlug":"vanimo","name":"Iglesia de Vanimo","category":"historia","lat":-2.6879041345084462,"lng":141.30876607641594,"avgVisitMinutes":32,"estimatedCostEur":7,"score":3.757547464248404},{"id":"vanimo_4139","citySlug":"vanimo","name":"Playa Sur","category":"playa","lat":-2.68676060057539,"lng":141.29450136641395,"avgVisitMinutes":41,"estimatedCostEur":17,"score":4.470993783343003},{"id":"vanimo_6590","citySlug":"vanimo","name":"Teatro Municipal","category":"cultura","lat":-2.6897673221930596,"lng":141.30090348901726,"avgVisitMinutes":36,"estimatedCostEur":11,"score":1.012027199839807},{"id":"vanimo_3672","citySlug":"vanimo","name":"Museo Cultural de Vanimo","category":"cultura","lat":-2.67627199852427,"lng":141.3017556159888,"avgVisitMinutes":34,"estimatedCostEur":8,"score":3.3542350916236394},{"id":"vanimo_4587","citySlug":"vanimo","name":"Punto Panorámico","category":"mirador","lat":-2.6786647184526484,"lng":141.30912667024734,"avgVisitMinutes":86,"estimatedCostEur":24,"score":3.2925399136213733},{"id":"vanimo_1970","citySlug":"vanimo","name":"Mirador de Vanimo","category":"mirador","lat":-2.6783505465848783,"lng":141.31048333419469,"avgVisitMinutes":63,"estimatedCostEur":13,"score":1.6788327935693803},{"id":"vanimo_2412","citySlug":"vanimo","name":"Museo Cultural de Vanimo","category":"cultura","lat":-2.677860753954347,"lng":141.29406955777642,"avgVisitMinutes":67,"estimatedCostEur":19,"score":1.9340362632733241},{"id":"tari_2837","citySlug":"tari","name":"Playa Sur","category":"playa","lat":-5.848568375130341,"lng":142.93777302972723,"avgVisitMinutes":49,"estimatedCostEur":7,"score":4.292607464231386},{"id":"tari_6414","citySlug":"tari","name":"Punto Panorámico","category":"mirador","lat":-5.83642922474632,"lng":142.94256002841286,"avgVisitMinutes":65,"estimatedCostEur":10,"score":3.5483683183327304},{"id":"tari_6059","citySlug":"tari","name":"Mercado Gastronómico","category":"gastronomia","lat":-5.851437622341465,"lng":142.9392011406287,"avgVisitMinutes":61,"estimatedCostEur":2,"score":0.5175640818116714},{"id":"tari_5258","citySlug":"tari","name":"Playa Sur","category":"playa","lat":-5.850239831265737,"lng":142.94241970631052,"avgVisitMinutes":38,"estimatedCostEur":1,"score":1.2405801355872845},{"id":"tari_4291","citySlug":"tari","name":"Centro Histórico","category":"historia","lat":-5.839135978881244,"lng":142.9523767632013,"avgVisitMinutes":36,"estimatedCostEur":12,"score":4.892236258642755},{"id":"sogeri_2209","citySlug":"sogeri","name":"Mirador de Sogeri","category":"mirador","lat":-9.425116900696473,"lng":147.42869269007718,"avgVisitMinutes":76,"estimatedCostEur":22,"score":0.6560751251312087},{"id":"sogeri_5852","citySlug":"sogeri","name":"Museo Local de Sogeri","category":"historia","lat":-9.413178255352657,"lng":147.43020333813988,"avgVisitMinutes":65,"estimatedCostEur":12,"score":2.067035886252475},{"id":"sogeri_1408","citySlug":"sogeri","name":"Centro Histórico","category":"historia","lat":-9.41965433018113,"lng":147.42807902976918,"avgVisitMinutes":66,"estimatedCostEur":23,"score":4.22655829291622},{"id":"sogeri_8737","citySlug":"sogeri","name":"Parque Central","category":"ocio","lat":-9.413819234156781,"lng":147.4281673235085,"avgVisitMinutes":76,"estimatedCostEur":1,"score":0.6552423946724022},{"id":"sogeri_5187","citySlug":"sogeri","name":"Museo Local de Sogeri","category":"historia","lat":-9.42884995569055,"lng":147.4291865766805,"avgVisitMinutes":60,"estimatedCostEur":18,"score":1.7158065523428376},{"id":"sogeri_3821","citySlug":"sogeri","name":"Playa Sur","category":"playa","lat":-9.42332256525307,"lng":147.42409242868763,"avgVisitMinutes":44,"estimatedCostEur":6,"score":3.112279468337068},{"id":"sogeri_4140","citySlug":"sogeri","name":"Paseo Principal","category":"ocio","lat":-9.419766586399533,"lng":147.42307437493713,"avgVisitMinutes":26,"estimatedCostEur":18,"score":2.2598647494248514},{"id":"sogeri_3388","citySlug":"sogeri","name":"Museo Local de Sogeri","category":"historia","lat":-9.416215534663802,"lng":147.41919525579266,"avgVisitMinutes":67,"estimatedCostEur":14,"score":2.1665883761335314},{"id":"sogeri_1606","citySlug":"sogeri","name":"Ruta de Tapas","category":"gastronomia","lat":-9.428021957023804,"lng":147.4276314688518,"avgVisitMinutes":74,"estimatedCostEur":18,"score":4.3838028916686405},{"id":"sogeri_8101","citySlug":"sogeri","name":"Centro Histórico","category":"historia","lat":-9.423248761031497,"lng":147.41195988377012,"avgVisitMinutes":26,"estimatedCostEur":25,"score":1.9883756187054809},{"id":"sogeri_9715","citySlug":"sogeri","name":"Restaurante Típico de Sogeri","category":"gastronomia","lat":-9.422538543437117,"lng":147.41650951115457,"avgVisitMinutes":23,"estimatedCostEur":17,"score":2.159582875774463},{"id":"sogeri_9582","citySlug":"sogeri","name":"Zona Comercial","category":"ocio","lat":-9.421815626796421,"lng":147.42913430214168,"avgVisitMinutes":65,"estimatedCostEur":2,"score":4.067736916339786},{"id":"rabaul_4737","citySlug":"rabaul","name":"Punto Panorámico","category":"mirador","lat":-4.193524909434608,"lng":152.15321451028305,"avgVisitMinutes":83,"estimatedCostEur":8,"score":3.54934926696819},{"id":"rabaul_6539","citySlug":"rabaul","name":"Zona Comercial","category":"ocio","lat":-4.203690292435747,"lng":152.15839707856534,"avgVisitMinutes":74,"estimatedCostEur":15,"score":1.2331619528926865},{"id":"rabaul_6721","citySlug":"rabaul","name":"Iglesia de Rabaul","category":"historia","lat":-4.205244122894069,"lng":152.1702477979519,"avgVisitMinutes":49,"estimatedCostEur":5,"score":4.060639688950985},{"id":"rabaul_3350","citySlug":"rabaul","name":"Playa Sur","category":"playa","lat":-4.196295909492347,"lng":152.15974394018147,"avgVisitMinutes":63,"estimatedCostEur":2,"score":2.2877116655556455},{"id":"rabaul_6124","citySlug":"rabaul","name":"Zona Comercial","category":"ocio","lat":-4.202455431608457,"lng":152.1717545208083,"avgVisitMinutes":35,"estimatedCostEur":7,"score":4.524186263057645},{"id":"port-moresby_1211","citySlug":"port-moresby","name":"Zona Comercial","category":"ocio","lat":-9.478127497776022,"lng":147.1442805133138,"avgVisitMinutes":74,"estimatedCostEur":13,"score":0.652293780008836},{"id":"port-moresby_6360","citySlug":"port-moresby","name":"Teatro Municipal","category":"cultura","lat":-9.482700623261906,"lng":147.15281366769185,"avgVisitMinutes":45,"estimatedCostEur":22,"score":4.168494745375437},{"id":"port-moresby_8803","citySlug":"port-moresby","name":"Mirador de Port Moresby","category":"mirador","lat":-9.472511338893103,"lng":147.1475979714197,"avgVisitMinutes":43,"estimatedCostEur":20,"score":1.5930477507135798},{"id":"port-moresby_4936","citySlug":"port-moresby","name":"Mirador de Port Moresby","category":"mirador","lat":-9.483436426689714,"lng":147.150407309896,"avgVisitMinutes":81,"estimatedCostEur":6,"score":3.4614189254947316},{"id":"port-moresby_5855","citySlug":"port-moresby","name":"Castillo de Port Moresby","category":"historia","lat":-9.486015535533525,"lng":147.15652987894134,"avgVisitMinutes":90,"estimatedCostEur":22,"score":3.980391604449727},{"id":"porgera_5423","citySlug":"porgera","name":"Punto Panorámico","category":"mirador","lat":-5.461250950933761,"lng":143.1476708728493,"avgVisitMinutes":26,"estimatedCostEur":9,"score":3.714265851018808},{"id":"porgera_7348","citySlug":"porgera","name":"Vista Alta de Porgera","category":"mirador","lat":-5.457231582931643,"lng":143.15024533372417,"avgVisitMinutes":67,"estimatedCostEur":12,"score":2.440707823622445},{"id":"porgera_2483","citySlug":"porgera","name":"Mercado Gastronómico","category":"gastronomia","lat":-5.466733868846749,"lng":143.14381512642493,"avgVisitMinutes":73,"estimatedCostEur":19,"score":1.9724783444966418},{"id":"porgera_5605","citySlug":"porgera","name":"Iglesia de Porgera","category":"historia","lat":-5.460290355565847,"lng":143.15020330874236,"avgVisitMinutes":54,"estimatedCostEur":20,"score":0.5800415749018677},{"id":"porgera_5166","citySlug":"porgera","name":"Teatro Municipal","category":"cultura","lat":-5.463523190519412,"lng":143.1420851719266,"avgVisitMinutes":89,"estimatedCostEur":24,"score":3.864513956699504},{"id":"porgera_4285","citySlug":"porgera","name":"Vista Alta de Porgera","category":"mirador","lat":-5.468818674493315,"lng":143.14385045785986,"avgVisitMinutes":75,"estimatedCostEur":5,"score":3.1537357711611316},{"id":"porgera_4431","citySlug":"porgera","name":"Teatro Municipal","category":"cultura","lat":-5.470703377537151,"lng":143.15315873336786,"avgVisitMinutes":42,"estimatedCostEur":13,"score":4.013385051804817},{"id":"porgera_5004","citySlug":"porgera","name":"Restaurante Típico de Porgera","category":"gastronomia","lat":-5.47017922992252,"lng":143.14054187949841,"avgVisitMinutes":36,"estimatedCostEur":16,"score":1.5995413918867039},{"id":"popondetta_8641","citySlug":"popondetta","name":"Mercado Gastronómico","category":"gastronomia","lat":-8.76746671366295,"lng":148.22910339673706,"avgVisitMinutes":29,"estimatedCostEur":16,"score":4.853561476676748},{"id":"popondetta_5101","citySlug":"popondetta","name":"Teatro Municipal","category":"cultura","lat":-8.765534255002146,"lng":148.24167745655114,"avgVisitMinutes":37,"estimatedCostEur":8,"score":3.633428773039974},{"id":"popondetta_1857","citySlug":"popondetta","name":"Playa Sur","category":"playa","lat":-8.768276857697014,"lng":148.2388776609984,"avgVisitMinutes":88,"estimatedCostEur":0,"score":0.9013579890725459},{"id":"popondetta_1855","citySlug":"popondetta","name":"Playa Sur","category":"playa","lat":-8.772679137143292,"lng":148.22823806928508,"avgVisitMinutes":66,"estimatedCostEur":17,"score":2.5395015770597995},{"id":"popondetta_2240","citySlug":"popondetta","name":"Zona Comercial","category":"ocio","lat":-8.772237279229206,"lng":148.2233374135022,"avgVisitMinutes":65,"estimatedCostEur":19,"score":2.612136226020535},{"id":"popondetta_1903","citySlug":"popondetta","name":"Restaurante Típico de Popondetta","category":"gastronomia","lat":-8.775075631635204,"lng":148.22362983055592,"avgVisitMinutes":60,"estimatedCostEur":23,"score":0.8435537463948284},{"id":"popondetta_4219","citySlug":"popondetta","name":"Vista Alta de Popondetta","category":"mirador","lat":-8.775267590569324,"lng":148.23378894308306,"avgVisitMinutes":32,"estimatedCostEur":13,"score":4.954909411202724},{"id":"panguna_7889","citySlug":"panguna","name":"Museo Local de Panguna","category":"historia","lat":-6.317478393156132,"lng":155.47931873116855,"avgVisitMinutes":41,"estimatedCostEur":8,"score":1.2532754488564333},{"id":"panguna_5180","citySlug":"panguna","name":"Parque Central","category":"ocio","lat":-6.312063011430875,"lng":155.47689237454932,"avgVisitMinutes":59,"estimatedCostEur":20,"score":4.846164845500877},{"id":"panguna_2517","citySlug":"panguna","name":"Playa Sur","category":"playa","lat":-6.313622299024549,"lng":155.48079423519948,"avgVisitMinutes":53,"estimatedCostEur":2,"score":4.911332747105443},{"id":"panguna_3088","citySlug":"panguna","name":"Playa Sur","category":"playa","lat":-6.314590480458299,"lng":155.48126631881118,"avgVisitMinutes":63,"estimatedCostEur":8,"score":4.128332663655079},{"id":"panguna_1633","citySlug":"panguna","name":"Museo Cultural de Panguna","category":"cultura","lat":-6.314293900459241,"lng":155.4821005542971,"avgVisitMinutes":64,"estimatedCostEur":14,"score":2.764402672109173},{"id":"panguna_9865","citySlug":"panguna","name":"Mirador de Panguna","category":"mirador","lat":-6.312973042069055,"lng":155.4886731216736,"avgVisitMinutes":62,"estimatedCostEur":19,"score":2.7668120972737507},{"id":"panguna_9581","citySlug":"panguna","name":"Museo Cultural de Panguna","category":"cultura","lat":-6.3143194607674085,"lng":155.476966251483,"avgVisitMinutes":80,"estimatedCostEur":25,"score":2.7876882673104046},{"id":"panguna_5423","citySlug":"panguna","name":"Museo Cultural de Panguna","category":"cultura","lat":-6.3065477661710965,"lng":155.49051307418137,"avgVisitMinutes":89,"estimatedCostEur":16,"score":0.9532822986983371},{"id":"olsobip_3065","citySlug":"olsobip","name":"Playa Sur","category":"playa","lat":-5.385568186765632,"lng":141.526397854174,"avgVisitMinutes":50,"estimatedCostEur":24,"score":2.25441207365856},{"id":"olsobip_5016","citySlug":"olsobip","name":"Murallas de Olsobip","category":"historia","lat":-5.391789890099529,"lng":141.51807115299155,"avgVisitMinutes":80,"estimatedCostEur":7,"score":1.6918113374103205},{"id":"olsobip_2927","citySlug":"olsobip","name":"Castillo de Olsobip","category":"historia","lat":-5.391387545566062,"lng":141.52524706191446,"avgVisitMinutes":59,"estimatedCostEur":25,"score":2.961534779777674},{"id":"olsobip_9995","citySlug":"olsobip","name":"Castillo de Olsobip","category":"historia","lat":-5.387150788712335,"lng":141.51543473270868,"avgVisitMinutes":58,"estimatedCostEur":1,"score":3.774060220879217},{"id":"olsobip_7099","citySlug":"olsobip","name":"Playa Norte","category":"playa","lat":-5.38372063587676,"lng":141.5180069402452,"avgVisitMinutes":64,"estimatedCostEur":7,"score":4.900428096091678},{"id":"olsobip_2452","citySlug":"olsobip","name":"Parque Central","category":"ocio","lat":-5.388503485704066,"lng":141.50971897512017,"avgVisitMinutes":87,"estimatedCostEur":24,"score":2.9211653280781107},{"id":"olsobip_3102","citySlug":"olsobip","name":"Paseo Principal","category":"ocio","lat":-5.392378380599854,"lng":141.51969031280464,"avgVisitMinutes":69,"estimatedCostEur":4,"score":1.2746292327331696},{"id":"namatanai_9933","citySlug":"namatanai","name":"Restaurante Típico de Namatanai","category":"gastronomia","lat":-3.669965523640308,"lng":152.44361930869434,"avgVisitMinutes":73,"estimatedCostEur":4,"score":2.7409572203944395},{"id":"namatanai_4713","citySlug":"namatanai","name":"Mirador de Namatanai","category":"mirador","lat":-3.6668069806269235,"lng":152.44751533179914,"avgVisitMinutes":79,"estimatedCostEur":10,"score":4.451527739092922},{"id":"namatanai_6536","citySlug":"namatanai","name":"Museo Cultural de Namatanai","category":"cultura","lat":-3.6687018745934457,"lng":152.43166966661028,"avgVisitMinutes":31,"estimatedCostEur":5,"score":3.8196438697402884},{"id":"namatanai_4184","citySlug":"namatanai","name":"Murallas de Namatanai","category":"historia","lat":-3.656705239655877,"lng":152.43679292096442,"avgVisitMinutes":65,"estimatedCostEur":24,"score":4.336199347425161},{"id":"namatanai_4977","citySlug":"namatanai","name":"Ruta de Tapas","category":"gastronomia","lat":-3.6708602792243954,"lng":152.43713187165736,"avgVisitMinutes":89,"estimatedCostEur":12,"score":3.2787811181073385},{"id":"namatanai_2403","citySlug":"namatanai","name":"Zona Comercial","category":"ocio","lat":-3.6733261446267234,"lng":152.44403947984406,"avgVisitMinutes":37,"estimatedCostEur":5,"score":3.539666211017864},{"id":"namatanai_5286","citySlug":"namatanai","name":"Museo Local de Namatanai","category":"historia","lat":-3.6544749151892555,"lng":152.44699845099677,"avgVisitMinutes":52,"estimatedCostEur":3,"score":3.796514169912844},{"id":"namatanai_7774","citySlug":"namatanai","name":"Restaurante Típico de Namatanai","category":"gastronomia","lat":-3.661938764963662,"lng":152.4329755400724,"avgVisitMinutes":53,"estimatedCostEur":16,"score":3.9434002252496065},{"id":"namatanai_1949","citySlug":"namatanai","name":"Playa Sur","category":"playa","lat":-3.6728064621348038,"lng":152.43170388749297,"avgVisitMinutes":53,"estimatedCostEur":14,"score":2.9276422183314974},{"id":"mount-hagen_6904","citySlug":"mount-hagen","name":"Punto Panorámico","category":"mirador","lat":-5.865051054976431,"lng":144.22068374293286,"avgVisitMinutes":83,"estimatedCostEur":19,"score":1.9998323626074148},{"id":"mount-hagen_3982","citySlug":"mount-hagen","name":"Playa Sur","category":"playa","lat":-5.860854325553851,"lng":144.2213072002471,"avgVisitMinutes":85,"estimatedCostEur":5,"score":2.876992107469401},{"id":"mount-hagen_5262","citySlug":"mount-hagen","name":"Mercado Gastronómico","category":"gastronomia","lat":-5.860293484838563,"lng":144.22201355614447,"avgVisitMinutes":20,"estimatedCostEur":2,"score":3.8088587213941203},{"id":"mount-hagen_5709","citySlug":"mount-hagen","name":"Restaurante Típico de Mount Hagen","category":"gastronomia","lat":-5.85544591186176,"lng":144.23221150542483,"avgVisitMinutes":60,"estimatedCostEur":9,"score":2.5874447197995316},{"id":"mount-hagen_9365","citySlug":"mount-hagen","name":"Playa Norte","category":"playa","lat":-5.859839068376834,"lng":144.2294258040286,"avgVisitMinutes":50,"estimatedCostEur":25,"score":1.5647341278362532},{"id":"mount-hagen_5638","citySlug":"mount-hagen","name":"Restaurante Típico de Mount Hagen","category":"gastronomia","lat":-5.866655801999212,"lng":144.234756422269,"avgVisitMinutes":78,"estimatedCostEur":7,"score":1.3060730374456055},{"id":"mount-hagen_3455","citySlug":"mount-hagen","name":"Mirador de Mount Hagen","category":"mirador","lat":-5.85530255338972,"lng":144.2296283272259,"avgVisitMinutes":61,"estimatedCostEur":15,"score":1.9008688453628204},{"id":"mount-hagen_6194","citySlug":"mount-hagen","name":"Mirador de Mount Hagen","category":"mirador","lat":-5.84916405784523,"lng":144.23656000888678,"avgVisitMinutes":88,"estimatedCostEur":14,"score":3.9022909849966143},{"id":"mount-hagen_6862","citySlug":"mount-hagen","name":"Playa Norte","category":"playa","lat":-5.8670328730263925,"lng":144.23923906698636,"avgVisitMinutes":87,"estimatedCostEur":5,"score":1.9557646267674014},{"id":"mount-hagen_3229","citySlug":"mount-hagen","name":"Iglesia de Mount Hagen","category":"historia","lat":-5.860382943233302,"lng":144.23687696715393,"avgVisitMinutes":41,"estimatedCostEur":7,"score":4.659473066702546},{"id":"morehead_2017","citySlug":"morehead","name":"Playa Norte","category":"playa","lat":-8.712259042350539,"lng":141.6372696124072,"avgVisitMinutes":80,"estimatedCostEur":0,"score":3.1149702191429007},{"id":"morehead_9374","citySlug":"morehead","name":"Galería de Arte","category":"cultura","lat":-8.712157528462804,"lng":141.6405848254655,"avgVisitMinutes":67,"estimatedCostEur":9,"score":3.710575285572551},{"id":"morehead_3683","citySlug":"morehead","name":"Playa Central","category":"playa","lat":-8.715128593660923,"lng":141.6453186498306,"avgVisitMinutes":68,"estimatedCostEur":9,"score":2.4440047769769917},{"id":"morehead_8146","citySlug":"morehead","name":"Vista Alta de Morehead","category":"mirador","lat":-8.719589713058113,"lng":141.64137556799565,"avgVisitMinutes":22,"estimatedCostEur":22,"score":3.8763166078888736},{"id":"morehead_1474","citySlug":"morehead","name":"Playa Sur","category":"playa","lat":-8.711253248696998,"lng":141.63249266474148,"avgVisitMinutes":83,"estimatedCostEur":2,"score":1.6093918446172042},{"id":"morehead_1668","citySlug":"morehead","name":"Playa Sur","category":"playa","lat":-8.703510689191706,"lng":141.63379168589483,"avgVisitMinutes":31,"estimatedCostEur":10,"score":0.6096573112696402},{"id":"morehead_1928","citySlug":"morehead","name":"Mirador de Morehead","category":"mirador","lat":-8.717155634669568,"lng":141.63246087998564,"avgVisitMinutes":40,"estimatedCostEur":23,"score":0.5981119278014987},{"id":"mendi_5394","citySlug":"mendi","name":"Vista Alta de Mendi","category":"mirador","lat":-6.144026923279184,"lng":143.650147188471,"avgVisitMinutes":71,"estimatedCostEur":17,"score":2.302734902119539},{"id":"mendi_1118","citySlug":"mendi","name":"Mirador de Mendi","category":"mirador","lat":-6.14165114331234,"lng":143.664590735141,"avgVisitMinutes":84,"estimatedCostEur":14,"score":1.329879564585115},{"id":"mendi_8367","citySlug":"mendi","name":"Restaurante Típico de Mendi","category":"gastronomia","lat":-6.146793110244997,"lng":143.6595555161829,"avgVisitMinutes":57,"estimatedCostEur":1,"score":4.613325647505003},{"id":"mendi_4578","citySlug":"mendi","name":"Playa Sur","category":"playa","lat":-6.154592655949162,"lng":143.64790820514042,"avgVisitMinutes":25,"estimatedCostEur":10,"score":4.2849342547159175},{"id":"mendi_7855","citySlug":"mendi","name":"Centro de Arte de Mendi","category":"cultura","lat":-6.142309061442255,"lng":143.66078873597485,"avgVisitMinutes":23,"estimatedCostEur":14,"score":2.0051261738466843},{"id":"mendi_4719","citySlug":"mendi","name":"Playa Central","category":"playa","lat":-6.139403069233192,"lng":143.65234921509895,"avgVisitMinutes":40,"estimatedCostEur":16,"score":3.116654905992896},{"id":"mendi_3420","citySlug":"mendi","name":"Teatro Municipal","category":"cultura","lat":-6.144812583766618,"lng":143.65400007682777,"avgVisitMinutes":83,"estimatedCostEur":22,"score":2.4873868577195477},{"id":"mendi_7057","citySlug":"mendi","name":"Playa Norte","category":"playa","lat":-6.156459738792952,"lng":143.64999827945044,"avgVisitMinutes":55,"estimatedCostEur":19,"score":4.440897028202576},{"id":"mendi_2079","citySlug":"mendi","name":"Galería de Arte","category":"cultura","lat":-6.138670475834754,"lng":143.66409784889382,"avgVisitMinutes":83,"estimatedCostEur":6,"score":3.360240472218135},{"id":"mendi_8497","citySlug":"mendi","name":"Paseo Principal","category":"ocio","lat":-6.142513205744616,"lng":143.6549310827743,"avgVisitMinutes":66,"estimatedCostEur":13,"score":2.490429348795642},{"id":"mendi_8410","citySlug":"mendi","name":"Galería de Arte","category":"cultura","lat":-6.148289586967745,"lng":143.66528414262916,"avgVisitMinutes":57,"estimatedCostEur":0,"score":3.2423432065340485},{"id":"manumu_3606","citySlug":"manumu","name":"Mercado Gastronómico","category":"gastronomia","lat":-9.068439627003222,"lng":147.57646329494523,"avgVisitMinutes":70,"estimatedCostEur":7,"score":4.793420643183619},{"id":"manumu_2442","citySlug":"manumu","name":"Punto Panorámico","category":"mirador","lat":-9.063884006277203,"lng":147.5654080339775,"avgVisitMinutes":33,"estimatedCostEur":3,"score":3.675928011024753},{"id":"manumu_6013","citySlug":"manumu","name":"Playa Norte","category":"playa","lat":-9.06940117663367,"lng":147.57141844425018,"avgVisitMinutes":81,"estimatedCostEur":25,"score":3.978317551092255},{"id":"manumu_7838","citySlug":"manumu","name":"Murallas de Manumu","category":"historia","lat":-9.071863815453963,"lng":147.56575098201446,"avgVisitMinutes":49,"estimatedCostEur":20,"score":3.795683673693813},{"id":"manumu_5611","citySlug":"manumu","name":"Iglesia de Manumu","category":"historia","lat":-9.070764545274496,"lng":147.56120553683687,"avgVisitMinutes":71,"estimatedCostEur":14,"score":4.232228930919728},{"id":"manumu_6471","citySlug":"manumu","name":"Paseo Principal","category":"ocio","lat":-9.062352064837217,"lng":147.5764413972486,"avgVisitMinutes":63,"estimatedCostEur":10,"score":2.2513760588042233},{"id":"madang_4420","citySlug":"madang","name":"Mercado Gastronómico","category":"gastronomia","lat":-5.229532609726719,"lng":145.7846510938135,"avgVisitMinutes":54,"estimatedCostEur":0,"score":2.4564012802456694},{"id":"madang_4400","citySlug":"madang","name":"Mercado Gastronómico","category":"gastronomia","lat":-5.215192545939361,"lng":145.78601462359035,"avgVisitMinutes":44,"estimatedCostEur":24,"score":1.0969788254901651},{"id":"madang_7374","citySlug":"madang","name":"Playa Central","category":"playa","lat":-5.222419581906444,"lng":145.78480179298253,"avgVisitMinutes":24,"estimatedCostEur":0,"score":2.9178011681375655},{"id":"madang_9831","citySlug":"madang","name":"Playa Norte","category":"playa","lat":-5.213259077794589,"lng":145.78023591754172,"avgVisitMinutes":38,"estimatedCostEur":10,"score":1.3204119482053316},{"id":"madang_2038","citySlug":"madang","name":"Parque Central","category":"ocio","lat":-5.219958526779477,"lng":145.78442839179212,"avgVisitMinutes":28,"estimatedCostEur":4,"score":1.7077733523062624},{"id":"madang_8097","citySlug":"madang","name":"Mercado Gastronómico","category":"gastronomia","lat":-5.215540899712837,"lng":145.79472297468956,"avgVisitMinutes":52,"estimatedCostEur":7,"score":3.8065408132827763},{"id":"lorengau_5315","citySlug":"lorengau","name":"Paseo Principal","category":"ocio","lat":-2.0385560146890698,"lng":147.27093756456637,"avgVisitMinutes":62,"estimatedCostEur":9,"score":2.6699742017446813},{"id":"lorengau_5863","citySlug":"lorengau","name":"Ruta de Tapas","category":"gastronomia","lat":-2.0322725490281526,"lng":147.27345125894564,"avgVisitMinutes":46,"estimatedCostEur":5,"score":3.2511750363840415},{"id":"lorengau_2451","citySlug":"lorengau","name":"Punto Panorámico","category":"mirador","lat":-2.026461215700523,"lng":147.27654412181073,"avgVisitMinutes":60,"estimatedCostEur":1,"score":4.1153078693913425},{"id":"lorengau_1818","citySlug":"lorengau","name":"Museo Cultural de Lorengau","category":"cultura","lat":-2.0415921254424974,"lng":147.27611926322797,"avgVisitMinutes":54,"estimatedCostEur":10,"score":3.809294518270739},{"id":"lorengau_9204","citySlug":"lorengau","name":"Zona Comercial","category":"ocio","lat":-2.0403000600161376,"lng":147.2650353322729,"avgVisitMinutes":26,"estimatedCostEur":13,"score":3.325501706431521},{"id":"lorengau_4439","citySlug":"lorengau","name":"Parque Central","category":"ocio","lat":-2.0425796564192717,"lng":147.27611660452348,"avgVisitMinutes":77,"estimatedCostEur":5,"score":2.566115148181267},{"id":"londolovit_4339","citySlug":"londolovit","name":"Vista Alta de Londolovit","category":"mirador","lat":-3.060722934353047,"lng":152.64222144815338,"avgVisitMinutes":63,"estimatedCostEur":11,"score":2.11851667944408},{"id":"londolovit_3968","citySlug":"londolovit","name":"Mercado Gastronómico","category":"gastronomia","lat":-3.069150784461206,"lng":152.64625768451316,"avgVisitMinutes":57,"estimatedCostEur":9,"score":4.670743563043841},{"id":"londolovit_9490","citySlug":"londolovit","name":"Galería de Arte","category":"cultura","lat":-3.0687940098520516,"lng":152.63266674999554,"avgVisitMinutes":57,"estimatedCostEur":21,"score":2.054650429894287},{"id":"londolovit_1396","citySlug":"londolovit","name":"Mirador de Londolovit","category":"mirador","lat":-3.0767588978789284,"lng":152.64009047816552,"avgVisitMinutes":53,"estimatedCostEur":24,"score":4.143948475226846},{"id":"londolovit_3852","citySlug":"londolovit","name":"Mercado Gastronómico","category":"gastronomia","lat":-3.064466838037475,"lng":152.63788503789854,"avgVisitMinutes":69,"estimatedCostEur":23,"score":2.3147643768029815},{"id":"londolovit_4909","citySlug":"londolovit","name":"Teatro Municipal","category":"cultura","lat":-3.0724890733848884,"lng":152.62899720145424,"avgVisitMinutes":56,"estimatedCostEur":5,"score":2.0617786832991536},{"id":"londolovit_1102","citySlug":"londolovit","name":"Playa Norte","category":"playa","lat":-3.0762113173641796,"lng":152.63213200547224,"avgVisitMinutes":86,"estimatedCostEur":19,"score":3.956118810343882},{"id":"londolovit_4202","citySlug":"londolovit","name":"Mirador de Londolovit","category":"mirador","lat":-3.0592340519022163,"lng":152.6420865794364,"avgVisitMinutes":50,"estimatedCostEur":6,"score":1.9114100704826271},{"id":"londolovit_9300","citySlug":"londolovit","name":"Restaurante Típico de Londolovit","category":"gastronomia","lat":-3.0622009763529436,"lng":152.64483139272568,"avgVisitMinutes":90,"estimatedCostEur":22,"score":3.54155689335399},{"id":"londolovit_1324","citySlug":"londolovit","name":"Parque Central","category":"ocio","lat":-3.0618309584439833,"lng":152.64690729696272,"avgVisitMinutes":54,"estimatedCostEur":23,"score":2.1781580218806385},{"id":"londolovit_2178","citySlug":"londolovit","name":"Ruta de Tapas","category":"gastronomia","lat":-3.063171898771043,"lng":152.644058379974,"avgVisitMinutes":23,"estimatedCostEur":0,"score":3.0370779162275117},{"id":"laiagam_8236","citySlug":"laiagam","name":"Playa Norte","category":"playa","lat":-5.337709332688752,"lng":143.78379532115042,"avgVisitMinutes":66,"estimatedCostEur":9,"score":3.1252470434003583},{"id":"laiagam_5972","citySlug":"laiagam","name":"Mirador de Laiagam","category":"mirador","lat":-5.326248060772779,"lng":143.79263321490757,"avgVisitMinutes":51,"estimatedCostEur":2,"score":0.6338917368163116},{"id":"laiagam_9801","citySlug":"laiagam","name":"Centro de Arte de Laiagam","category":"cultura","lat":-5.337604517250774,"lng":143.78361484253736,"avgVisitMinutes":73,"estimatedCostEur":4,"score":3.298993276435843},{"id":"laiagam_3777","citySlug":"laiagam","name":"Museo Cultural de Laiagam","category":"cultura","lat":-5.324574345511941,"lng":143.78927800112157,"avgVisitMinutes":39,"estimatedCostEur":18,"score":2.8376452787618316},{"id":"laiagam_8634","citySlug":"laiagam","name":"Mirador de Laiagam","category":"mirador","lat":-5.322747987650123,"lng":143.79394172800738,"avgVisitMinutes":57,"estimatedCostEur":15,"score":2.522005677320501},{"id":"laiagam_7393","citySlug":"laiagam","name":"Playa Central","category":"playa","lat":-5.340840493903813,"lng":143.79760367425428,"avgVisitMinutes":55,"estimatedCostEur":15,"score":2.0192210454974076},{"id":"laiagam_3134","citySlug":"laiagam","name":"Punto Panorámico","category":"mirador","lat":-5.334324632782625,"lng":143.79202798778317,"avgVisitMinutes":73,"estimatedCostEur":15,"score":1.2053804834688346},{"id":"laiagam_4801","citySlug":"laiagam","name":"Mercado Gastronómico","category":"gastronomia","lat":-5.321879603774191,"lng":143.80032969459225,"avgVisitMinutes":70,"estimatedCostEur":20,"score":0.6375924797003767},{"id":"laiagam_9836","citySlug":"laiagam","name":"Mirador de Laiagam","category":"mirador","lat":-5.3215899139393015,"lng":143.78879008166243,"avgVisitMinutes":79,"estimatedCostEur":3,"score":3.051975586788606},{"id":"laiagam_7086","citySlug":"laiagam","name":"Playa Central","category":"playa","lat":-5.335635729465028,"lng":143.7806450723581,"avgVisitMinutes":55,"estimatedCostEur":3,"score":1.237072521703547},{"id":"lae_8333","citySlug":"lae","name":"Ruta de Tapas","category":"gastronomia","lat":-6.723217509577464,"lng":146.98858124686345,"avgVisitMinutes":76,"estimatedCostEur":15,"score":3.521664572317412},{"id":"lae_1512","citySlug":"lae","name":"Punto Panorámico","category":"mirador","lat":-6.719452814818458,"lng":146.9903150462703,"avgVisitMinutes":64,"estimatedCostEur":11,"score":2.032143839842678},{"id":"lae_5576","citySlug":"lae","name":"Teatro Municipal","category":"cultura","lat":-6.718617519055646,"lng":146.98877832626005,"avgVisitMinutes":24,"estimatedCostEur":18,"score":4.960589483395163},{"id":"lae_5897","citySlug":"lae","name":"Vista Alta de Lae","category":"mirador","lat":-6.71618600586919,"lng":147.00265075860364,"avgVisitMinutes":88,"estimatedCostEur":13,"score":1.3510632544832528},{"id":"lae_1977","citySlug":"lae","name":"Museo Cultural de Lae","category":"cultura","lat":-6.728612321658616,"lng":146.99700809019592,"avgVisitMinutes":44,"estimatedCostEur":9,"score":1.9672604425616482},{"id":"lae_4510","citySlug":"lae","name":"Playa Sur","category":"playa","lat":-6.7297968660076535,"lng":146.9865755911475,"avgVisitMinutes":49,"estimatedCostEur":10,"score":3.5547434252250643},{"id":"kundiawa_1641","citySlug":"kundiawa","name":"Teatro Municipal","category":"cultura","lat":-6.02526550214552,"lng":144.95944674759343,"avgVisitMinutes":87,"estimatedCostEur":9,"score":3.3990434446329902},{"id":"kundiawa_5209","citySlug":"kundiawa","name":"Paseo Principal","category":"ocio","lat":-6.01539678061427,"lng":144.9634303236136,"avgVisitMinutes":21,"estimatedCostEur":8,"score":4.9900004292672975},{"id":"kundiawa_5318","citySlug":"kundiawa","name":"Galería de Arte","category":"cultura","lat":-6.02322091361975,"lng":144.97689045902945,"avgVisitMinutes":58,"estimatedCostEur":12,"score":1.341445018668739},{"id":"kundiawa_6145","citySlug":"kundiawa","name":"Playa Sur","category":"playa","lat":-6.017468458867945,"lng":144.97274613301832,"avgVisitMinutes":27,"estimatedCostEur":10,"score":4.601227341650253},{"id":"kundiawa_2742","citySlug":"kundiawa","name":"Centro Histórico","category":"historia","lat":-6.027342063950715,"lng":144.96474930408004,"avgVisitMinutes":85,"estimatedCostEur":14,"score":0.6752102393578499},{"id":"kundiawa_1343","citySlug":"kundiawa","name":"Parque Central","category":"ocio","lat":-6.025956235568578,"lng":144.96826626280688,"avgVisitMinutes":40,"estimatedCostEur":7,"score":3.320507285533065},{"id":"kundiawa_8884","citySlug":"kundiawa","name":"Restaurante Típico de Kundiawa","category":"gastronomia","lat":-6.023399634949627,"lng":144.96440075365777,"avgVisitMinutes":28,"estimatedCostEur":7,"score":4.2281200620911},{"id":"kundiawa_5855","citySlug":"kundiawa","name":"Galería de Arte","category":"cultura","lat":-6.0170703423617375,"lng":144.97846796118657,"avgVisitMinutes":28,"estimatedCostEur":17,"score":4.312817384554362},{"id":"kundiawa_9277","citySlug":"kundiawa","name":"Ruta de Tapas","category":"gastronomia","lat":-6.014939238235647,"lng":144.97399582057523,"avgVisitMinutes":47,"estimatedCostEur":7,"score":4.876193159420134},{"id":"kundiawa_1095","citySlug":"kundiawa","name":"Playa Central","category":"playa","lat":-6.024537098102532,"lng":144.977479026144,"avgVisitMinutes":43,"estimatedCostEur":8,"score":2.45775001668803},{"id":"kulumadau_6945","citySlug":"kulumadau","name":"Galería de Arte","category":"cultura","lat":-9.091444498609345,"lng":152.72029670693206,"avgVisitMinutes":75,"estimatedCostEur":20,"score":1.6985249873467596},{"id":"kulumadau_7282","citySlug":"kulumadau","name":"Playa Norte","category":"playa","lat":-9.075313092452456,"lng":152.7091410153252,"avgVisitMinutes":73,"estimatedCostEur":11,"score":3.6287300590985434},{"id":"kulumadau_2804","citySlug":"kulumadau","name":"Playa Sur","category":"playa","lat":-9.075112200125538,"lng":152.71331989774285,"avgVisitMinutes":83,"estimatedCostEur":18,"score":3.5766217240795353},{"id":"kulumadau_3986","citySlug":"kulumadau","name":"Punto Panorámico","category":"mirador","lat":-9.086594212566125,"lng":152.71041466245416,"avgVisitMinutes":57,"estimatedCostEur":24,"score":0.5927150559008503},{"id":"kulumadau_7352","citySlug":"kulumadau","name":"Punto Panorámico","category":"mirador","lat":-9.085053036658524,"lng":152.71271818417216,"avgVisitMinutes":73,"estimatedCostEur":9,"score":1.7847594299759963},{"id":"kulumadau_5743","citySlug":"kulumadau","name":"Iglesia de Kulumadau","category":"historia","lat":-9.080433494371938,"lng":152.7164002760623,"avgVisitMinutes":26,"estimatedCostEur":0,"score":4.337877931698564},{"id":"kulumadau_2772","citySlug":"kulumadau","name":"Museo Local de Kulumadau","category":"historia","lat":-9.076427096321348,"lng":152.71471872550023,"avgVisitMinutes":31,"estimatedCostEur":9,"score":3.4188537778564174},{"id":"kulumadau_3385","citySlug":"kulumadau","name":"Mercado Gastronómico","category":"gastronomia","lat":-9.080111669621248,"lng":152.71625869078048,"avgVisitMinutes":24,"estimatedCostEur":18,"score":1.7324970997368223},{"id":"kulumadau_5894","citySlug":"kulumadau","name":"Centro de Arte de Kulumadau","category":"cultura","lat":-9.083180249533081,"lng":152.71712166181965,"avgVisitMinutes":67,"estimatedCostEur":2,"score":4.282622230554555},{"id":"kokopo_7178","citySlug":"kokopo","name":"Museo Local de Kokopo","category":"historia","lat":-4.351817328288991,"lng":152.2784189422645,"avgVisitMinutes":75,"estimatedCostEur":14,"score":3.199237005013731},{"id":"kokopo_2968","citySlug":"kokopo","name":"Centro de Arte de Kokopo","category":"cultura","lat":-4.340616247179534,"lng":152.27602992842108,"avgVisitMinutes":45,"estimatedCostEur":7,"score":2.768178717602319},{"id":"kokopo_4647","citySlug":"kokopo","name":"Parque Central","category":"ocio","lat":-4.335756418359146,"lng":152.26897701929994,"avgVisitMinutes":27,"estimatedCostEur":23,"score":3.5888611920541162},{"id":"kokopo_5091","citySlug":"kokopo","name":"Mirador de Kokopo","category":"mirador","lat":-4.347909935899244,"lng":152.2740824552265,"avgVisitMinutes":81,"estimatedCostEur":20,"score":3.538709360273455},{"id":"kokopo_7742","citySlug":"kokopo","name":"Zona Comercial","category":"ocio","lat":-4.333269265484001,"lng":152.27222032753727,"avgVisitMinutes":28,"estimatedCostEur":21,"score":4.8771149037428385},{"id":"kokopo_3120","citySlug":"kokopo","name":"Mercado Gastronómico","category":"gastronomia","lat":-4.3428800927429805,"lng":152.26584263689656,"avgVisitMinutes":28,"estimatedCostEur":22,"score":0.6504423352672364},{"id":"kokopo_2249","citySlug":"kokopo","name":"Parque Central","category":"ocio","lat":-4.3435957123534585,"lng":152.2734602174849,"avgVisitMinutes":59,"estimatedCostEur":14,"score":4.979641229355985},{"id":"kokopo_9936","citySlug":"kokopo","name":"Murallas de Kokopo","category":"historia","lat":-4.341486061834338,"lng":152.26861350186482,"avgVisitMinutes":61,"estimatedCostEur":19,"score":1.8256075260386226},{"id":"kokopo_4875","citySlug":"kokopo","name":"Museo Local de Kokopo","category":"historia","lat":-4.348141748081683,"lng":152.27575757499972,"avgVisitMinutes":78,"estimatedCostEur":6,"score":4.546738640242068},{"id":"kokoda_2081","citySlug":"kokoda","name":"Mercado Gastronómico","category":"gastronomia","lat":-8.87172868102985,"lng":147.72775407457814,"avgVisitMinutes":58,"estimatedCostEur":3,"score":1.9245428779102292},{"id":"kokoda_4208","citySlug":"kokoda","name":"Restaurante Típico de Kokoda","category":"gastronomia","lat":-8.887040036831493,"lng":147.72777886671994,"avgVisitMinutes":51,"estimatedCostEur":13,"score":0.7306750682841612},{"id":"kokoda_8436","citySlug":"kokoda","name":"Mirador de Kokoda","category":"mirador","lat":-8.880319365041606,"lng":147.7405534523371,"avgVisitMinutes":70,"estimatedCostEur":23,"score":3.9265377906287915},{"id":"kokoda_9325","citySlug":"kokoda","name":"Iglesia de Kokoda","category":"historia","lat":-8.881734779276496,"lng":147.7400395020337,"avgVisitMinutes":51,"estimatedCostEur":22,"score":0.8354883845580838},{"id":"kokoda_8226","citySlug":"kokoda","name":"Playa Central","category":"playa","lat":-8.868539142404657,"lng":147.73232002238436,"avgVisitMinutes":36,"estimatedCostEur":17,"score":1.2987654099759807},{"id":"kiunga_6132","citySlug":"kiunga","name":"Restaurante Típico de Kiunga","category":"gastronomia","lat":-6.131037785479576,"lng":141.29756838100866,"avgVisitMinutes":76,"estimatedCostEur":1,"score":3.0018427733638764},{"id":"kiunga_9085","citySlug":"kiunga","name":"Parque Central","category":"ocio","lat":-6.123188890568517,"lng":141.29173069485608,"avgVisitMinutes":87,"estimatedCostEur":0,"score":4.724276422608298},{"id":"kiunga_6392","citySlug":"kiunga","name":"Mercado Gastronómico","category":"gastronomia","lat":-6.130121590081384,"lng":141.29506749350918,"avgVisitMinutes":42,"estimatedCostEur":8,"score":2.4769880793959898},{"id":"kiunga_1419","citySlug":"kiunga","name":"Castillo de Kiunga","category":"historia","lat":-6.124122248867348,"lng":141.28637256885062,"avgVisitMinutes":63,"estimatedCostEur":20,"score":2.1455564339508912},{"id":"kiunga_4656","citySlug":"kiunga","name":"Playa Central","category":"playa","lat":-6.120350913638699,"lng":141.28894648864443,"avgVisitMinutes":59,"estimatedCostEur":15,"score":1.9486897970471302},{"id":"kiunga_2986","citySlug":"kiunga","name":"Centro Histórico","category":"historia","lat":-6.121866977556011,"lng":141.29482851534138,"avgVisitMinutes":32,"estimatedCostEur":12,"score":4.724984187146801},{"id":"kiunga_1918","citySlug":"kiunga","name":"Ruta de Tapas","category":"gastronomia","lat":-6.11635524143824,"lng":141.2969046303265,"avgVisitMinutes":22,"estimatedCostEur":10,"score":1.1228232918448786},{"id":"kimbe_5669","citySlug":"kimbe","name":"Vista Alta de Kimbe","category":"mirador","lat":-5.554574553954279,"lng":150.13491102888992,"avgVisitMinutes":62,"estimatedCostEur":24,"score":2.11504639539561},{"id":"kimbe_4408","citySlug":"kimbe","name":"Playa Norte","category":"playa","lat":-5.541765477398499,"lng":150.13569352316,"avgVisitMinutes":75,"estimatedCostEur":7,"score":2.540157832449122},{"id":"kimbe_9082","citySlug":"kimbe","name":"Museo Cultural de Kimbe","category":"cultura","lat":-5.544861928508915,"lng":150.13248561268782,"avgVisitMinutes":70,"estimatedCostEur":1,"score":3.7488085672214577},{"id":"kimbe_1838","citySlug":"kimbe","name":"Teatro Municipal","category":"cultura","lat":-5.541182210830874,"lng":150.13920933243918,"avgVisitMinutes":65,"estimatedCostEur":21,"score":3.310447885314524},{"id":"kimbe_9310","citySlug":"kimbe","name":"Parque Central","category":"ocio","lat":-5.5485889866648215,"lng":150.14152304442854,"avgVisitMinutes":69,"estimatedCostEur":25,"score":2.472644803060091},{"id":"kimbe_8988","citySlug":"kimbe","name":"Playa Central","category":"playa","lat":-5.551138112225224,"lng":150.12817890163817,"avgVisitMinutes":83,"estimatedCostEur":22,"score":3.6893259182830267},{"id":"kimbe_3167","citySlug":"kimbe","name":"Paseo Principal","category":"ocio","lat":-5.553649236270675,"lng":150.12917608757797,"avgVisitMinutes":62,"estimatedCostEur":2,"score":1.796543140047056},{"id":"kimbe_4704","citySlug":"kimbe","name":"Playa Sur","category":"playa","lat":-5.5466991715219445,"lng":150.1369319691981,"avgVisitMinutes":60,"estimatedCostEur":6,"score":2.468468540886609},{"id":"kieta_9679","citySlug":"kieta","name":"Centro Histórico","category":"historia","lat":-6.205056392295074,"lng":155.63553503147392,"avgVisitMinutes":56,"estimatedCostEur":25,"score":0.5237613000919215},{"id":"kieta_5684","citySlug":"kieta","name":"Iglesia de Kieta","category":"historia","lat":-6.218900759267997,"lng":155.63089129758615,"avgVisitMinutes":56,"estimatedCostEur":20,"score":1.3590561506521779},{"id":"kieta_9066","citySlug":"kieta","name":"Playa Norte","category":"playa","lat":-6.218585240284486,"lng":155.63398451773296,"avgVisitMinutes":55,"estimatedCostEur":21,"score":4.808743730680703},{"id":"kieta_7166","citySlug":"kieta","name":"Parque Central","category":"ocio","lat":-6.205354033926135,"lng":155.63098291218682,"avgVisitMinutes":51,"estimatedCostEur":9,"score":0.5702001710089717},{"id":"kieta_6800","citySlug":"kieta","name":"Punto Panorámico","category":"mirador","lat":-6.209141614663634,"lng":155.63414301784232,"avgVisitMinutes":64,"estimatedCostEur":3,"score":4.26280760725929},{"id":"kieta_9125","citySlug":"kieta","name":"Playa Norte","category":"playa","lat":-6.206741761910717,"lng":155.6228756458771,"avgVisitMinutes":50,"estimatedCostEur":24,"score":3.012596551828109},{"id":"kieta_8209","citySlug":"kieta","name":"Teatro Municipal","category":"cultura","lat":-6.207129201210375,"lng":155.62522106013802,"avgVisitMinutes":47,"estimatedCostEur":1,"score":3.24436037620367},{"id":"kieta_1923","citySlug":"kieta","name":"Mercado Gastronómico","category":"gastronomia","lat":-6.205016022316375,"lng":155.6330618894723,"avgVisitMinutes":90,"estimatedCostEur":5,"score":2.681252150260542},{"id":"kieta_2459","citySlug":"kieta","name":"Murallas de Kieta","category":"historia","lat":-6.216606722732862,"lng":155.64022018528445,"avgVisitMinutes":20,"estimatedCostEur":9,"score":2.54758253336227},{"id":"kieta_1971","citySlug":"kieta","name":"Mercado Gastronómico","category":"gastronomia","lat":-6.2089111653720455,"lng":155.62456793645347,"avgVisitMinutes":75,"estimatedCostEur":21,"score":2.5725924817078094},{"id":"kieta_6150","citySlug":"kieta","name":"Playa Norte","category":"playa","lat":-6.20527412231119,"lng":155.63941712657189,"avgVisitMinutes":64,"estimatedCostEur":21,"score":1.6464300050138823},{"id":"kerema_9476","citySlug":"kerema","name":"Iglesia de Kerema","category":"historia","lat":-7.964324793070347,"lng":145.78236753546284,"avgVisitMinutes":66,"estimatedCostEur":14,"score":1.1586355971162623},{"id":"kerema_7987","citySlug":"kerema","name":"Zona Comercial","category":"ocio","lat":-7.960852149690052,"lng":145.777479176163,"avgVisitMinutes":37,"estimatedCostEur":22,"score":2.8747331060281267},{"id":"kerema_4062","citySlug":"kerema","name":"Playa Norte","category":"playa","lat":-7.9576105236120345,"lng":145.76534289622217,"avgVisitMinutes":72,"estimatedCostEur":14,"score":2.0163884731605113},{"id":"kerema_4560","citySlug":"kerema","name":"Mercado Gastronómico","category":"gastronomia","lat":-7.96180883642423,"lng":145.78017687351064,"avgVisitMinutes":27,"estimatedCostEur":9,"score":3.808104871827635},{"id":"kerema_9010","citySlug":"kerema","name":"Museo Cultural de Kerema","category":"cultura","lat":-7.961635351213676,"lng":145.77416114483378,"avgVisitMinutes":64,"estimatedCostEur":21,"score":1.3646264018524499},{"id":"kerema_1228","citySlug":"kerema","name":"Teatro Municipal","category":"cultura","lat":-7.96965763142921,"lng":145.76664601329864,"avgVisitMinutes":24,"estimatedCostEur":4,"score":1.8703589521891595},{"id":"kerema_7261","citySlug":"kerema","name":"Parque Central","category":"ocio","lat":-7.966915061722324,"lng":145.7629610924046,"avgVisitMinutes":42,"estimatedCostEur":6,"score":3.182024114416207},{"id":"kerema_5002","citySlug":"kerema","name":"Playa Norte","category":"playa","lat":-7.965985966206565,"lng":145.76676297485443,"avgVisitMinutes":50,"estimatedCostEur":0,"score":1.459723507093623},{"id":"kavieng_9280","citySlug":"kavieng","name":"Zona Comercial","category":"ocio","lat":-2.5638467456988527,"lng":150.7889962453441,"avgVisitMinutes":46,"estimatedCostEur":1,"score":3.4423416133293894},{"id":"kavieng_2657","citySlug":"kavieng","name":"Teatro Municipal","category":"cultura","lat":-2.5649843337835416,"lng":150.8029641172938,"avgVisitMinutes":66,"estimatedCostEur":21,"score":3.3613997149081176},{"id":"kavieng_2315","citySlug":"kavieng","name":"Playa Central","category":"playa","lat":-2.5806146056325567,"lng":150.79829146400473,"avgVisitMinutes":60,"estimatedCostEur":3,"score":4.539934183381602},{"id":"kavieng_3953","citySlug":"kavieng","name":"Vista Alta de Kavieng","category":"mirador","lat":-2.5798565800066275,"lng":150.79026141219785,"avgVisitMinutes":29,"estimatedCostEur":6,"score":1.6516675191475305},{"id":"kavieng_1120","citySlug":"kavieng","name":"Vista Alta de Kavieng","category":"mirador","lat":-2.5718502580860685,"lng":150.8048432042439,"avgVisitMinutes":47,"estimatedCostEur":22,"score":2.8982445815966713},{"id":"kavieng_9318","citySlug":"kavieng","name":"Museo Local de Kavieng","category":"historia","lat":-2.565691807242898,"lng":150.79083004306315,"avgVisitMinutes":84,"estimatedCostEur":25,"score":2.4817771415262735},{"id":"kandrian_5825","citySlug":"kandrian","name":"Centro Histórico","category":"historia","lat":-6.207109444357809,"lng":149.54977217206633,"avgVisitMinutes":62,"estimatedCostEur":0,"score":2.193685389902913},{"id":"kandrian_1723","citySlug":"kandrian","name":"Paseo Principal","category":"ocio","lat":-6.198800422745972,"lng":149.55741495232837,"avgVisitMinutes":67,"estimatedCostEur":14,"score":3.840056713099766},{"id":"kandrian_6961","citySlug":"kandrian","name":"Ruta de Tapas","category":"gastronomia","lat":-6.2162880082871945,"lng":149.5426720573233,"avgVisitMinutes":25,"estimatedCostEur":7,"score":4.168319235911939},{"id":"kandrian_9601","citySlug":"kandrian","name":"Ruta de Tapas","category":"gastronomia","lat":-6.212679145110891,"lng":149.5514103618248,"avgVisitMinutes":69,"estimatedCostEur":8,"score":4.740269484683509},{"id":"kandrian_9134","citySlug":"kandrian","name":"Mirador de Kandrian","category":"mirador","lat":-6.215858471173289,"lng":149.55412174240152,"avgVisitMinutes":54,"estimatedCostEur":2,"score":0.6265418152181399},{"id":"kandrian_6336","citySlug":"kandrian","name":"Restaurante Típico de Kandrian","category":"gastronomia","lat":-6.1994326260443176,"lng":149.555606960408,"avgVisitMinutes":61,"estimatedCostEur":1,"score":1.8480132126467987},{"id":"kainantu_5312","citySlug":"kainantu","name":"Castillo de Kainantu","category":"historia","lat":-6.293550440799158,"lng":145.86267448666158,"avgVisitMinutes":30,"estimatedCostEur":9,"score":4.560418096605289},{"id":"kainantu_8759","citySlug":"kainantu","name":"Zona Comercial","category":"ocio","lat":-6.283192848333381,"lng":145.87382321155104,"avgVisitMinutes":60,"estimatedCostEur":5,"score":4.974070082235008},{"id":"kainantu_4752","citySlug":"kainantu","name":"Mirador de Kainantu","category":"mirador","lat":-6.292172210393142,"lng":145.86347365297988,"avgVisitMinutes":62,"estimatedCostEur":14,"score":4.842543980859878},{"id":"kainantu_2342","citySlug":"kainantu","name":"Murallas de Kainantu","category":"historia","lat":-6.297309252855619,"lng":145.85756346423543,"avgVisitMinutes":68,"estimatedCostEur":5,"score":4.950989770394084},{"id":"kainantu_7189","citySlug":"kainantu","name":"Punto Panorámico","category":"mirador","lat":-6.278847090467791,"lng":145.87209439256372,"avgVisitMinutes":90,"estimatedCostEur":3,"score":1.0538881744236566},{"id":"kainantu_3444","citySlug":"kainantu","name":"Castillo de Kainantu","category":"historia","lat":-6.29348059432776,"lng":145.8566441135797,"avgVisitMinutes":57,"estimatedCostEur":3,"score":0.9013172365986795},{"id":"kainantu_2818","citySlug":"kainantu","name":"Teatro Municipal","category":"cultura","lat":-6.286813254940489,"lng":145.8727654774795,"avgVisitMinutes":68,"estimatedCostEur":14,"score":3.0015047026353914},{"id":"kainantu_3476","citySlug":"kainantu","name":"Playa Sur","category":"playa","lat":-6.2962947183528195,"lng":145.86459054825136,"avgVisitMinutes":59,"estimatedCostEur":24,"score":3.080548895533658},{"id":"kainantu_2644","citySlug":"kainantu","name":"Galería de Arte","category":"cultura","lat":-6.282743286718812,"lng":145.8745705774452,"avgVisitMinutes":34,"estimatedCostEur":2,"score":1.982158767628094},{"id":"kainantu_8230","citySlug":"kainantu","name":"Punto Panorámico","category":"mirador","lat":-6.285092692594828,"lng":145.87293482292256,"avgVisitMinutes":38,"estimatedCostEur":19,"score":4.817476953095299},{"id":"ialibu_3648","citySlug":"ialibu","name":"Teatro Municipal","category":"cultura","lat":-6.287986675754621,"lng":144.00054379541106,"avgVisitMinutes":24,"estimatedCostEur":16,"score":0.545005187455741},{"id":"ialibu_1460","citySlug":"ialibu","name":"Centro Histórico","category":"historia","lat":-6.276030509437569,"lng":143.98744117877814,"avgVisitMinutes":62,"estimatedCostEur":9,"score":0.7987620958444908},{"id":"ialibu_5603","citySlug":"ialibu","name":"Museo Cultural de Ialibu","category":"cultura","lat":-6.289618456131297,"lng":143.98785034860356,"avgVisitMinutes":38,"estimatedCostEur":2,"score":1.216345308929187},{"id":"ialibu_4680","citySlug":"ialibu","name":"Mirador de Ialibu","category":"mirador","lat":-6.287909957468792,"lng":143.9852543153974,"avgVisitMinutes":37,"estimatedCostEur":13,"score":2.265082995376373},{"id":"ialibu_6314","citySlug":"ialibu","name":"Parque Central","category":"ocio","lat":-6.272249949836316,"lng":143.9935749124553,"avgVisitMinutes":23,"estimatedCostEur":19,"score":2.570445343297719},{"id":"ialibu_1375","citySlug":"ialibu","name":"Punto Panorámico","category":"mirador","lat":-6.272463363695621,"lng":143.99927604032064,"avgVisitMinutes":57,"estimatedCostEur":15,"score":4.74559551766248},{"id":"ialibu_9945","citySlug":"ialibu","name":"Playa Central","category":"playa","lat":-6.2726640443813935,"lng":144.00261565362464,"avgVisitMinutes":51,"estimatedCostEur":18,"score":0.5940060417341633},{"id":"ialibu_1332","citySlug":"ialibu","name":"Zona Comercial","category":"ocio","lat":-6.287908458023586,"lng":143.9964383657867,"avgVisitMinutes":44,"estimatedCostEur":24,"score":1.8209006285027738},{"id":"goroka_1501","citySlug":"goroka","name":"Playa Norte","category":"playa","lat":-6.086932214636406,"lng":145.39638673184166,"avgVisitMinutes":30,"estimatedCostEur":1,"score":4.80916891507066},{"id":"goroka_1934","citySlug":"goroka","name":"Paseo Principal","category":"ocio","lat":-6.09484171558437,"lng":145.37836621154878,"avgVisitMinutes":70,"estimatedCostEur":16,"score":3.2594375730510228},{"id":"goroka_6201","citySlug":"goroka","name":"Centro de Arte de Goroka","category":"cultura","lat":-6.076998953108525,"lng":145.3961885653234,"avgVisitMinutes":72,"estimatedCostEur":20,"score":2.121181600713542},{"id":"goroka_3924","citySlug":"goroka","name":"Ruta de Tapas","category":"gastronomia","lat":-6.0828561759674855,"lng":145.38927060394974,"avgVisitMinutes":76,"estimatedCostEur":6,"score":3.7258961004961604},{"id":"goroka_3603","citySlug":"goroka","name":"Museo Cultural de Goroka","category":"cultura","lat":-6.0875632418877235,"lng":145.38903507022087,"avgVisitMinutes":54,"estimatedCostEur":25,"score":1.6812779008853949},{"id":"goroka_7848","citySlug":"goroka","name":"Zona Comercial","category":"ocio","lat":-6.081626028667172,"lng":145.38862044051515,"avgVisitMinutes":63,"estimatedCostEur":2,"score":3.521849935358114},{"id":"goroka_5093","citySlug":"goroka","name":"Vista Alta de Goroka","category":"mirador","lat":-6.086271647683121,"lng":145.39367813114202,"avgVisitMinutes":67,"estimatedCostEur":22,"score":0.7407977120382347},{"id":"goroka_4608","citySlug":"goroka","name":"Castillo de Goroka","category":"historia","lat":-6.084830112764549,"lng":145.3819793610728,"avgVisitMinutes":26,"estimatedCostEur":22,"score":1.3269047256176891},{"id":"goroka_4155","citySlug":"goroka","name":"Mercado Gastronómico","category":"gastronomia","lat":-6.082705228288447,"lng":145.38686456445882,"avgVisitMinutes":33,"estimatedCostEur":22,"score":4.956716392472391},{"id":"goroka_2136","citySlug":"goroka","name":"Paseo Principal","category":"ocio","lat":-6.084990309333048,"lng":145.3879895937592,"avgVisitMinutes":59,"estimatedCostEur":1,"score":4.58384918490948},{"id":"goroka_7270","citySlug":"goroka","name":"Ruta de Tapas","category":"gastronomia","lat":-6.0899089521312275,"lng":145.38203855502707,"avgVisitMinutes":51,"estimatedCostEur":12,"score":1.3607936579242128},{"id":"goroka_4798","citySlug":"goroka","name":"Iglesia de Goroka","category":"historia","lat":-6.0916882614213925,"lng":145.37722515110156,"avgVisitMinutes":34,"estimatedCostEur":7,"score":3.2681053108318894},{"id":"finschhafen_9180","citySlug":"finschhafen","name":"Mirador de Finschhafen","category":"mirador","lat":-6.607679970047805,"lng":147.84073455248884,"avgVisitMinutes":71,"estimatedCostEur":18,"score":3.2659050760695996},{"id":"finschhafen_7194","citySlug":"finschhafen","name":"Teatro Municipal","category":"cultura","lat":-6.612743564592325,"lng":147.83990056545213,"avgVisitMinutes":36,"estimatedCostEur":24,"score":2.5738422330528907},{"id":"finschhafen_2434","citySlug":"finschhafen","name":"Restaurante Típico de Finschhafen","category":"gastronomia","lat":-6.6126137183686895,"lng":147.85439370635098,"avgVisitMinutes":26,"estimatedCostEur":14,"score":2.221060292689118},{"id":"finschhafen_9138","citySlug":"finschhafen","name":"Punto Panorámico","category":"mirador","lat":-6.599939720341712,"lng":147.85204557303146,"avgVisitMinutes":57,"estimatedCostEur":14,"score":2.214081446232929},{"id":"finschhafen_8292","citySlug":"finschhafen","name":"Punto Panorámico","category":"mirador","lat":-6.605956208683892,"lng":147.8382128095018,"avgVisitMinutes":42,"estimatedCostEur":21,"score":3.0254611855524285},{"id":"finschhafen_8811","citySlug":"finschhafen","name":"Playa Sur","category":"playa","lat":-6.60475400068748,"lng":147.85237709873593,"avgVisitMinutes":83,"estimatedCostEur":11,"score":2.425977884535338},{"id":"finschhafen_4407","citySlug":"finschhafen","name":"Mercado Gastronómico","category":"gastronomia","lat":-6.612353299050458,"lng":147.8439102384208,"avgVisitMinutes":67,"estimatedCostEur":13,"score":1.3248112972998505},{"id":"finschhafen_5066","citySlug":"finschhafen","name":"Vista Alta de Finschhafen","category":"mirador","lat":-6.612102139505441,"lng":147.8539562925264,"avgVisitMinutes":24,"estimatedCostEur":18,"score":2.0200655932350817},{"id":"finschhafen_7024","citySlug":"finschhafen","name":"Galería de Arte","category":"cultura","lat":-6.595957943603277,"lng":147.843356106558,"avgVisitMinutes":65,"estimatedCostEur":1,"score":4.628424759922561},{"id":"finschhafen_5302","citySlug":"finschhafen","name":"Playa Norte","category":"playa","lat":-6.60803023255825,"lng":147.84520860863137,"avgVisitMinutes":68,"estimatedCostEur":4,"score":3.695596443642056},{"id":"finschhafen_3844","citySlug":"finschhafen","name":"Mercado Gastronómico","category":"gastronomia","lat":-6.603105877396609,"lng":147.85473656372696,"avgVisitMinutes":48,"estimatedCostEur":22,"score":1.078029611135146},{"id":"finschhafen_4331","citySlug":"finschhafen","name":"Galería de Arte","category":"cultura","lat":-6.609728964004103,"lng":147.84648880861366,"avgVisitMinutes":26,"estimatedCostEur":21,"score":3.926628308106258},{"id":"daru_9351","citySlug":"daru","name":"Paseo Principal","category":"ocio","lat":-9.077626468318526,"lng":143.20587878303385,"avgVisitMinutes":31,"estimatedCostEur":4,"score":4.025406056970293},{"id":"daru_8595","citySlug":"daru","name":"Punto Panorámico","category":"mirador","lat":-9.075512431044144,"lng":143.21672021027655,"avgVisitMinutes":26,"estimatedCostEur":13,"score":2.3163291133504917},{"id":"daru_3156","citySlug":"daru","name":"Playa Central","category":"playa","lat":-9.075200273842935,"lng":143.2083719212029,"avgVisitMinutes":77,"estimatedCostEur":0,"score":1.9223827958019548},{"id":"daru_9756","citySlug":"daru","name":"Ruta de Tapas","category":"gastronomia","lat":-9.068289135081276,"lng":143.2051788611286,"avgVisitMinutes":33,"estimatedCostEur":19,"score":1.166436093523773},{"id":"daru_7391","citySlug":"daru","name":"Murallas de Daru","category":"historia","lat":-9.079153894590513,"lng":143.21656463146454,"avgVisitMinutes":88,"estimatedCostEur":6,"score":2.483178302859251},{"id":"daru_1061","citySlug":"daru","name":"Murallas de Daru","category":"historia","lat":-9.079181132750115,"lng":143.21019061554833,"avgVisitMinutes":41,"estimatedCostEur":11,"score":0.7580556251262742},{"id":"daru_8963","citySlug":"daru","name":"Parque Central","category":"ocio","lat":-9.082405999439302,"lng":143.21189532430756,"avgVisitMinutes":46,"estimatedCostEur":9,"score":0.5314777443128603},{"id":"daru_5125","citySlug":"daru","name":"Zona Comercial","category":"ocio","lat":-9.07396171925315,"lng":143.21508368407825,"avgVisitMinutes":52,"estimatedCostEur":2,"score":3.508595457427104},{"id":"bulolo_9519","citySlug":"bulolo","name":"Parque Central","category":"ocio","lat":-7.202913338100835,"lng":146.6345125202495,"avgVisitMinutes":36,"estimatedCostEur":17,"score":2.579439061684057},{"id":"bulolo_1896","citySlug":"bulolo","name":"Playa Norte","category":"playa","lat":-7.206926446449192,"lng":146.6345320685035,"avgVisitMinutes":64,"estimatedCostEur":8,"score":3.3857698613403935},{"id":"bulolo_8399","citySlug":"bulolo","name":"Playa Norte","category":"playa","lat":-7.204434824841672,"lng":146.63923257747552,"avgVisitMinutes":22,"estimatedCostEur":7,"score":0.6521635984530276},{"id":"bulolo_7238","citySlug":"bulolo","name":"Museo Local de Bulolo","category":"historia","lat":-7.198781451923913,"lng":146.63129638304764,"avgVisitMinutes":30,"estimatedCostEur":8,"score":4.804208696242143},{"id":"bulolo_7815","citySlug":"bulolo","name":"Playa Norte","category":"playa","lat":-7.199773490444681,"lng":146.63488474554163,"avgVisitMinutes":60,"estimatedCostEur":25,"score":4.845756461819788},{"id":"bulolo_8121","citySlug":"bulolo","name":"Mirador de Bulolo","category":"mirador","lat":-7.21239417850409,"lng":146.64068048769647,"avgVisitMinutes":88,"estimatedCostEur":19,"score":3.2143016508709006},{"id":"bulolo_2928","citySlug":"bulolo","name":"Punto Panorámico","category":"mirador","lat":-7.196242558483171,"lng":146.63692655604285,"avgVisitMinutes":62,"estimatedCostEur":16,"score":4.931525379903258},{"id":"buin_3397","citySlug":"buin","name":"Centro Histórico","category":"historia","lat":-6.7566863694592705,"lng":155.68733145603136,"avgVisitMinutes":35,"estimatedCostEur":22,"score":3.0164501452430423},{"id":"buin_1068","citySlug":"buin","name":"Punto Panorámico","category":"mirador","lat":-6.751802706525988,"lng":155.6895106757279,"avgVisitMinutes":88,"estimatedCostEur":4,"score":2.2438767168470672},{"id":"buin_5908","citySlug":"buin","name":"Centro de Arte de Buin","category":"cultura","lat":-6.746534679332951,"lng":155.6819942741237,"avgVisitMinutes":56,"estimatedCostEur":20,"score":2.2038789539252854},{"id":"buin_1613","citySlug":"buin","name":"Galería de Arte","category":"cultura","lat":-6.750819112080918,"lng":155.69132619442627,"avgVisitMinutes":24,"estimatedCostEur":7,"score":3.8517850417098662},{"id":"buin_1187","citySlug":"buin","name":"Iglesia de Buin","category":"historia","lat":-6.755824982923948,"lng":155.69747954681046,"avgVisitMinutes":54,"estimatedCostEur":15,"score":2.100061830141825},{"id":"buin_6115","citySlug":"buin","name":"Iglesia de Buin","category":"historia","lat":-6.74860231507499,"lng":155.6981457849138,"avgVisitMinutes":86,"estimatedCostEur":10,"score":2.1766757204554565},{"id":"buin_3435","citySlug":"buin","name":"Ruta de Tapas","category":"gastronomia","lat":-6.749497212377129,"lng":155.6962372495001,"avgVisitMinutes":50,"estimatedCostEur":12,"score":0.8866040658973026},{"id":"buin_6845","citySlug":"buin","name":"Museo Cultural de Buin","category":"cultura","lat":-6.7455998391541145,"lng":155.68479284315336,"avgVisitMinutes":77,"estimatedCostEur":12,"score":2.3012434963280075},{"id":"buin_1148","citySlug":"buin","name":"Ruta de Tapas","category":"gastronomia","lat":-6.745898519364362,"lng":155.69846900675043,"avgVisitMinutes":73,"estimatedCostEur":19,"score":1.690381564577083},{"id":"bereina_2504","citySlug":"bereina","name":"Museo Local de Bereina","category":"historia","lat":-8.62572018220993,"lng":146.4992406333024,"avgVisitMinutes":46,"estimatedCostEur":7,"score":3.3025815369530873},{"id":"bereina_2387","citySlug":"bereina","name":"Zona Comercial","category":"ocio","lat":-8.631783134753759,"lng":146.5047128128589,"avgVisitMinutes":23,"estimatedCostEur":23,"score":2.0326924727806897},{"id":"bereina_9690","citySlug":"bereina","name":"Museo Cultural de Bereina","category":"cultura","lat":-8.638368103848094,"lng":146.50649473151492,"avgVisitMinutes":85,"estimatedCostEur":21,"score":0.7889333060947268},{"id":"bereina_9789","citySlug":"bereina","name":"Parque Central","category":"ocio","lat":-8.641317909263103,"lng":146.51583634219074,"avgVisitMinutes":78,"estimatedCostEur":16,"score":3.526246163664149},{"id":"bereina_3223","citySlug":"bereina","name":"Playa Central","category":"playa","lat":-8.62211000984539,"lng":146.50129312008357,"avgVisitMinutes":87,"estimatedCostEur":19,"score":4.654388145074916},{"id":"bereina_6108","citySlug":"bereina","name":"Restaurante Típico de Bereina","category":"gastronomia","lat":-8.640742004036255,"lng":146.49870960114905,"avgVisitMinutes":59,"estimatedCostEur":2,"score":2.3341373793651834},{"id":"arawa_1086","citySlug":"arawa","name":"Punto Panorámico","category":"mirador","lat":-6.230312977222653,"lng":155.5717649694933,"avgVisitMinutes":42,"estimatedCostEur":20,"score":0.9935147216612021},{"id":"arawa_1567","citySlug":"arawa","name":"Galería de Arte","category":"cultura","lat":-6.221624329508052,"lng":155.56017754780697,"avgVisitMinutes":85,"estimatedCostEur":1,"score":2.9972540744981493},{"id":"arawa_8679","citySlug":"arawa","name":"Mercado Gastronómico","category":"gastronomia","lat":-6.219841471937117,"lng":155.56690489346198,"avgVisitMinutes":62,"estimatedCostEur":5,"score":0.6292039097664153},{"id":"arawa_5487","citySlug":"arawa","name":"Ruta de Tapas","category":"gastronomia","lat":-6.234003588889077,"lng":155.56947475279145,"avgVisitMinutes":24,"estimatedCostEur":16,"score":3.1199587442663583},{"id":"arawa_2164","citySlug":"arawa","name":"Punto Panorámico","category":"mirador","lat":-6.2226839740689,"lng":155.56312978606277,"avgVisitMinutes":34,"estimatedCostEur":5,"score":4.622227245267011},{"id":"arawa_9548","citySlug":"arawa","name":"Iglesia de Arawa","category":"historia","lat":-6.223629921675737,"lng":155.55993572174683,"avgVisitMinutes":55,"estimatedCostEur":23,"score":4.56986302773192},{"id":"arawa_9018","citySlug":"arawa","name":"Playa Central","category":"playa","lat":-6.229502647432258,"lng":155.56331388293688,"avgVisitMinutes":71,"estimatedCostEur":1,"score":0.9968838131190932},{"id":"arawa_8729","citySlug":"arawa","name":"Murallas de Arawa","category":"historia","lat":-6.231211045865687,"lng":155.57579422234843,"avgVisitMinutes":82,"estimatedCostEur":3,"score":1.3295252570784133},{"id":"arawa_9445","citySlug":"arawa","name":"Playa Sur","category":"playa","lat":-6.229040226364269,"lng":155.57015812216704,"avgVisitMinutes":55,"estimatedCostEur":18,"score":1.9148528816720158},{"id":"ambunti_3007","citySlug":"ambunti","name":"Mercado Gastronómico","category":"gastronomia","lat":-4.208308376728705,"lng":142.82216617987564,"avgVisitMinutes":49,"estimatedCostEur":8,"score":4.106220711918777},{"id":"ambunti_5415","citySlug":"ambunti","name":"Punto Panorámico","category":"mirador","lat":-4.208283609530789,"lng":142.8109695944582,"avgVisitMinutes":76,"estimatedCostEur":8,"score":4.974876267689013},{"id":"ambunti_4285","citySlug":"ambunti","name":"Iglesia de Ambunti","category":"historia","lat":-4.212191188719623,"lng":142.81506894217608,"avgVisitMinutes":59,"estimatedCostEur":0,"score":3.6750544142638617},{"id":"ambunti_2253","citySlug":"ambunti","name":"Centro de Arte de Ambunti","category":"cultura","lat":-4.210876498027342,"lng":142.81116136023047,"avgVisitMinutes":71,"estimatedCostEur":9,"score":3.7940896824305024},{"id":"ambunti_8761","citySlug":"ambunti","name":"Restaurante Típico de Ambunti","category":"gastronomia","lat":-4.22567319022106,"lng":142.81197896011128,"avgVisitMinutes":49,"estimatedCostEur":5,"score":2.3324729650428235},{"id":"ambunti_8432","citySlug":"ambunti","name":"Paseo Principal","category":"ocio","lat":-4.219596885421008,"lng":142.81601480161163,"avgVisitMinutes":85,"estimatedCostEur":14,"score":3.983417976846461},{"id":"aitape_6997","citySlug":"aitape","name":"Playa Central","category":"playa","lat":-3.143610552231613,"lng":142.34639125229896,"avgVisitMinutes":37,"estimatedCostEur":0,"score":2.966861601050398},{"id":"aitape_7458","citySlug":"aitape","name":"Mirador de Aitape","category":"mirador","lat":-3.138103100811956,"lng":142.345804222816,"avgVisitMinutes":27,"estimatedCostEur":20,"score":4.500593810627242},{"id":"aitape_7644","citySlug":"aitape","name":"Centro Histórico","category":"historia","lat":-3.1331907911513337,"lng":142.35230278463317,"avgVisitMinutes":46,"estimatedCostEur":8,"score":2.182409285164163},{"id":"aitape_7404","citySlug":"aitape","name":"Mirador de Aitape","category":"mirador","lat":-3.1295836096106124,"lng":142.34620144942883,"avgVisitMinutes":87,"estimatedCostEur":18,"score":0.6008355410161785},{"id":"aitape_2282","citySlug":"aitape","name":"Vista Alta de Aitape","category":"mirador","lat":-3.129335963542679,"lng":142.35181473952932,"avgVisitMinutes":63,"estimatedCostEur":5,"score":2.4178490118071236},{"id":"samarai_1579","citySlug":"samarai","name":"Centro de Arte de Samarai","category":"cultura","lat":-10.618603979606188,"lng":150.65891258742488,"avgVisitMinutes":23,"estimatedCostEur":25,"score":3.703358016355399},{"id":"samarai_1068","citySlug":"samarai","name":"Galería de Arte","category":"cultura","lat":-10.607451845448418,"lng":150.65587791513363,"avgVisitMinutes":49,"estimatedCostEur":17,"score":1.9513606934214784},{"id":"samarai_6053","citySlug":"samarai","name":"Ruta de Tapas","category":"gastronomia","lat":-10.618309436028298,"lng":150.67194374796978,"avgVisitMinutes":61,"estimatedCostEur":1,"score":4.39687803548703},{"id":"samarai_1296","citySlug":"samarai","name":"Zona Comercial","category":"ocio","lat":-10.611317117568648,"lng":150.65371850226987,"avgVisitMinutes":55,"estimatedCostEur":17,"score":1.7046565223770926},{"id":"samarai_7930","citySlug":"samarai","name":"Centro de Arte de Samarai","category":"cultura","lat":-10.617834688253819,"lng":150.65637205494286,"avgVisitMinutes":67,"estimatedCostEur":12,"score":2.85227647192941},{"id":"samarai_8572","citySlug":"samarai","name":"Paseo Principal","category":"ocio","lat":-10.60939009053083,"lng":150.66103554104362,"avgVisitMinutes":28,"estimatedCostEur":25,"score":0.7147832802558547},{"id":"samarai_9670","citySlug":"samarai","name":"Restaurante Típico de Samarai","category":"gastronomia","lat":-10.610835717843122,"lng":150.6637620017146,"avgVisitMinutes":44,"estimatedCostEur":14,"score":2.790918413348069},{"id":"samarai_8137","citySlug":"samarai","name":"Centro de Arte de Samarai","category":"cultura","lat":-10.616707355184747,"lng":150.67149431508489,"avgVisitMinutes":83,"estimatedCostEur":24,"score":1.7912278013741445},{"id":"alotau_1703","citySlug":"alotau","name":"Ruta de Tapas","category":"gastronomia","lat":-10.305425488145922,"lng":150.4612050190106,"avgVisitMinutes":49,"estimatedCostEur":1,"score":4.38820325483543},{"id":"alotau_4093","citySlug":"alotau","name":"Ruta de Tapas","category":"gastronomia","lat":-10.306666490084972,"lng":150.44817208472932,"avgVisitMinutes":36,"estimatedCostEur":5,"score":2.7901128422946013},{"id":"alotau_3948","citySlug":"alotau","name":"Playa Sur","category":"playa","lat":-10.318730733381265,"lng":150.45201263126108,"avgVisitMinutes":76,"estimatedCostEur":19,"score":3.899937736310668},{"id":"alotau_3683","citySlug":"alotau","name":"Iglesia de Alotau","category":"historia","lat":-10.318220267055146,"lng":150.46632978075465,"avgVisitMinutes":64,"estimatedCostEur":16,"score":1.1164792082418753},{"id":"alotau_5152","citySlug":"alotau","name":"Parque Central","category":"ocio","lat":-10.312925298600463,"lng":150.4570296541669,"avgVisitMinutes":34,"estimatedCostEur":19,"score":2.0996837549179577},{"id":"alotau_2499","citySlug":"alotau","name":"Mirador de Alotau","category":"mirador","lat":-10.314984716296786,"lng":150.46598916328867,"avgVisitMinutes":60,"estimatedCostEur":18,"score":3.8841238818328465},{"id":"alotau_1071","citySlug":"alotau","name":"Playa Central","category":"playa","lat":-10.318292697760214,"lng":150.45072267656425,"avgVisitMinutes":84,"estimatedCostEur":15,"score":0.6624471747053009},{"id":"alotau_6113","citySlug":"alotau","name":"Teatro Municipal","category":"cultura","lat":-10.310425819959018,"lng":150.46382131902604,"avgVisitMinutes":42,"estimatedCostEur":21,"score":3.3881333190556724},{"id":"alotau_4897","citySlug":"alotau","name":"Punto Panorámico","category":"mirador","lat":-10.305695198150422,"lng":150.45610467874812,"avgVisitMinutes":63,"estimatedCostEur":20,"score":1.5091053123967035},{"id":"alotau_5706","citySlug":"alotau","name":"Centro Histórico","category":"historia","lat":-10.310431178655945,"lng":150.46669563107852,"avgVisitMinutes":52,"estimatedCostEur":15,"score":2.5975914965838505}]}