{"country":"PK","pois":[{"id":"sharifabad_4994","citySlug":"sharifabad","name":"Playa Norte","category":"playa","lat":33.42692899060818,"lng":73.363966538483,"avgVisitMinutes":32,"estimatedCostEur":0,"score":2.935609787305507},{"id":"sharifabad_6187","citySlug":"sharifabad","name":"Teatro Municipal","category":"cultura","lat":33.42872556735209,"lng":73.36295625574921,"avgVisitMinutes":40,"estimatedCostEur":1,"score":2.2301795483681244},{"id":"sharifabad_1348","citySlug":"sharifabad","name":"Punto Panorámico","category":"mirador","lat":33.440221525253534,"lng":73.37093588741668,"avgVisitMinutes":36,"estimatedCostEur":25,"score":3.562413588792523},{"id":"sharifabad_1468","citySlug":"sharifabad","name":"Centro de Arte de Sharifabad","category":"cultura","lat":33.42802911832755,"lng":73.3659660118964,"avgVisitMinutes":79,"estimatedCostEur":19,"score":1.514464970396065},{"id":"sharifabad_2594","citySlug":"sharifabad","name":"Playa Norte","category":"playa","lat":33.434665517025486,"lng":73.36049128148326,"avgVisitMinutes":90,"estimatedCostEur":20,"score":3.2228792186256157},{"id":"sharifabad_6904","citySlug":"sharifabad","name":"Zona Comercial","category":"ocio","lat":33.441016803140634,"lng":73.35358679719597,"avgVisitMinutes":48,"estimatedCostEur":24,"score":3.203581445812991},{"id":"sharifabad_7601","citySlug":"sharifabad","name":"Playa Central","category":"playa","lat":33.43682575155883,"lng":73.35862889761849,"avgVisitMinutes":33,"estimatedCostEur":18,"score":1.779855673639452},{"id":"sharifabad_9602","citySlug":"sharifabad","name":"Zona Comercial","category":"ocio","lat":33.432289073211884,"lng":73.36827970689211,"avgVisitMinutes":60,"estimatedCostEur":15,"score":4.085308072342624},{"id":"sharifabad_5794","citySlug":"sharifabad","name":"Restaurante Típico de Sharifabad","category":"gastronomia","lat":33.439992881921995,"lng":73.36431126435674,"avgVisitMinutes":65,"estimatedCostEur":12,"score":4.532258944069372},{"id":"sharifabad_4493","citySlug":"sharifabad","name":"Restaurante Típico de Sharifabad","category":"gastronomia","lat":33.427874778752056,"lng":73.35802507554305,"avgVisitMinutes":48,"estimatedCostEur":9,"score":0.8307356402501049},{"id":"sharifabad_8153","citySlug":"sharifabad","name":"Paseo Principal","category":"ocio","lat":33.43958885967586,"lng":73.36614997598453,"avgVisitMinutes":30,"estimatedCostEur":1,"score":0.7665924790355212},{"id":"inzari_1013","citySlug":"inzari","name":"Paseo Principal","category":"ocio","lat":34.66759224605681,"lng":71.38409638701647,"avgVisitMinutes":90,"estimatedCostEur":20,"score":3.1578889758517104},{"id":"inzari_8963","citySlug":"inzari","name":"Paseo Principal","category":"ocio","lat":34.67733578957109,"lng":71.3899228140262,"avgVisitMinutes":39,"estimatedCostEur":8,"score":0.9842254715680798},{"id":"inzari_4754","citySlug":"inzari","name":"Teatro Municipal","category":"cultura","lat":34.674786052281675,"lng":71.39830507265648,"avgVisitMinutes":87,"estimatedCostEur":25,"score":1.7191776324600765},{"id":"inzari_5372","citySlug":"inzari","name":"Ruta de Tapas","category":"gastronomia","lat":34.66289161227171,"lng":71.38654804284317,"avgVisitMinutes":59,"estimatedCostEur":8,"score":3.190301111981996},{"id":"inzari_6756","citySlug":"inzari","name":"Teatro Municipal","category":"cultura","lat":34.66768308146674,"lng":71.38420430550072,"avgVisitMinutes":56,"estimatedCostEur":16,"score":1.1326940561318097},{"id":"inzari_5585","citySlug":"inzari","name":"Punto Panorámico","category":"mirador","lat":34.66026263827619,"lng":71.39398604775984,"avgVisitMinutes":69,"estimatedCostEur":20,"score":4.9159443262861915},{"id":"inzari_4725","citySlug":"inzari","name":"Vista Alta de Inzari","category":"mirador","lat":34.664458542198815,"lng":71.39537375881811,"avgVisitMinutes":87,"estimatedCostEur":20,"score":2.7498576386809948},{"id":"inzari_7303","citySlug":"inzari","name":"Ruta de Tapas","category":"gastronomia","lat":34.669231335125495,"lng":71.38080698099068,"avgVisitMinutes":32,"estimatedCostEur":16,"score":2.26990774256213},{"id":"chuhar-jamali_4862","citySlug":"chuhar-jamali","name":"Parque Central","category":"ocio","lat":24.389220694844187,"lng":67.98588355372674,"avgVisitMinutes":43,"estimatedCostEur":9,"score":2.0730816593149566},{"id":"chuhar-jamali_6946","citySlug":"chuhar-jamali","name":"Zona Comercial","category":"ocio","lat":24.3940347893121,"lng":67.9912866910399,"avgVisitMinutes":44,"estimatedCostEur":16,"score":0.5272886048069239},{"id":"chuhar-jamali_9747","citySlug":"chuhar-jamali","name":"Castillo de Chuhar Jamali","category":"historia","lat":24.401294391941228,"lng":67.99718866204174,"avgVisitMinutes":47,"estimatedCostEur":25,"score":1.7332852866816943},{"id":"chuhar-jamali_1642","citySlug":"chuhar-jamali","name":"Vista Alta de Chuhar Jamali","category":"mirador","lat":24.391471429754922,"lng":67.98908700215453,"avgVisitMinutes":57,"estimatedCostEur":10,"score":4.37064190156493},{"id":"chuhar-jamali_3498","citySlug":"chuhar-jamali","name":"Museo Cultural de Chuhar Jamali","category":"cultura","lat":24.387787457357234,"lng":67.98679031354577,"avgVisitMinutes":83,"estimatedCostEur":9,"score":2.812361698957417},{"id":"chuhar-jamali_9875","citySlug":"chuhar-jamali","name":"Centro Histórico","category":"historia","lat":24.403939691236605,"lng":67.98840576694673,"avgVisitMinutes":52,"estimatedCostEur":15,"score":1.8165696261977948},{"id":"chuhar-jamali_9729","citySlug":"chuhar-jamali","name":"Museo Local de Chuhar Jamali","category":"historia","lat":24.39802516997195,"lng":67.98532158391642,"avgVisitMinutes":46,"estimatedCostEur":6,"score":1.6502400293882913},{"id":"chuhar-jamali_7922","citySlug":"chuhar-jamali","name":"Castillo de Chuhar Jamali","category":"historia","lat":24.385655044568303,"lng":67.98681880328246,"avgVisitMinutes":68,"estimatedCostEur":21,"score":0.5353938700127578},{"id":"chuhar-jamali_7892","citySlug":"chuhar-jamali","name":"Paseo Principal","category":"ocio","lat":24.398205956180636,"lng":67.99790079241862,"avgVisitMinutes":75,"estimatedCostEur":19,"score":4.122286019349458},{"id":"chuhar-jamali_6778","citySlug":"chuhar-jamali","name":"Playa Central","category":"playa","lat":24.40343934662112,"lng":68.0005651989177,"avgVisitMinutes":48,"estimatedCostEur":2,"score":2.43987139621686},{"id":"chuhar-jamali_6241","citySlug":"chuhar-jamali","name":"Playa Norte","category":"playa","lat":24.399064342443367,"lng":67.98850677825351,"avgVisitMinutes":37,"estimatedCostEur":17,"score":1.2830927409285295},{"id":"chuhar-jamali_5882","citySlug":"chuhar-jamali","name":"Parque Central","category":"ocio","lat":24.394398772286916,"lng":67.99693558371264,"avgVisitMinutes":71,"estimatedCostEur":20,"score":0.8278259097629199},{"id":"datta-khel_1671","citySlug":"datta-khel","name":"Playa Sur","category":"playa","lat":32.9119886744411,"lng":69.75271196008624,"avgVisitMinutes":30,"estimatedCostEur":19,"score":2.6938394951963534},{"id":"datta-khel_2795","citySlug":"datta-khel","name":"Mirador de Datta Khel","category":"mirador","lat":32.90331426809486,"lng":69.7407398014824,"avgVisitMinutes":52,"estimatedCostEur":6,"score":3.569686938070177},{"id":"datta-khel_5889","citySlug":"datta-khel","name":"Playa Sur","category":"playa","lat":32.90397853675105,"lng":69.74149579938212,"avgVisitMinutes":64,"estimatedCostEur":23,"score":3.3952317882948497},{"id":"datta-khel_6987","citySlug":"datta-khel","name":"Paseo Principal","category":"ocio","lat":32.90812234528893,"lng":69.74285404566452,"avgVisitMinutes":81,"estimatedCostEur":12,"score":4.576243293476278},{"id":"datta-khel_3720","citySlug":"datta-khel","name":"Restaurante Típico de Datta Khel","category":"gastronomia","lat":32.91532174566184,"lng":69.74138587399983,"avgVisitMinutes":23,"estimatedCostEur":7,"score":3.3028791122930903},{"id":"datta-khel_9139","citySlug":"datta-khel","name":"Punto Panorámico","category":"mirador","lat":32.90289098553484,"lng":69.75143352673629,"avgVisitMinutes":43,"estimatedCostEur":5,"score":3.003978011065183},{"id":"datta-khel_7747","citySlug":"datta-khel","name":"Centro de Arte de Datta Khel","category":"cultura","lat":32.909048287752775,"lng":69.7394162528806,"avgVisitMinutes":25,"estimatedCostEur":10,"score":3.4561987895307897},{"id":"datta-khel_3450","citySlug":"datta-khel","name":"Centro de Arte de Datta Khel","category":"cultura","lat":32.91245908912908,"lng":69.74747981830977,"avgVisitMinutes":63,"estimatedCostEur":2,"score":0.8907006718597604},{"id":"datta-khel_2430","citySlug":"datta-khel","name":"Museo Local de Datta Khel","category":"historia","lat":32.9095041013877,"lng":69.7375458583981,"avgVisitMinutes":48,"estimatedCostEur":20,"score":2.109301892532613},{"id":"datta-khel_2593","citySlug":"datta-khel","name":"Vista Alta de Datta Khel","category":"mirador","lat":32.90168807431867,"lng":69.7538726269912,"avgVisitMinutes":73,"estimatedCostEur":2,"score":4.289405961050274},{"id":"datta-khel_9567","citySlug":"datta-khel","name":"Paseo Principal","category":"ocio","lat":32.9038156073288,"lng":69.75021134418107,"avgVisitMinutes":29,"estimatedCostEur":20,"score":2.888852157720974},{"id":"maimola_8548","citySlug":"maimola","name":"Mercado Gastronómico","category":"gastronomia","lat":34.636313562455925,"lng":71.61479863384575,"avgVisitMinutes":37,"estimatedCostEur":16,"score":3.4392611077393296},{"id":"maimola_4992","citySlug":"maimola","name":"Mercado Gastronómico","category":"gastronomia","lat":34.643621818311516,"lng":71.60262623990783,"avgVisitMinutes":83,"estimatedCostEur":23,"score":2.9865755084316614},{"id":"maimola_5910","citySlug":"maimola","name":"Parque Central","category":"ocio","lat":34.6267620716733,"lng":71.62117889458999,"avgVisitMinutes":35,"estimatedCostEur":9,"score":3.901062853500768},{"id":"maimola_1384","citySlug":"maimola","name":"Mercado Gastronómico","category":"gastronomia","lat":34.632151417051396,"lng":71.60211593518648,"avgVisitMinutes":78,"estimatedCostEur":15,"score":4.437011924039206},{"id":"maimola_1757","citySlug":"maimola","name":"Zona Comercial","category":"ocio","lat":34.62810937486893,"lng":71.62049962440946,"avgVisitMinutes":84,"estimatedCostEur":6,"score":1.792657550954263},{"id":"maimola_3837","citySlug":"maimola","name":"Parque Central","category":"ocio","lat":34.63450740915305,"lng":71.6036117827951,"avgVisitMinutes":42,"estimatedCostEur":7,"score":0.9041523148507349},{"id":"maimola_7823","citySlug":"maimola","name":"Playa Sur","category":"playa","lat":34.64470841435172,"lng":71.62058710053822,"avgVisitMinutes":34,"estimatedCostEur":21,"score":3.2182141805301123},{"id":"batwar-salarzai_5080","citySlug":"batwar-salarzai","name":"Paseo Principal","category":"ocio","lat":34.934873269640626,"lng":71.50791698600226,"avgVisitMinutes":23,"estimatedCostEur":8,"score":3.2182428866943624},{"id":"batwar-salarzai_6679","citySlug":"batwar-salarzai","name":"Murallas de Batwar Salarzai","category":"historia","lat":34.92561790536006,"lng":71.52135391487847,"avgVisitMinutes":77,"estimatedCostEur":16,"score":0.9926061840062352},{"id":"batwar-salarzai_2333","citySlug":"batwar-salarzai","name":"Centro Histórico","category":"historia","lat":34.92799114325883,"lng":71.51013638977355,"avgVisitMinutes":83,"estimatedCostEur":17,"score":1.060301888597519},{"id":"batwar-salarzai_6608","citySlug":"batwar-salarzai","name":"Ruta de Tapas","category":"gastronomia","lat":34.928997552189685,"lng":71.50874987622323,"avgVisitMinutes":27,"estimatedCostEur":19,"score":2.1304950793998447},{"id":"batwar-salarzai_6022","citySlug":"batwar-salarzai","name":"Playa Norte","category":"playa","lat":34.93411794740068,"lng":71.5063924603926,"avgVisitMinutes":35,"estimatedCostEur":6,"score":3.1712026042315378},{"id":"rawalakot_3169","citySlug":"rawalakot","name":"Restaurante Típico de Rawalakot","category":"gastronomia","lat":33.85096029162019,"lng":73.76880783721234,"avgVisitMinutes":59,"estimatedCostEur":17,"score":2.7585318548317073},{"id":"rawalakot_1698","citySlug":"rawalakot","name":"Murallas de Rawalakot","category":"historia","lat":33.852459112609715,"lng":73.76735950766357,"avgVisitMinutes":41,"estimatedCostEur":8,"score":4.375970000267567},{"id":"rawalakot_7366","citySlug":"rawalakot","name":"Playa Sur","category":"playa","lat":33.85127734948456,"lng":73.76473601880896,"avgVisitMinutes":73,"estimatedCostEur":7,"score":0.7019986035718557},{"id":"rawalakot_3405","citySlug":"rawalakot","name":"Ruta de Tapas","category":"gastronomia","lat":33.86693035105251,"lng":73.76032601095673,"avgVisitMinutes":36,"estimatedCostEur":19,"score":3.1456227346382053},{"id":"rawalakot_8710","citySlug":"rawalakot","name":"Galería de Arte","category":"cultura","lat":33.85472673739716,"lng":73.76841231318205,"avgVisitMinutes":71,"estimatedCostEur":8,"score":2.8534827828898637},{"id":"rawalakot_6997","citySlug":"rawalakot","name":"Centro Histórico","category":"historia","lat":33.85514584898241,"lng":73.76697191205699,"avgVisitMinutes":46,"estimatedCostEur":9,"score":0.637329507095692},{"id":"rawalakot_2963","citySlug":"rawalakot","name":"Parque Central","category":"ocio","lat":33.856420881073284,"lng":73.76960226651296,"avgVisitMinutes":43,"estimatedCostEur":5,"score":4.312120092862637},{"id":"rawalakot_9208","citySlug":"rawalakot","name":"Mirador de Rawalakot","category":"mirador","lat":33.860817196448316,"lng":73.75118346448875,"avgVisitMinutes":44,"estimatedCostEur":10,"score":1.0202358808865846},{"id":"pir-jo-goth_6085","citySlug":"pir-jo-goth","name":"Centro Histórico","category":"historia","lat":27.597433331772656,"lng":68.61067092649063,"avgVisitMinutes":44,"estimatedCostEur":9,"score":2.9494125312443544},{"id":"pir-jo-goth_5099","citySlug":"pir-jo-goth","name":"Zona Comercial","category":"ocio","lat":27.598994287559883,"lng":68.62115273785653,"avgVisitMinutes":41,"estimatedCostEur":3,"score":4.7297999503287995},{"id":"pir-jo-goth_9514","citySlug":"pir-jo-goth","name":"Mercado Gastronómico","category":"gastronomia","lat":27.59615374851314,"lng":68.62351243852073,"avgVisitMinutes":80,"estimatedCostEur":25,"score":2.1959413038062503},{"id":"pir-jo-goth_7832","citySlug":"pir-jo-goth","name":"Teatro Municipal","category":"cultura","lat":27.585501640022006,"lng":68.61657090426792,"avgVisitMinutes":89,"estimatedCostEur":24,"score":4.707244357747729},{"id":"pir-jo-goth_4357","citySlug":"pir-jo-goth","name":"Centro de Arte de Pir Jo Goth","category":"cultura","lat":27.59164066514916,"lng":68.6178614040123,"avgVisitMinutes":79,"estimatedCostEur":13,"score":1.6982096889219966},{"id":"pir-jo-goth_7453","citySlug":"pir-jo-goth","name":"Playa Central","category":"playa","lat":27.58684708747268,"lng":68.61105427214228,"avgVisitMinutes":55,"estimatedCostEur":11,"score":2.432540324616077},{"id":"pir-jo-goth_1020","citySlug":"pir-jo-goth","name":"Playa Sur","category":"playa","lat":27.5833179786102,"lng":68.61460294178902,"avgVisitMinutes":51,"estimatedCostEur":13,"score":4.383799366775233},{"id":"pir-jo-goth_3577","citySlug":"pir-jo-goth","name":"Paseo Principal","category":"ocio","lat":27.598835153435374,"lng":68.62037304054208,"avgVisitMinutes":66,"estimatedCostEur":1,"score":0.5136077108298962},{"id":"pir-jo-goth_6869","citySlug":"pir-jo-goth","name":"Ruta de Tapas","category":"gastronomia","lat":27.583400429490606,"lng":68.61249643130175,"avgVisitMinutes":47,"estimatedCostEur":11,"score":1.1735752324029136},{"id":"pir-jo-goth_5325","citySlug":"pir-jo-goth","name":"Mirador de Pir Jo Goth","category":"mirador","lat":27.59099178362353,"lng":68.61900929980341,"avgVisitMinutes":44,"estimatedCostEur":1,"score":0.645843520390383},{"id":"pir-jo-goth_1067","citySlug":"pir-jo-goth","name":"Punto Panorámico","category":"mirador","lat":27.600819315962244,"lng":68.61442590829449,"avgVisitMinutes":69,"estimatedCostEur":6,"score":1.6228996492941759},{"id":"khairpur-mirs_4542","citySlug":"khairpur-mirs","name":"Castillo de Khairpur Mir’s","category":"historia","lat":27.531084791785155,"lng":68.7564937040443,"avgVisitMinutes":77,"estimatedCostEur":10,"score":4.776819445095504},{"id":"khairpur-mirs_2425","citySlug":"khairpur-mirs","name":"Vista Alta de Khairpur Mir’s","category":"mirador","lat":27.522449452192447,"lng":68.76846390399767,"avgVisitMinutes":20,"estimatedCostEur":24,"score":0.6301743518770692},{"id":"khairpur-mirs_6137","citySlug":"khairpur-mirs","name":"Playa Norte","category":"playa","lat":27.534362654032535,"lng":68.76036945797443,"avgVisitMinutes":46,"estimatedCostEur":23,"score":0.7983342831633096},{"id":"khairpur-mirs_5414","citySlug":"khairpur-mirs","name":"Centro Histórico","category":"historia","lat":27.539261773765983,"lng":68.76294727837644,"avgVisitMinutes":85,"estimatedCostEur":15,"score":2.161328528149637},{"id":"khairpur-mirs_3452","citySlug":"khairpur-mirs","name":"Restaurante Típico de Khairpur Mir’s","category":"gastronomia","lat":27.522341847658847,"lng":68.76785532283313,"avgVisitMinutes":51,"estimatedCostEur":13,"score":2.928478806255936},{"id":"khairpur-mirs_5263","citySlug":"khairpur-mirs","name":"Restaurante Típico de Khairpur Mir’s","category":"gastronomia","lat":27.525351732499704,"lng":68.7519695961038,"avgVisitMinutes":55,"estimatedCostEur":1,"score":1.1907172614288364},{"id":"khairpur-mirs_9615","citySlug":"khairpur-mirs","name":"Restaurante Típico de Khairpur Mir’s","category":"gastronomia","lat":27.52306439445375,"lng":68.75671077120873,"avgVisitMinutes":24,"estimatedCostEur":16,"score":3.9125303837807786},{"id":"khairpur-mirs_9109","citySlug":"khairpur-mirs","name":"Mercado Gastronómico","category":"gastronomia","lat":27.527566982448327,"lng":68.75542504077669,"avgVisitMinutes":22,"estimatedCostEur":18,"score":3.241695564054129},{"id":"khairpur-mirs_5233","citySlug":"khairpur-mirs","name":"Ruta de Tapas","category":"gastronomia","lat":27.524711513999726,"lng":68.75690166434157,"avgVisitMinutes":42,"estimatedCostEur":10,"score":0.6837553581970612},{"id":"khairpur-mirs_3157","citySlug":"khairpur-mirs","name":"Museo Cultural de Khairpur Mir’s","category":"cultura","lat":27.530100549242533,"lng":68.75317848773098,"avgVisitMinutes":79,"estimatedCostEur":10,"score":3.3786872608016902},{"id":"khairpur-mirs_5900","citySlug":"khairpur-mirs","name":"Playa Norte","category":"playa","lat":27.5382988146425,"lng":68.76315036239329,"avgVisitMinutes":31,"estimatedCostEur":17,"score":4.6835371234516225},{"id":"adilpur_7685","citySlug":"adilpur","name":"Playa Central","category":"playa","lat":27.94045135624652,"lng":69.31018124721449,"avgVisitMinutes":77,"estimatedCostEur":9,"score":1.5392970957543373},{"id":"adilpur_1839","citySlug":"adilpur","name":"Playa Sur","category":"playa","lat":27.928639282153878,"lng":69.3276702506202,"avgVisitMinutes":37,"estimatedCostEur":25,"score":0.7298129764688586},{"id":"adilpur_1617","citySlug":"adilpur","name":"Playa Sur","category":"playa","lat":27.93006122507227,"lng":69.31048916111463,"avgVisitMinutes":78,"estimatedCostEur":22,"score":0.7486407697517296},{"id":"adilpur_4675","citySlug":"adilpur","name":"Playa Central","category":"playa","lat":27.94449149725181,"lng":69.32565188687053,"avgVisitMinutes":24,"estimatedCostEur":21,"score":1.1350844659179482},{"id":"adilpur_4269","citySlug":"adilpur","name":"Vista Alta de Adilpur","category":"mirador","lat":27.942526684939303,"lng":69.3108027107603,"avgVisitMinutes":67,"estimatedCostEur":1,"score":1.3821862202802209},{"id":"adilpur_9469","citySlug":"adilpur","name":"Punto Panorámico","category":"mirador","lat":27.931957460219124,"lng":69.31282622086216,"avgVisitMinutes":49,"estimatedCostEur":0,"score":3.1498405530785556},{"id":"adilpur_8520","citySlug":"adilpur","name":"Paseo Principal","category":"ocio","lat":27.929881333190952,"lng":69.3156318833968,"avgVisitMinutes":78,"estimatedCostEur":1,"score":3.540326539648813},{"id":"ziarat_5090","citySlug":"ziarat","name":"Castillo de Ziarat","category":"historia","lat":30.39133452889725,"lng":67.718780635056,"avgVisitMinutes":34,"estimatedCostEur":23,"score":2.702170849445789},{"id":"ziarat_4584","citySlug":"ziarat","name":"Zona Comercial","category":"ocio","lat":30.3843781268027,"lng":67.72339710338416,"avgVisitMinutes":90,"estimatedCostEur":23,"score":1.1656291404832444},{"id":"ziarat_3260","citySlug":"ziarat","name":"Museo Cultural de Ziarat","category":"cultura","lat":30.37278635782245,"lng":67.71670348724855,"avgVisitMinutes":33,"estimatedCostEur":20,"score":0.8057352021998749},{"id":"ziarat_7021","citySlug":"ziarat","name":"Paseo Principal","category":"ocio","lat":30.381226299385954,"lng":67.72399349328983,"avgVisitMinutes":63,"estimatedCostEur":7,"score":0.5682546804870938},{"id":"ziarat_6225","citySlug":"ziarat","name":"Restaurante Típico de Ziarat","category":"gastronomia","lat":30.380857607977678,"lng":67.72142825718514,"avgVisitMinutes":30,"estimatedCostEur":12,"score":3.391502717578732},{"id":"ziarat_8846","citySlug":"ziarat","name":"Playa Sur","category":"playa","lat":30.385892370955435,"lng":67.72353339364666,"avgVisitMinutes":47,"estimatedCostEur":23,"score":2.399044869709761},{"id":"ziarat_4178","citySlug":"ziarat","name":"Restaurante Típico de Ziarat","category":"gastronomia","lat":30.387168886871542,"lng":67.72265237022448,"avgVisitMinutes":23,"estimatedCostEur":11,"score":3.158766540282626},{"id":"ziarat_8021","citySlug":"ziarat","name":"Playa Norte","category":"playa","lat":30.379083228461067,"lng":67.73043185940612,"avgVisitMinutes":52,"estimatedCostEur":6,"score":3.0758274883317855},{"id":"ziarat_6692","citySlug":"ziarat","name":"Zona Comercial","category":"ocio","lat":30.39241468259245,"lng":67.71951271704653,"avgVisitMinutes":84,"estimatedCostEur":19,"score":4.046159518660945},{"id":"ziarat_1927","citySlug":"ziarat","name":"Galería de Arte","category":"cultura","lat":30.383604576438685,"lng":67.71673884717808,"avgVisitMinutes":90,"estimatedCostEur":20,"score":3.580207215905853},{"id":"zhob_6518","citySlug":"zhob","name":"Punto Panorámico","category":"mirador","lat":31.343356005941473,"lng":69.45799153592894,"avgVisitMinutes":45,"estimatedCostEur":2,"score":4.778817278312763},{"id":"zhob_4047","citySlug":"zhob","name":"Vista Alta de Zhob","category":"mirador","lat":31.342581333473845,"lng":69.43931328934026,"avgVisitMinutes":64,"estimatedCostEur":19,"score":4.875196554030717},{"id":"zhob_9361","citySlug":"zhob","name":"Vista Alta de Zhob","category":"mirador","lat":31.334537158759915,"lng":69.45392928145338,"avgVisitMinutes":32,"estimatedCostEur":4,"score":2.2504245764985855},{"id":"zhob_1504","citySlug":"zhob","name":"Parque Central","category":"ocio","lat":31.333580886181384,"lng":69.45217705587497,"avgVisitMinutes":54,"estimatedCostEur":18,"score":3.714256748229868},{"id":"zhob_2334","citySlug":"zhob","name":"Vista Alta de Zhob","category":"mirador","lat":31.350197898480044,"lng":69.45731357180256,"avgVisitMinutes":60,"estimatedCostEur":19,"score":0.581471563989579},{"id":"zhob_4206","citySlug":"zhob","name":"Paseo Principal","category":"ocio","lat":31.342573260024643,"lng":69.45012141676499,"avgVisitMinutes":53,"estimatedCostEur":7,"score":1.1779428746673786},{"id":"zhob_7919","citySlug":"zhob","name":"Ruta de Tapas","category":"gastronomia","lat":31.336637895926902,"lng":69.45644033302764,"avgVisitMinutes":77,"estimatedCostEur":13,"score":3.023648872204351},{"id":"zhob_6345","citySlug":"zhob","name":"Vista Alta de Zhob","category":"mirador","lat":31.347581005486305,"lng":69.44025303769367,"avgVisitMinutes":23,"estimatedCostEur":15,"score":4.910828041464259},{"id":"zhob_1561","citySlug":"zhob","name":"Zona Comercial","category":"ocio","lat":31.343138341472155,"lng":69.4396530755233,"avgVisitMinutes":65,"estimatedCostEur":18,"score":2.2246492309941965},{"id":"zaida_3495","citySlug":"zaida","name":"Iglesia de Zaida","category":"historia","lat":34.05303023670682,"lng":72.46777092237944,"avgVisitMinutes":69,"estimatedCostEur":21,"score":2.7948474300984745},{"id":"zaida_8235","citySlug":"zaida","name":"Restaurante Típico de Zaida","category":"gastronomia","lat":34.06055161459546,"lng":72.47506949335468,"avgVisitMinutes":40,"estimatedCostEur":6,"score":2.3797940416925973},{"id":"zaida_1549","citySlug":"zaida","name":"Restaurante Típico de Zaida","category":"gastronomia","lat":34.057818783686066,"lng":72.4734943992677,"avgVisitMinutes":50,"estimatedCostEur":0,"score":2.421072501785864},{"id":"zaida_2128","citySlug":"zaida","name":"Restaurante Típico de Zaida","category":"gastronomia","lat":34.06943585939366,"lng":72.47373060369148,"avgVisitMinutes":35,"estimatedCostEur":5,"score":3.8586688952764545},{"id":"zaida_2592","citySlug":"zaida","name":"Paseo Principal","category":"ocio","lat":34.064708213232784,"lng":72.47561642385472,"avgVisitMinutes":32,"estimatedCostEur":12,"score":4.708034557575365},{"id":"zaida_3417","citySlug":"zaida","name":"Museo Local de Zaida","category":"historia","lat":34.06737019264737,"lng":72.47075335311024,"avgVisitMinutes":82,"estimatedCostEur":14,"score":2.5188579107721893},{"id":"zahir-pir_3055","citySlug":"zahir-pir","name":"Parque Central","category":"ocio","lat":28.80687318789609,"lng":70.52909870106156,"avgVisitMinutes":55,"estimatedCostEur":3,"score":4.739846689030207},{"id":"zahir-pir_1873","citySlug":"zahir-pir","name":"Paseo Principal","category":"ocio","lat":28.82272825015826,"lng":70.52294943063598,"avgVisitMinutes":53,"estimatedCostEur":16,"score":2.396181495117709},{"id":"zahir-pir_7791","citySlug":"zahir-pir","name":"Galería de Arte","category":"cultura","lat":28.808040197163912,"lng":70.5279421541819,"avgVisitMinutes":71,"estimatedCostEur":20,"score":0.6496857184086635},{"id":"zahir-pir_6386","citySlug":"zahir-pir","name":"Museo Cultural de Zahir Pir","category":"cultura","lat":28.81508128439609,"lng":70.5160330016545,"avgVisitMinutes":78,"estimatedCostEur":15,"score":3.3351228830981854},{"id":"zahir-pir_1606","citySlug":"zahir-pir","name":"Punto Panorámico","category":"mirador","lat":28.81386955780127,"lng":70.51660507488356,"avgVisitMinutes":29,"estimatedCostEur":17,"score":3.919807258183823},{"id":"zahir-pir_8580","citySlug":"zahir-pir","name":"Vista Alta de Zahir Pir","category":"mirador","lat":28.820432984670887,"lng":70.52967953390079,"avgVisitMinutes":62,"estimatedCostEur":10,"score":4.46399362769011},{"id":"zahir-pir_5323","citySlug":"zahir-pir","name":"Castillo de Zahir Pir","category":"historia","lat":28.811981337533084,"lng":70.52250110778425,"avgVisitMinutes":62,"estimatedCostEur":13,"score":2.3614491078580593},{"id":"zahir-pir_3335","citySlug":"zahir-pir","name":"Mercado Gastronómico","category":"gastronomia","lat":28.81161142182213,"lng":70.5201053745207,"avgVisitMinutes":62,"estimatedCostEur":14,"score":3.3391233739879564},{"id":"zahir-pir_7114","citySlug":"zahir-pir","name":"Parque Central","category":"ocio","lat":28.804925169567394,"lng":70.51867951132846,"avgVisitMinutes":78,"estimatedCostEur":21,"score":2.499221877989472},{"id":"zahir-pir_3098","citySlug":"zahir-pir","name":"Centro de Arte de Zahir Pir","category":"cultura","lat":28.81705577877838,"lng":70.52152488082449,"avgVisitMinutes":36,"estimatedCostEur":21,"score":2.0397646333865818},{"id":"zahir-pir_8808","citySlug":"zahir-pir","name":"Iglesia de Zahir Pir","category":"historia","lat":28.81813818264282,"lng":70.53171736417822,"avgVisitMinutes":20,"estimatedCostEur":18,"score":3.2381273959573234},{"id":"zafarwal_3563","citySlug":"zafarwal","name":"Mirador de Zafarwal","category":"mirador","lat":32.34801644030568,"lng":74.90330837210153,"avgVisitMinutes":82,"estimatedCostEur":20,"score":4.620183463460518},{"id":"zafarwal_4660","citySlug":"zafarwal","name":"Restaurante Típico de Zafarwal","category":"gastronomia","lat":32.34588132430395,"lng":74.89003536375832,"avgVisitMinutes":79,"estimatedCostEur":16,"score":3.3943674986723504},{"id":"zafarwal_3183","citySlug":"zafarwal","name":"Museo Local de Zafarwal","category":"historia","lat":32.344350857243406,"lng":74.89781768515881,"avgVisitMinutes":42,"estimatedCostEur":9,"score":2.4398766129883804},{"id":"zafarwal_1949","citySlug":"zafarwal","name":"Parque Central","category":"ocio","lat":32.33636593494686,"lng":74.89768278249214,"avgVisitMinutes":67,"estimatedCostEur":15,"score":3.6885453187125226},{"id":"zafarwal_2773","citySlug":"zafarwal","name":"Playa Norte","category":"playa","lat":32.34650341155567,"lng":74.89548481431613,"avgVisitMinutes":71,"estimatedCostEur":10,"score":0.6578824828800751},{"id":"yougu_4379","citySlug":"yougu","name":"Mirador de Yougu","category":"mirador","lat":35.17920996322996,"lng":76.16043180947572,"avgVisitMinutes":69,"estimatedCostEur":16,"score":3.5432307146849653},{"id":"yougu_4766","citySlug":"yougu","name":"Museo Local de Yougu","category":"historia","lat":35.17459793955629,"lng":76.15947605161512,"avgVisitMinutes":80,"estimatedCostEur":5,"score":3.2690205222473825},{"id":"yougu_8547","citySlug":"yougu","name":"Mercado Gastronómico","category":"gastronomia","lat":35.17774744908825,"lng":76.15452714022013,"avgVisitMinutes":47,"estimatedCostEur":22,"score":0.8841099309613366},{"id":"yougu_5596","citySlug":"yougu","name":"Centro Histórico","category":"historia","lat":35.182123791574995,"lng":76.15176258205977,"avgVisitMinutes":44,"estimatedCostEur":4,"score":1.5586386815597264},{"id":"yougu_3473","citySlug":"yougu","name":"Punto Panorámico","category":"mirador","lat":35.180656593167654,"lng":76.15764018996599,"avgVisitMinutes":27,"estimatedCostEur":8,"score":4.640089153686148},{"id":"yougu_8274","citySlug":"yougu","name":"Museo Cultural de Yougu","category":"cultura","lat":35.18457850674064,"lng":76.15834535122949,"avgVisitMinutes":88,"estimatedCostEur":8,"score":4.995587948240156},{"id":"yougu_1550","citySlug":"yougu","name":"Mercado Gastronómico","category":"gastronomia","lat":35.18955749052179,"lng":76.15747076176704,"avgVisitMinutes":75,"estimatedCostEur":2,"score":1.644468236809496},{"id":"yazman_9161","citySlug":"yazman","name":"Museo Cultural de Yazman","category":"cultura","lat":29.123268681765893,"lng":71.73665255807802,"avgVisitMinutes":20,"estimatedCostEur":10,"score":3.78896665240141},{"id":"yazman_9863","citySlug":"yazman","name":"Castillo de Yazman","category":"historia","lat":29.12723675964049,"lng":71.7440067659748,"avgVisitMinutes":34,"estimatedCostEur":11,"score":3.348097667697831},{"id":"yazman_1212","citySlug":"yazman","name":"Restaurante Típico de Yazman","category":"gastronomia","lat":29.126930849086257,"lng":71.74178346846013,"avgVisitMinutes":31,"estimatedCostEur":15,"score":1.9256348834793784},{"id":"yazman_9745","citySlug":"yazman","name":"Paseo Principal","category":"ocio","lat":29.115590397514616,"lng":71.74638577756033,"avgVisitMinutes":40,"estimatedCostEur":9,"score":3.51829604966348},{"id":"yazman_8748","citySlug":"yazman","name":"Ruta de Tapas","category":"gastronomia","lat":29.12563124593265,"lng":71.74308778345599,"avgVisitMinutes":88,"estimatedCostEur":19,"score":1.183630664201373},{"id":"yazman_9589","citySlug":"yazman","name":"Zona Comercial","category":"ocio","lat":29.129333843844787,"lng":71.73885677659183,"avgVisitMinutes":55,"estimatedCostEur":19,"score":1.7196692503020354},{"id":"yazman_5662","citySlug":"yazman","name":"Paseo Principal","category":"ocio","lat":29.12040685500286,"lng":71.75379955685274,"avgVisitMinutes":56,"estimatedCostEur":2,"score":0.7697115532954516},{"id":"yazman_1750","citySlug":"yazman","name":"Parque Central","category":"ocio","lat":29.123047165210277,"lng":71.73751459326023,"avgVisitMinutes":54,"estimatedCostEur":14,"score":1.7655821732080463},{"id":"yazman_2666","citySlug":"yazman","name":"Playa Central","category":"playa","lat":29.115447434632078,"lng":71.7355215777541,"avgVisitMinutes":28,"estimatedCostEur":7,"score":0.5068074587262552},{"id":"yazman_4259","citySlug":"yazman","name":"Playa Central","category":"playa","lat":29.130652043011562,"lng":71.74851667992593,"avgVisitMinutes":76,"estimatedCostEur":22,"score":4.4152832451498325},{"id":"yazman_4896","citySlug":"yazman","name":"Teatro Municipal","category":"cultura","lat":29.115843845074167,"lng":71.73532589444908,"avgVisitMinutes":45,"estimatedCostEur":15,"score":4.642999192925719},{"id":"wazirabad_4410","citySlug":"wazirabad","name":"Playa Norte","category":"playa","lat":32.442798645652026,"lng":74.1152867702918,"avgVisitMinutes":87,"estimatedCostEur":14,"score":1.9346472535363177},{"id":"wazirabad_4000","citySlug":"wazirabad","name":"Mirador de Wazirabad","category":"mirador","lat":32.45036605677107,"lng":74.1177547041044,"avgVisitMinutes":25,"estimatedCostEur":24,"score":1.4107509162436866},{"id":"wazirabad_7421","citySlug":"wazirabad","name":"Iglesia de Wazirabad","category":"historia","lat":32.43692872142501,"lng":74.11692624179885,"avgVisitMinutes":88,"estimatedCostEur":0,"score":2.149532584173728},{"id":"wazirabad_5671","citySlug":"wazirabad","name":"Vista Alta de Wazirabad","category":"mirador","lat":32.436738460455004,"lng":74.11914282932361,"avgVisitMinutes":71,"estimatedCostEur":25,"score":3.2126744323010006},{"id":"wazirabad_4699","citySlug":"wazirabad","name":"Mercado Gastronómico","category":"gastronomia","lat":32.44790261965962,"lng":74.11563644882283,"avgVisitMinutes":75,"estimatedCostEur":13,"score":3.2962330618970173},{"id":"wazirabad_1111","citySlug":"wazirabad","name":"Restaurante Típico de Wazirabad","category":"gastronomia","lat":32.44155398594947,"lng":74.11552948815985,"avgVisitMinutes":77,"estimatedCostEur":19,"score":1.7935578153952376},{"id":"wazirabad_9547","citySlug":"wazirabad","name":"Museo Cultural de Wazirabad","category":"cultura","lat":32.4489775332427,"lng":74.12665045100587,"avgVisitMinutes":60,"estimatedCostEur":6,"score":2.975145967516585},{"id":"wazirabad_2745","citySlug":"wazirabad","name":"Playa Sur","category":"playa","lat":32.43799641538836,"lng":74.12182747575037,"avgVisitMinutes":76,"estimatedCostEur":12,"score":2.9335767950461022},{"id":"wazirabad_4876","citySlug":"wazirabad","name":"Galería de Arte","category":"cultura","lat":32.4375581543029,"lng":74.12210111338506,"avgVisitMinutes":77,"estimatedCostEur":1,"score":1.3015190474494471},{"id":"wazirabad_2731","citySlug":"wazirabad","name":"Centro de Arte de Wazirabad","category":"cultura","lat":32.44436213604636,"lng":74.12048643991355,"avgVisitMinutes":45,"estimatedCostEur":1,"score":0.5004973868508112},{"id":"wazirabad_5424","citySlug":"wazirabad","name":"Playa Sur","category":"playa","lat":32.44334046850914,"lng":74.12823193933467,"avgVisitMinutes":33,"estimatedCostEur":11,"score":2.423402817784953},{"id":"wazirabad_1823","citySlug":"wazirabad","name":"Museo Local de Wazirabad","category":"historia","lat":32.43679073805494,"lng":74.12387206145277,"avgVisitMinutes":48,"estimatedCostEur":2,"score":2.0879490520164925},{"id":"washuk_3879","citySlug":"washuk","name":"Galería de Arte","category":"cultura","lat":27.732315062116527,"lng":64.80300778065975,"avgVisitMinutes":90,"estimatedCostEur":6,"score":2.2034310798549637},{"id":"washuk_3455","citySlug":"washuk","name":"Playa Norte","category":"playa","lat":27.723266876806488,"lng":64.80934679803885,"avgVisitMinutes":82,"estimatedCostEur":9,"score":2.4842797822292364},{"id":"washuk_7223","citySlug":"washuk","name":"Restaurante Típico de Washuk","category":"gastronomia","lat":27.726954067492468,"lng":64.80054063669917,"avgVisitMinutes":20,"estimatedCostEur":13,"score":2.0021609946571255},{"id":"washuk_6748","citySlug":"washuk","name":"Playa Central","category":"playa","lat":27.720977846662826,"lng":64.81740879642592,"avgVisitMinutes":78,"estimatedCostEur":23,"score":3.7844033400832076},{"id":"washuk_3441","citySlug":"washuk","name":"Murallas de Washuk","category":"historia","lat":27.71925558711856,"lng":64.81051235158162,"avgVisitMinutes":80,"estimatedCostEur":18,"score":3.588762890724281},{"id":"chak-five-hundred-seventy-five_7233","citySlug":"chak-five-hundred-seventy-five","name":"Castillo de Chak Five Hundred Seventy-five","category":"historia","lat":31.551346550043814,"lng":73.82047684579771,"avgVisitMinutes":41,"estimatedCostEur":17,"score":4.434482629950493},{"id":"chak-five-hundred-seventy-five_4567","citySlug":"chak-five-hundred-seventy-five","name":"Centro de Arte de Chak Five Hundred Seventy-five","category":"cultura","lat":31.536387707199044,"lng":73.83748133192086,"avgVisitMinutes":24,"estimatedCostEur":17,"score":1.6738311361449223},{"id":"chak-five-hundred-seventy-five_6870","citySlug":"chak-five-hundred-seventy-five","name":"Playa Sur","category":"playa","lat":31.54447320989997,"lng":73.81945507047377,"avgVisitMinutes":72,"estimatedCostEur":2,"score":2.826427157111317},{"id":"chak-five-hundred-seventy-five_9713","citySlug":"chak-five-hundred-seventy-five","name":"Parque Central","category":"ocio","lat":31.54720615623147,"lng":73.83245501386936,"avgVisitMinutes":54,"estimatedCostEur":25,"score":2.0167543720803423},{"id":"chak-five-hundred-seventy-five_2359","citySlug":"chak-five-hundred-seventy-five","name":"Galería de Arte","category":"cultura","lat":31.537696221778322,"lng":73.81953855062889,"avgVisitMinutes":48,"estimatedCostEur":20,"score":2.0052974351758754},{"id":"chak-five-hundred-seventy-five_6828","citySlug":"chak-five-hundred-seventy-five","name":"Paseo Principal","category":"ocio","lat":31.55259972303988,"lng":73.82105009153146,"avgVisitMinutes":68,"estimatedCostEur":24,"score":1.8453901262682377},{"id":"warah_5411","citySlug":"warah","name":"Playa Norte","category":"playa","lat":27.43931607835434,"lng":67.79322648368237,"avgVisitMinutes":37,"estimatedCostEur":18,"score":3.2815499140940787},{"id":"warah_3875","citySlug":"warah","name":"Playa Norte","category":"playa","lat":27.453305884640788,"lng":67.79253681273416,"avgVisitMinutes":66,"estimatedCostEur":13,"score":0.7189483996566337},{"id":"warah_1110","citySlug":"warah","name":"Restaurante Típico de Warah","category":"gastronomia","lat":27.446813825193065,"lng":67.7993885968029,"avgVisitMinutes":50,"estimatedCostEur":22,"score":1.6946917568325532},{"id":"warah_4697","citySlug":"warah","name":"Museo Local de Warah","category":"historia","lat":27.453181844355953,"lng":67.79259227942329,"avgVisitMinutes":43,"estimatedCostEur":22,"score":3.5595310826594466},{"id":"warah_8716","citySlug":"warah","name":"Mercado Gastronómico","category":"gastronomia","lat":27.456267550393864,"lng":67.8033847966909,"avgVisitMinutes":77,"estimatedCostEur":22,"score":2.924956923282038},{"id":"warah_8299","citySlug":"warah","name":"Murallas de Warah","category":"historia","lat":27.448981755986985,"lng":67.79791011462078,"avgVisitMinutes":33,"estimatedCostEur":6,"score":1.6228978351121213},{"id":"wana_3552","citySlug":"wana","name":"Galería de Arte","category":"cultura","lat":32.30540095881014,"lng":69.56329610121362,"avgVisitMinutes":22,"estimatedCostEur":5,"score":2.4639827674361667},{"id":"wana_9761","citySlug":"wana","name":"Mirador de Wana","category":"mirador","lat":32.30150496610861,"lng":69.56256616267946,"avgVisitMinutes":23,"estimatedCostEur":16,"score":2.251433512958913},{"id":"wana_9662","citySlug":"wana","name":"Restaurante Típico de Wana","category":"gastronomia","lat":32.30430271337433,"lng":69.58214381952682,"avgVisitMinutes":31,"estimatedCostEur":21,"score":2.1691365354272234},{"id":"wana_4471","citySlug":"wana","name":"Museo Cultural de Wana","category":"cultura","lat":32.303462463170305,"lng":69.58145197973172,"avgVisitMinutes":46,"estimatedCostEur":6,"score":0.8707570519866679},{"id":"wana_7099","citySlug":"wana","name":"Ruta de Tapas","category":"gastronomia","lat":32.29947638024895,"lng":69.56809631468292,"avgVisitMinutes":51,"estimatedCostEur":3,"score":2.359175510398476},{"id":"wana_9489","citySlug":"wana","name":"Vista Alta de Wana","category":"mirador","lat":32.28957014698422,"lng":69.56785495056084,"avgVisitMinutes":39,"estimatedCostEur":1,"score":2.1807386611715915},{"id":"wana_8079","citySlug":"wana","name":"Parque Central","category":"ocio","lat":32.30870311147745,"lng":69.57494280104946,"avgVisitMinutes":82,"estimatedCostEur":17,"score":3.583821488353687},{"id":"wana_7782","citySlug":"wana","name":"Museo Local de Wana","category":"historia","lat":32.288974103883376,"lng":69.56365073586457,"avgVisitMinutes":88,"estimatedCostEur":6,"score":3.874116681755992},{"id":"wana_9990","citySlug":"wana","name":"Teatro Municipal","category":"cultura","lat":32.308805961290794,"lng":69.56522081918378,"avgVisitMinutes":27,"estimatedCostEur":3,"score":1.7446895418741935},{"id":"wana_7289","citySlug":"wana","name":"Mirador de Wana","category":"mirador","lat":32.2947111538478,"lng":69.56623624246691,"avgVisitMinutes":61,"estimatedCostEur":17,"score":4.994539335916818},{"id":"vihari_6203","citySlug":"vihari","name":"Teatro Municipal","category":"cultura","lat":30.044547394686813,"lng":72.34901831507437,"avgVisitMinutes":70,"estimatedCostEur":19,"score":2.07899174671037},{"id":"vihari_7620","citySlug":"vihari","name":"Punto Panorámico","category":"mirador","lat":30.037065448174047,"lng":72.35958977555715,"avgVisitMinutes":48,"estimatedCostEur":13,"score":3.1180560491591143},{"id":"vihari_9224","citySlug":"vihari","name":"Iglesia de Vihari","category":"historia","lat":30.03648258986618,"lng":72.36492834060991,"avgVisitMinutes":63,"estimatedCostEur":1,"score":2.9486584746767996},{"id":"vihari_8797","citySlug":"vihari","name":"Mercado Gastronómico","category":"gastronomia","lat":30.042416903164067,"lng":72.36044876736945,"avgVisitMinutes":70,"estimatedCostEur":22,"score":1.5952579690072075},{"id":"vihari_6039","citySlug":"vihari","name":"Mirador de Vihari","category":"mirador","lat":30.052130486801474,"lng":72.35915769428729,"avgVisitMinutes":50,"estimatedCostEur":2,"score":3.578874763153247},{"id":"vihari_3815","citySlug":"vihari","name":"Centro Histórico","category":"historia","lat":30.03739127273784,"lng":72.35894274000681,"avgVisitMinutes":51,"estimatedCostEur":22,"score":4.3348805104959185},{"id":"vihari_6768","citySlug":"vihari","name":"Mirador de Vihari","category":"mirador","lat":30.03685583106834,"lng":72.34671180054735,"avgVisitMinutes":46,"estimatedCostEur":5,"score":3.6562063880007036},{"id":"vihari_5011","citySlug":"vihari","name":"Punto Panorámico","category":"mirador","lat":30.050138863752004,"lng":72.36033141190484,"avgVisitMinutes":89,"estimatedCostEur":9,"score":3.624582377262341},{"id":"utmanzai_9232","citySlug":"utmanzai","name":"Museo Local de Utmanzai","category":"historia","lat":34.194775232293765,"lng":71.75839769528388,"avgVisitMinutes":28,"estimatedCostEur":1,"score":0.9665330316396856},{"id":"utmanzai_8886","citySlug":"utmanzai","name":"Murallas de Utmanzai","category":"historia","lat":34.19675810524775,"lng":71.76441365216058,"avgVisitMinutes":69,"estimatedCostEur":14,"score":1.6626499780727604},{"id":"utmanzai_1945","citySlug":"utmanzai","name":"Ruta de Tapas","category":"gastronomia","lat":34.19659156427914,"lng":71.75791476813899,"avgVisitMinutes":64,"estimatedCostEur":23,"score":0.8431763574928182},{"id":"utmanzai_5775","citySlug":"utmanzai","name":"Mercado Gastronómico","category":"gastronomia","lat":34.18130735253669,"lng":71.75337809486419,"avgVisitMinutes":82,"estimatedCostEur":21,"score":3.3402495963259757},{"id":"utmanzai_3935","citySlug":"utmanzai","name":"Centro de Arte de Utmanzai","category":"cultura","lat":34.19083910348506,"lng":71.75906135767214,"avgVisitMinutes":31,"estimatedCostEur":8,"score":4.002309043628692},{"id":"utmanzai_2657","citySlug":"utmanzai","name":"Mirador de Utmanzai","category":"mirador","lat":34.187412206492596,"lng":71.76202282449661,"avgVisitMinutes":37,"estimatedCostEur":20,"score":3.7143749383725093},{"id":"utmanzai_7046","citySlug":"utmanzai","name":"Iglesia de Utmanzai","category":"historia","lat":34.19107525000279,"lng":71.76101676521986,"avgVisitMinutes":39,"estimatedCostEur":16,"score":1.9616651877166391},{"id":"utmanzai_5207","citySlug":"utmanzai","name":"Mirador de Utmanzai","category":"mirador","lat":34.18184950870329,"lng":71.7631515316366,"avgVisitMinutes":48,"estimatedCostEur":6,"score":2.0718658808516013},{"id":"utmanzai_2786","citySlug":"utmanzai","name":"Museo Cultural de Utmanzai","category":"cultura","lat":34.180170724007404,"lng":71.77222233042443,"avgVisitMinutes":23,"estimatedCostEur":8,"score":2.3338727094016467},{"id":"utmanzai_3554","citySlug":"utmanzai","name":"Mirador de Utmanzai","category":"mirador","lat":34.19095308591689,"lng":71.75912861010426,"avgVisitMinutes":57,"estimatedCostEur":24,"score":3.545607979441418},{"id":"uthal_8663","citySlug":"uthal","name":"Ruta de Tapas","category":"gastronomia","lat":25.801406524160903,"lng":66.61578271193474,"avgVisitMinutes":22,"estimatedCostEur":14,"score":4.484973086871508},{"id":"uthal_2342","citySlug":"uthal","name":"Castillo de Uthal","category":"historia","lat":25.800794166818378,"lng":66.6173444492809,"avgVisitMinutes":45,"estimatedCostEur":3,"score":1.82406722863714},{"id":"uthal_6984","citySlug":"uthal","name":"Iglesia de Uthal","category":"historia","lat":25.81549342799106,"lng":66.61526383184619,"avgVisitMinutes":24,"estimatedCostEur":22,"score":4.529571444827995},{"id":"uthal_6498","citySlug":"uthal","name":"Centro de Arte de Uthal","category":"cultura","lat":25.816548819560634,"lng":66.63035684356716,"avgVisitMinutes":25,"estimatedCostEur":6,"score":4.058296197363522},{"id":"uthal_6440","citySlug":"uthal","name":"Galería de Arte","category":"cultura","lat":25.810229435182116,"lng":66.62413829181635,"avgVisitMinutes":32,"estimatedCostEur":3,"score":1.1007797146841356},{"id":"uthal_5419","citySlug":"uthal","name":"Centro Histórico","category":"historia","lat":25.81567441871308,"lng":66.61277319008607,"avgVisitMinutes":78,"estimatedCostEur":22,"score":1.5492816832670382},{"id":"uthal_1413","citySlug":"uthal","name":"Teatro Municipal","category":"cultura","lat":25.808272243340593,"lng":66.61275030843261,"avgVisitMinutes":65,"estimatedCostEur":5,"score":0.7462495749863163},{"id":"uthal_8213","citySlug":"uthal","name":"Zona Comercial","category":"ocio","lat":25.799665012943066,"lng":66.62371810184204,"avgVisitMinutes":72,"estimatedCostEur":24,"score":1.4207695306742727},{"id":"uthal_7928","citySlug":"uthal","name":"Zona Comercial","category":"ocio","lat":25.814381430793937,"lng":66.6196300656022,"avgVisitMinutes":52,"estimatedCostEur":17,"score":1.8117719364543718},{"id":"usta-muhammad_4345","citySlug":"usta-muhammad","name":"Vista Alta de Usta Muhammad","category":"mirador","lat":28.172125408541504,"lng":68.03749820789028,"avgVisitMinutes":56,"estimatedCostEur":22,"score":2.4411147140356064},{"id":"usta-muhammad_4125","citySlug":"usta-muhammad","name":"Paseo Principal","category":"ocio","lat":28.172397180979196,"lng":68.04766253636014,"avgVisitMinutes":82,"estimatedCostEur":16,"score":3.307706022692345},{"id":"usta-muhammad_3666","citySlug":"usta-muhammad","name":"Playa Central","category":"playa","lat":28.18382676195922,"lng":68.04473816975117,"avgVisitMinutes":76,"estimatedCostEur":7,"score":3.3818309573723884},{"id":"usta-muhammad_4790","citySlug":"usta-muhammad","name":"Castillo de Usta Muhammad","category":"historia","lat":28.183092958610004,"lng":68.04541407441748,"avgVisitMinutes":80,"estimatedCostEur":20,"score":1.0875185409519226},{"id":"usta-muhammad_4569","citySlug":"usta-muhammad","name":"Centro Histórico","category":"historia","lat":28.168782622177503,"lng":68.0471293230179,"avgVisitMinutes":69,"estimatedCostEur":6,"score":3.4949843337181594},{"id":"usta-muhammad_6661","citySlug":"usta-muhammad","name":"Playa Sur","category":"playa","lat":28.178486138190575,"lng":68.03870785433105,"avgVisitMinutes":55,"estimatedCostEur":9,"score":3.4635818347432674},{"id":"usta-muhammad_5916","citySlug":"usta-muhammad","name":"Zona Comercial","category":"ocio","lat":28.180508106169935,"lng":68.04582683472091,"avgVisitMinutes":34,"estimatedCostEur":20,"score":4.796593735864373},{"id":"umarkot_3407","citySlug":"umarkot","name":"Paseo Principal","category":"ocio","lat":25.356468401896098,"lng":69.73446842540469,"avgVisitMinutes":27,"estimatedCostEur":16,"score":4.02342089668689},{"id":"umarkot_7988","citySlug":"umarkot","name":"Murallas de Umarkot","category":"historia","lat":25.36453275603057,"lng":69.73523785161382,"avgVisitMinutes":49,"estimatedCostEur":0,"score":1.925277486612711},{"id":"umarkot_3350","citySlug":"umarkot","name":"Playa Norte","category":"playa","lat":25.36145706492002,"lng":69.73610341665842,"avgVisitMinutes":56,"estimatedCostEur":22,"score":0.7270556567254072},{"id":"umarkot_6627","citySlug":"umarkot","name":"Murallas de Umarkot","category":"historia","lat":25.35356493668487,"lng":69.74880655094317,"avgVisitMinutes":77,"estimatedCostEur":12,"score":1.6165005359322764},{"id":"umarkot_7597","citySlug":"umarkot","name":"Playa Norte","category":"playa","lat":25.358459810603495,"lng":69.74645276500391,"avgVisitMinutes":52,"estimatedCostEur":4,"score":3.2400021842273956},{"id":"umarkot_8936","citySlug":"umarkot","name":"Zona Comercial","category":"ocio","lat":25.36352758018047,"lng":69.74963128453874,"avgVisitMinutes":50,"estimatedCostEur":3,"score":4.5825126887483},{"id":"umarkot_9122","citySlug":"umarkot","name":"Punto Panorámico","category":"mirador","lat":25.361460868857982,"lng":69.75150979319127,"avgVisitMinutes":74,"estimatedCostEur":1,"score":4.037875555501744},{"id":"umarkot_1990","citySlug":"umarkot","name":"Teatro Municipal","category":"cultura","lat":25.37063058492293,"lng":69.74472748612142,"avgVisitMinutes":82,"estimatedCostEur":7,"score":2.461160529719535},{"id":"umarkot_1304","citySlug":"umarkot","name":"Mercado Gastronómico","category":"gastronomia","lat":25.35763779354076,"lng":69.74317560501349,"avgVisitMinutes":43,"estimatedCostEur":16,"score":1.920934575430398},{"id":"umarkot_6154","citySlug":"umarkot","name":"Mercado Gastronómico","category":"gastronomia","lat":25.360908083242087,"lng":69.73245672345925,"avgVisitMinutes":64,"estimatedCostEur":13,"score":3.4849782353305216},{"id":"ubauro_9582","citySlug":"ubauro","name":"Parque Central","category":"ocio","lat":28.173435334894595,"lng":69.7276547921262,"avgVisitMinutes":25,"estimatedCostEur":17,"score":2.4410969364981323},{"id":"ubauro_3648","citySlug":"ubauro","name":"Restaurante Típico de Ubauro","category":"gastronomia","lat":28.166332351647707,"lng":69.73568065950572,"avgVisitMinutes":87,"estimatedCostEur":21,"score":3.7484061742587986},{"id":"ubauro_4232","citySlug":"ubauro","name":"Iglesia de Ubauro","category":"historia","lat":28.170127580863358,"lng":69.72272249317741,"avgVisitMinutes":69,"estimatedCostEur":18,"score":1.1877950692572379},{"id":"ubauro_6137","citySlug":"ubauro","name":"Centro Histórico","category":"historia","lat":28.160715532214574,"lng":69.73295109443443,"avgVisitMinutes":24,"estimatedCostEur":19,"score":3.544819058416748},{"id":"ubauro_8852","citySlug":"ubauro","name":"Ruta de Tapas","category":"gastronomia","lat":28.16462867154846,"lng":69.7333026863987,"avgVisitMinutes":89,"estimatedCostEur":25,"score":1.4598358059419438},{"id":"ubauro_8714","citySlug":"ubauro","name":"Punto Panorámico","category":"mirador","lat":28.163953669416053,"lng":69.73784009635088,"avgVisitMinutes":28,"estimatedCostEur":17,"score":3.526834262857767},{"id":"turbat_6469","citySlug":"turbat","name":"Museo Cultural de Turbat","category":"cultura","lat":25.99134500173337,"lng":63.05687234595022,"avgVisitMinutes":72,"estimatedCostEur":0,"score":3.797296421469804},{"id":"turbat_8662","citySlug":"turbat","name":"Galería de Arte","category":"cultura","lat":26.009995877932063,"lng":63.05282784562852,"avgVisitMinutes":54,"estimatedCostEur":18,"score":2.1940458054748735},{"id":"turbat_8883","citySlug":"turbat","name":"Mercado Gastronómico","category":"gastronomia","lat":25.9971600162522,"lng":63.04048835791584,"avgVisitMinutes":55,"estimatedCostEur":11,"score":1.4328097275742349},{"id":"turbat_4859","citySlug":"turbat","name":"Mercado Gastronómico","category":"gastronomia","lat":25.994657763351125,"lng":63.04244315833211,"avgVisitMinutes":74,"estimatedCostEur":1,"score":2.8686021143684197},{"id":"turbat_2216","citySlug":"turbat","name":"Centro de Arte de Turbat","category":"cultura","lat":26.0037683258814,"lng":63.04484907704578,"avgVisitMinutes":75,"estimatedCostEur":14,"score":2.8540682446650796},{"id":"turbat_8441","citySlug":"turbat","name":"Paseo Principal","category":"ocio","lat":25.993005808665686,"lng":63.049685653666565,"avgVisitMinutes":65,"estimatedCostEur":7,"score":1.0124100528801874},{"id":"tordher_6762","citySlug":"tordher","name":"Ruta de Tapas","category":"gastronomia","lat":33.99089863662805,"lng":72.27658713166649,"avgVisitMinutes":84,"estimatedCostEur":14,"score":3.392511252300785},{"id":"tordher_7600","citySlug":"tordher","name":"Zona Comercial","category":"ocio","lat":33.99267907102176,"lng":72.29219715788659,"avgVisitMinutes":21,"estimatedCostEur":18,"score":3.227909703363144},{"id":"tordher_3122","citySlug":"tordher","name":"Playa Norte","category":"playa","lat":33.98528559564044,"lng":72.28686102777857,"avgVisitMinutes":22,"estimatedCostEur":3,"score":1.723871793814127},{"id":"tordher_6383","citySlug":"tordher","name":"Mirador de Tordher","category":"mirador","lat":33.98487043057884,"lng":72.27921889996178,"avgVisitMinutes":39,"estimatedCostEur":11,"score":1.3717813443353333},{"id":"tordher_6402","citySlug":"tordher","name":"Parque Central","category":"ocio","lat":33.99628911309321,"lng":72.28807412767668,"avgVisitMinutes":80,"estimatedCostEur":16,"score":4.40787624108455},{"id":"tordher_2156","citySlug":"tordher","name":"Mirador de Tordher","category":"mirador","lat":33.9858849652453,"lng":72.29429144142784,"avgVisitMinutes":47,"estimatedCostEur":20,"score":3.9111059144958538},{"id":"tordher_1168","citySlug":"tordher","name":"Murallas de Tordher","category":"historia","lat":33.98772550521774,"lng":72.2924808427873,"avgVisitMinutes":70,"estimatedCostEur":23,"score":1.858535096518803},{"id":"tordher_9946","citySlug":"tordher","name":"Vista Alta de Tordher","category":"mirador","lat":34.00027036319629,"lng":72.28127048585456,"avgVisitMinutes":47,"estimatedCostEur":24,"score":2.844650862069461},{"id":"tordher_1896","citySlug":"tordher","name":"Playa Sur","category":"playa","lat":33.98065438852318,"lng":72.29125204241478,"avgVisitMinutes":57,"estimatedCostEur":4,"score":2.495457801628528},{"id":"tordher_5131","citySlug":"tordher","name":"Centro Histórico","category":"historia","lat":33.984235070587545,"lng":72.28293612285334,"avgVisitMinutes":39,"estimatedCostEur":10,"score":0.8248848583482222},{"id":"topi_3911","citySlug":"topi","name":"Mirador de Topi","category":"mirador","lat":34.07382238325016,"lng":72.62457412850995,"avgVisitMinutes":38,"estimatedCostEur":2,"score":3.5079089802981693},{"id":"topi_1739","citySlug":"topi","name":"Mirador de Topi","category":"mirador","lat":34.06362529474715,"lng":72.61500175426035,"avgVisitMinutes":62,"estimatedCostEur":14,"score":4.097274306869358},{"id":"topi_9732","citySlug":"topi","name":"Playa Central","category":"playa","lat":34.074446869272,"lng":72.61921595651332,"avgVisitMinutes":77,"estimatedCostEur":19,"score":3.6470307921655367},{"id":"topi_7411","citySlug":"topi","name":"Mirador de Topi","category":"mirador","lat":34.07305336585359,"lng":72.62464219404953,"avgVisitMinutes":42,"estimatedCostEur":3,"score":3.9325011888971115},{"id":"topi_3930","citySlug":"topi","name":"Centro de Arte de Topi","category":"cultura","lat":34.074399965024156,"lng":72.62358388529049,"avgVisitMinutes":69,"estimatedCostEur":24,"score":1.1334180670457443},{"id":"topi_5076","citySlug":"topi","name":"Murallas de Topi","category":"historia","lat":34.07885768975748,"lng":72.62264802402838,"avgVisitMinutes":60,"estimatedCostEur":13,"score":1.4475751840740012},{"id":"topi_6267","citySlug":"topi","name":"Centro Histórico","category":"historia","lat":34.06782562564589,"lng":72.62657946330725,"avgVisitMinutes":88,"estimatedCostEur":19,"score":2.647100746554056},{"id":"topi_1383","citySlug":"topi","name":"Galería de Arte","category":"cultura","lat":34.07769750404099,"lng":72.62754285471425,"avgVisitMinutes":27,"estimatedCostEur":5,"score":1.1149607827311874},{"id":"toba-tek-singh_5840","citySlug":"toba-tek-singh","name":"Galería de Arte","category":"cultura","lat":30.977736994762346,"lng":72.48752667511557,"avgVisitMinutes":87,"estimatedCostEur":8,"score":3.0676890388879836},{"id":"toba-tek-singh_6919","citySlug":"toba-tek-singh","name":"Museo Cultural de Toba Tek Singh","category":"cultura","lat":30.969908175352575,"lng":72.47836245540377,"avgVisitMinutes":50,"estimatedCostEur":3,"score":0.7558774114612228},{"id":"toba-tek-singh_1436","citySlug":"toba-tek-singh","name":"Castillo de Toba Tek Singh","category":"historia","lat":30.96305808753402,"lng":72.4804976372514,"avgVisitMinutes":39,"estimatedCostEur":2,"score":1.3555356437653627},{"id":"toba-tek-singh_9719","citySlug":"toba-tek-singh","name":"Teatro Municipal","category":"cultura","lat":30.967056461351973,"lng":72.49255726526975,"avgVisitMinutes":43,"estimatedCostEur":6,"score":3.229028435028529},{"id":"toba-tek-singh_2817","citySlug":"toba-tek-singh","name":"Galería de Arte","category":"cultura","lat":30.974893052667294,"lng":72.47546772176727,"avgVisitMinutes":50,"estimatedCostEur":0,"score":1.047600941065892},{"id":"toba-tek-singh_8995","citySlug":"toba-tek-singh","name":"Galería de Arte","category":"cultura","lat":30.965596620272578,"lng":72.48171704148352,"avgVisitMinutes":26,"estimatedCostEur":11,"score":3.4935775658655226},{"id":"toba-tek-singh_8334","citySlug":"toba-tek-singh","name":"Punto Panorámico","category":"mirador","lat":30.962545209005324,"lng":72.4761134043814,"avgVisitMinutes":60,"estimatedCostEur":15,"score":3.5880190268009},{"id":"toba-tek-singh_3672","citySlug":"toba-tek-singh","name":"Centro de Arte de Toba Tek Singh","category":"cultura","lat":30.97122699408993,"lng":72.47697451708306,"avgVisitMinutes":44,"estimatedCostEur":1,"score":0.587855651760717},{"id":"toba-tek-singh_1342","citySlug":"toba-tek-singh","name":"Galería de Arte","category":"cultura","lat":30.975436656611883,"lng":72.48635210084406,"avgVisitMinutes":53,"estimatedCostEur":19,"score":3.5142398926881553},{"id":"toba-tek-singh_7388","citySlug":"toba-tek-singh","name":"Galería de Arte","category":"cultura","lat":30.974586087931534,"lng":72.48095047650473,"avgVisitMinutes":31,"estimatedCostEur":18,"score":1.3277785854192432},{"id":"thul_1849","citySlug":"thul","name":"Iglesia de Thul","category":"historia","lat":28.2453379028562,"lng":68.76921391450408,"avgVisitMinutes":21,"estimatedCostEur":11,"score":1.6692000923057373},{"id":"thul_3218","citySlug":"thul","name":"Museo Local de Thul","category":"historia","lat":28.231661387603555,"lng":68.76804675920006,"avgVisitMinutes":61,"estimatedCostEur":21,"score":2.420678157839375},{"id":"thul_6742","citySlug":"thul","name":"Mercado Gastronómico","category":"gastronomia","lat":28.235570915903757,"lng":68.77780649740134,"avgVisitMinutes":66,"estimatedCostEur":3,"score":1.2084815559397717},{"id":"thul_2154","citySlug":"thul","name":"Restaurante Típico de Thul","category":"gastronomia","lat":28.249408945748364,"lng":68.78027399043022,"avgVisitMinutes":35,"estimatedCostEur":3,"score":2.739010111901672},{"id":"thul_3155","citySlug":"thul","name":"Vista Alta de Thul","category":"mirador","lat":28.2346401480495,"lng":68.77107725649304,"avgVisitMinutes":46,"estimatedCostEur":0,"score":1.1044188210361223},{"id":"thul_7779","citySlug":"thul","name":"Vista Alta de Thul","category":"mirador","lat":28.231808359038524,"lng":68.77235894965771,"avgVisitMinutes":69,"estimatedCostEur":1,"score":4.396984920907179},{"id":"thul_6352","citySlug":"thul","name":"Museo Cultural de Thul","category":"cultura","lat":28.250047900786885,"lng":68.77186916085688,"avgVisitMinutes":29,"estimatedCostEur":5,"score":3.9111056103863837},{"id":"thul_8919","citySlug":"thul","name":"Mercado Gastronómico","category":"gastronomia","lat":28.237273042145105,"lng":68.77590018206135,"avgVisitMinutes":50,"estimatedCostEur":12,"score":1.400421204734817},{"id":"thul_6422","citySlug":"thul","name":"Playa Sur","category":"playa","lat":28.244868037672603,"lng":68.77607576564475,"avgVisitMinutes":73,"estimatedCostEur":12,"score":0.8174746489302338},{"id":"thatta_3487","citySlug":"thatta","name":"Iglesia de Thatta","category":"historia","lat":24.75537934479965,"lng":67.91667516936575,"avgVisitMinutes":50,"estimatedCostEur":14,"score":3.0865149581212235},{"id":"thatta_3339","citySlug":"thatta","name":"Iglesia de Thatta","category":"historia","lat":24.750576851804365,"lng":67.92306134939723,"avgVisitMinutes":79,"estimatedCostEur":24,"score":1.945742173062142},{"id":"thatta_3430","citySlug":"thatta","name":"Mercado Gastronómico","category":"gastronomia","lat":24.757332508145346,"lng":67.93123948178862,"avgVisitMinutes":47,"estimatedCostEur":17,"score":1.2494735226621243},{"id":"thatta_4958","citySlug":"thatta","name":"Murallas de Thatta","category":"historia","lat":24.755707657134835,"lng":67.92117791839566,"avgVisitMinutes":81,"estimatedCostEur":18,"score":3.6926090576042547},{"id":"thatta_1486","citySlug":"thatta","name":"Ruta de Tapas","category":"gastronomia","lat":24.75167277009326,"lng":67.91898465586775,"avgVisitMinutes":22,"estimatedCostEur":21,"score":4.808303022124237},{"id":"thatta_3621","citySlug":"thatta","name":"Zona Comercial","category":"ocio","lat":24.745033646451496,"lng":67.92158798189966,"avgVisitMinutes":37,"estimatedCostEur":9,"score":1.8467831298781408},{"id":"thatta_1413","citySlug":"thatta","name":"Restaurante Típico de Thatta","category":"gastronomia","lat":24.752157566698767,"lng":67.93235955015008,"avgVisitMinutes":85,"estimatedCostEur":1,"score":3.9694982864109973},{"id":"tharu-shah_5731","citySlug":"tharu-shah","name":"Playa Norte","category":"playa","lat":26.95100808731807,"lng":68.10792530828222,"avgVisitMinutes":82,"estimatedCostEur":19,"score":3.3485647713612128},{"id":"tharu-shah_8086","citySlug":"tharu-shah","name":"Castillo de Tharu Shah","category":"historia","lat":26.93588829282444,"lng":68.12445259361574,"avgVisitMinutes":43,"estimatedCostEur":0,"score":0.8228444481223711},{"id":"tharu-shah_3530","citySlug":"tharu-shah","name":"Zona Comercial","category":"ocio","lat":26.94477380014375,"lng":68.12418139453663,"avgVisitMinutes":59,"estimatedCostEur":14,"score":4.053075989159414},{"id":"tharu-shah_2130","citySlug":"tharu-shah","name":"Museo Local de Tharu Shah","category":"historia","lat":26.949914813027593,"lng":68.11425059869691,"avgVisitMinutes":69,"estimatedCostEur":12,"score":0.526888388774329},{"id":"tharu-shah_9722","citySlug":"tharu-shah","name":"Restaurante Típico de Tharu Shah","category":"gastronomia","lat":26.946134968575773,"lng":68.10816517281059,"avgVisitMinutes":77,"estimatedCostEur":11,"score":1.3452480667953315},{"id":"tharu-shah_8915","citySlug":"tharu-shah","name":"Parque Central","category":"ocio","lat":26.941246677932018,"lng":68.12415868089485,"avgVisitMinutes":29,"estimatedCostEur":0,"score":2.3937529601015832},{"id":"tharu-shah_7242","citySlug":"tharu-shah","name":"Museo Local de Tharu Shah","category":"historia","lat":26.93695745449253,"lng":68.11639294491067,"avgVisitMinutes":82,"estimatedCostEur":18,"score":3.2786592574326057},{"id":"tharu-shah_6893","citySlug":"tharu-shah","name":"Parque Central","category":"ocio","lat":26.94576720327797,"lng":68.12453114304414,"avgVisitMinutes":28,"estimatedCostEur":18,"score":2.050229694506341},{"id":"tharu-shah_6007","citySlug":"tharu-shah","name":"Zona Comercial","category":"ocio","lat":26.947118044461533,"lng":68.11651381895695,"avgVisitMinutes":23,"estimatedCostEur":0,"score":1.4941121726726485},{"id":"tharu-shah_8773","citySlug":"tharu-shah","name":"Galería de Arte","category":"cultura","lat":26.945602430615644,"lng":68.11833510580658,"avgVisitMinutes":28,"estimatedCostEur":7,"score":3.474162447174232},{"id":"tharu-shah_5174","citySlug":"tharu-shah","name":"Museo Local de Tharu Shah","category":"historia","lat":26.948848721107108,"lng":68.12153154897231,"avgVisitMinutes":76,"estimatedCostEur":24,"score":1.9570708319456396},{"id":"thamewali_2197","citySlug":"thamewali","name":"Teatro Municipal","category":"cultura","lat":32.789847611630755,"lng":71.78046136617554,"avgVisitMinutes":84,"estimatedCostEur":8,"score":3.669408293880152},{"id":"thamewali_4421","citySlug":"thamewali","name":"Mirador de Thamewali","category":"mirador","lat":32.780843155825806,"lng":71.78615060752212,"avgVisitMinutes":51,"estimatedCostEur":15,"score":3.2954416493908805},{"id":"thamewali_2134","citySlug":"thamewali","name":"Museo Cultural de Thamewali","category":"cultura","lat":32.7825762466268,"lng":71.77443327760709,"avgVisitMinutes":86,"estimatedCostEur":5,"score":2.736576465564153},{"id":"thamewali_8984","citySlug":"thamewali","name":"Mercado Gastronómico","category":"gastronomia","lat":32.77657337960953,"lng":71.77152486285631,"avgVisitMinutes":87,"estimatedCostEur":3,"score":2.13815764903746},{"id":"thamewali_7245","citySlug":"thamewali","name":"Playa Sur","category":"playa","lat":32.784340634706105,"lng":71.79004845092123,"avgVisitMinutes":23,"estimatedCostEur":15,"score":2.678576178214003},{"id":"thamewali_7770","citySlug":"thamewali","name":"Ruta de Tapas","category":"gastronomia","lat":32.79332343450946,"lng":71.7766233526022,"avgVisitMinutes":87,"estimatedCostEur":20,"score":4.349791919638218},{"id":"thamewali_2734","citySlug":"thamewali","name":"Centro Histórico","category":"historia","lat":32.77849714858636,"lng":71.77357848188544,"avgVisitMinutes":38,"estimatedCostEur":23,"score":4.76660010150404},{"id":"thamewali_6014","citySlug":"thamewali","name":"Parque Central","category":"ocio","lat":32.78912698993663,"lng":71.77431409971888,"avgVisitMinutes":52,"estimatedCostEur":17,"score":3.177721104370608},{"id":"thamewali_2894","citySlug":"thamewali","name":"Vista Alta de Thamewali","category":"mirador","lat":32.78205128645552,"lng":71.78365423727554,"avgVisitMinutes":34,"estimatedCostEur":0,"score":4.860435317029954},{"id":"taunsa_4505","citySlug":"taunsa","name":"Ruta de Tapas","category":"gastronomia","lat":30.697764173539763,"lng":70.6528481400759,"avgVisitMinutes":76,"estimatedCostEur":9,"score":2.5572868174464727},{"id":"taunsa_4740","citySlug":"taunsa","name":"Playa Sur","category":"playa","lat":30.705339580151698,"lng":70.6478669372246,"avgVisitMinutes":40,"estimatedCostEur":13,"score":4.307025403013423},{"id":"taunsa_9331","citySlug":"taunsa","name":"Zona Comercial","category":"ocio","lat":30.706634288464272,"lng":70.65980340785558,"avgVisitMinutes":63,"estimatedCostEur":16,"score":3.53123766086653},{"id":"taunsa_3562","citySlug":"taunsa","name":"Punto Panorámico","category":"mirador","lat":30.7067542470325,"lng":70.65503218161619,"avgVisitMinutes":47,"estimatedCostEur":19,"score":1.6651473448748786},{"id":"taunsa_1947","citySlug":"taunsa","name":"Mercado Gastronómico","category":"gastronomia","lat":30.712825013020883,"lng":70.65281065774647,"avgVisitMinutes":88,"estimatedCostEur":15,"score":1.6199589369113323},{"id":"tank_6660","citySlug":"tank","name":"Museo Local de Tank","category":"historia","lat":32.22564045409544,"lng":70.3760446560538,"avgVisitMinutes":50,"estimatedCostEur":18,"score":3.71739212494842},{"id":"tank_6958","citySlug":"tank","name":"Mercado Gastronómico","category":"gastronomia","lat":32.20731682044174,"lng":70.3738015813436,"avgVisitMinutes":48,"estimatedCostEur":7,"score":2.2335840352960665},{"id":"tank_5228","citySlug":"tank","name":"Iglesia de Tank","category":"historia","lat":32.22128348795077,"lng":70.38100809131772,"avgVisitMinutes":42,"estimatedCostEur":5,"score":4.206340538220941},{"id":"tank_8725","citySlug":"tank","name":"Punto Panorámico","category":"mirador","lat":32.21889144568354,"lng":70.39262044595235,"avgVisitMinutes":57,"estimatedCostEur":8,"score":2.024211979032094},{"id":"tank_7299","citySlug":"tank","name":"Ruta de Tapas","category":"gastronomia","lat":32.21742737278485,"lng":70.37877658095707,"avgVisitMinutes":58,"estimatedCostEur":10,"score":2.167109341394233},{"id":"tank_7210","citySlug":"tank","name":"Castillo de Tank","category":"historia","lat":32.22508945589838,"lng":70.38961395051736,"avgVisitMinutes":90,"estimatedCostEur":24,"score":4.7545758701528795},{"id":"tank_3543","citySlug":"tank","name":"Punto Panorámico","category":"mirador","lat":32.219648196053505,"lng":70.3893305640141,"avgVisitMinutes":29,"estimatedCostEur":12,"score":1.9921008659498503},{"id":"tangwani_8274","citySlug":"tangwani","name":"Mercado Gastronómico","category":"gastronomia","lat":28.278384702165724,"lng":69.00293682594341,"avgVisitMinutes":32,"estimatedCostEur":8,"score":2.2618559624703414},{"id":"tangwani_9620","citySlug":"tangwani","name":"Vista Alta de Tangwani","category":"mirador","lat":28.28266693759179,"lng":68.98995963718316,"avgVisitMinutes":72,"estimatedCostEur":23,"score":3.5647672707852593},{"id":"tangwani_6947","citySlug":"tangwani","name":"Murallas de Tangwani","category":"historia","lat":28.286950951819996,"lng":69.00011310003147,"avgVisitMinutes":33,"estimatedCostEur":13,"score":0.7261692288090402},{"id":"tangwani_3235","citySlug":"tangwani","name":"Vista Alta de Tangwani","category":"mirador","lat":28.277299780472127,"lng":69.00740349365454,"avgVisitMinutes":65,"estimatedCostEur":15,"score":3.029107919273401},{"id":"tangwani_6137","citySlug":"tangwani","name":"Restaurante Típico de Tangwani","category":"gastronomia","lat":28.285358938758932,"lng":68.98971984920644,"avgVisitMinutes":51,"estimatedCostEur":12,"score":1.321242846415977},{"id":"tangwani_3737","citySlug":"tangwani","name":"Centro Histórico","category":"historia","lat":28.283344080756656,"lng":68.99323152621345,"avgVisitMinutes":39,"estimatedCostEur":17,"score":4.53805528163778},{"id":"tangi_6813","citySlug":"tangi","name":"Playa Norte","category":"playa","lat":34.2931545616265,"lng":71.6456589833761,"avgVisitMinutes":35,"estimatedCostEur":21,"score":2.4001377206505667},{"id":"tangi_9529","citySlug":"tangi","name":"Parque Central","category":"ocio","lat":34.30648309555297,"lng":71.65483000083168,"avgVisitMinutes":25,"estimatedCostEur":8,"score":0.6325581677048965},{"id":"tangi_3908","citySlug":"tangi","name":"Punto Panorámico","category":"mirador","lat":34.296786676329376,"lng":71.64421792246499,"avgVisitMinutes":44,"estimatedCostEur":2,"score":4.4056701686860045},{"id":"tangi_1960","citySlug":"tangi","name":"Playa Norte","category":"playa","lat":34.29612146470658,"lng":71.65685921407112,"avgVisitMinutes":71,"estimatedCostEur":1,"score":4.930973957334933},{"id":"tangi_3265","citySlug":"tangi","name":"Vista Alta de Tangi","category":"mirador","lat":34.30420079094638,"lng":71.66223625524077,"avgVisitMinutes":67,"estimatedCostEur":6,"score":4.106126764391462},{"id":"tangi_6687","citySlug":"tangi","name":"Paseo Principal","category":"ocio","lat":34.29282485082011,"lng":71.64795334969219,"avgVisitMinutes":37,"estimatedCostEur":5,"score":0.8270835685781605},{"id":"tangi_1054","citySlug":"tangi","name":"Museo Cultural de Tangi","category":"cultura","lat":34.293464514928296,"lng":71.64918085119585,"avgVisitMinutes":29,"estimatedCostEur":7,"score":1.0834670043992125},{"id":"tangi_5673","citySlug":"tangi","name":"Murallas de Tangi","category":"historia","lat":34.30482685349417,"lng":71.6572616086507,"avgVisitMinutes":68,"estimatedCostEur":17,"score":1.9846632331377316},{"id":"tangi_1759","citySlug":"tangi","name":"Museo Cultural de Tangi","category":"cultura","lat":34.29450371379389,"lng":71.65695630472024,"avgVisitMinutes":57,"estimatedCostEur":7,"score":3.1305362229605764},{"id":"tando-muhammad-khan_2286","citySlug":"tando-muhammad-khan","name":"Paseo Principal","category":"ocio","lat":25.117802924116884,"lng":68.52926783122733,"avgVisitMinutes":22,"estimatedCostEur":20,"score":2.051308019966296},{"id":"tando-muhammad-khan_6456","citySlug":"tando-muhammad-khan","name":"Centro de Arte de Tando Muhammad Khan","category":"cultura","lat":25.123297779280836,"lng":68.52931865518123,"avgVisitMinutes":36,"estimatedCostEur":25,"score":3.3959734063841753},{"id":"tando-muhammad-khan_4510","citySlug":"tando-muhammad-khan","name":"Parque Central","category":"ocio","lat":25.124229330566507,"lng":68.53120948145413,"avgVisitMinutes":54,"estimatedCostEur":6,"score":3.5104176154467996},{"id":"tando-muhammad-khan_4382","citySlug":"tando-muhammad-khan","name":"Parque Central","category":"ocio","lat":25.121189964889155,"lng":68.5416281433924,"avgVisitMinutes":60,"estimatedCostEur":11,"score":3.4638264177784683},{"id":"tando-muhammad-khan_3640","citySlug":"tando-muhammad-khan","name":"Punto Panorámico","category":"mirador","lat":25.12059016232655,"lng":68.54006150689844,"avgVisitMinutes":26,"estimatedCostEur":11,"score":4.380592980278263},{"id":"tando-muhammad-khan_6472","citySlug":"tando-muhammad-khan","name":"Vista Alta de Tando Muhammad Khan","category":"mirador","lat":25.123542079807304,"lng":68.53209794011147,"avgVisitMinutes":63,"estimatedCostEur":2,"score":3.389303833401586},{"id":"tando-muhammad-khan_2885","citySlug":"tando-muhammad-khan","name":"Ruta de Tapas","category":"gastronomia","lat":25.124579825244187,"lng":68.54249958002895,"avgVisitMinutes":31,"estimatedCostEur":6,"score":1.2102229514349938},{"id":"tando-muhammad-khan_2067","citySlug":"tando-muhammad-khan","name":"Teatro Municipal","category":"cultura","lat":25.125645326547783,"lng":68.54588135359874,"avgVisitMinutes":87,"estimatedCostEur":24,"score":2.6555212267620867},{"id":"tando-mitha-khan_7873","citySlug":"tando-mitha-khan","name":"Vista Alta de Tando Mitha Khan","category":"mirador","lat":25.992383941225174,"lng":69.20307275712169,"avgVisitMinutes":73,"estimatedCostEur":4,"score":4.459318527585608},{"id":"tando-mitha-khan_7944","citySlug":"tando-mitha-khan","name":"Ruta de Tapas","category":"gastronomia","lat":25.998037085388635,"lng":69.20026146269625,"avgVisitMinutes":36,"estimatedCostEur":16,"score":1.1754926281702087},{"id":"tando-mitha-khan_5096","citySlug":"tando-mitha-khan","name":"Paseo Principal","category":"ocio","lat":26.001967195543774,"lng":69.21076023878422,"avgVisitMinutes":71,"estimatedCostEur":4,"score":2.7809419890059033},{"id":"tando-mitha-khan_8210","citySlug":"tando-mitha-khan","name":"Mirador de Tando Mitha Khan","category":"mirador","lat":25.99281375523781,"lng":69.2047462956521,"avgVisitMinutes":29,"estimatedCostEur":23,"score":4.568209472074654},{"id":"tando-mitha-khan_7632","citySlug":"tando-mitha-khan","name":"Galería de Arte","category":"cultura","lat":26.000531550322535,"lng":69.20857676381122,"avgVisitMinutes":33,"estimatedCostEur":8,"score":4.333249648695963},{"id":"tando-mitha-khan_8959","citySlug":"tando-mitha-khan","name":"Playa Central","category":"playa","lat":26.00301346412552,"lng":69.20368104422448,"avgVisitMinutes":57,"estimatedCostEur":25,"score":1.976284965981611},{"id":"tando-mitha-khan_3084","citySlug":"tando-mitha-khan","name":"Galería de Arte","category":"cultura","lat":25.99437752641028,"lng":69.19527926409529,"avgVisitMinutes":42,"estimatedCostEur":11,"score":4.560291820018056},{"id":"tando-jam_2929","citySlug":"tando-jam","name":"Parque Central","category":"ocio","lat":25.43467244460451,"lng":68.53176460248089,"avgVisitMinutes":30,"estimatedCostEur":12,"score":0.6258583330456122},{"id":"tando-jam_1790","citySlug":"tando-jam","name":"Paseo Principal","category":"ocio","lat":25.427479612419877,"lng":68.52369448348271,"avgVisitMinutes":58,"estimatedCostEur":0,"score":4.361446976760279},{"id":"tando-jam_3837","citySlug":"tando-jam","name":"Galería de Arte","category":"cultura","lat":25.42350157492332,"lng":68.52768995420267,"avgVisitMinutes":79,"estimatedCostEur":6,"score":4.434976116930502},{"id":"tando-jam_2937","citySlug":"tando-jam","name":"Castillo de Tando Jam","category":"historia","lat":25.42767147754592,"lng":68.5375238821697,"avgVisitMinutes":56,"estimatedCostEur":5,"score":1.1784050415979022},{"id":"tando-jam_1067","citySlug":"tando-jam","name":"Vista Alta de Tando Jam","category":"mirador","lat":25.4236660415595,"lng":68.53902026506063,"avgVisitMinutes":55,"estimatedCostEur":14,"score":4.6612320632833235},{"id":"tando-jam_5414","citySlug":"tando-jam","name":"Centro de Arte de Tando Jam","category":"cultura","lat":25.431365386330906,"lng":68.52653965444843,"avgVisitMinutes":58,"estimatedCostEur":6,"score":4.50399458414604},{"id":"tando-jam_1879","citySlug":"tando-jam","name":"Playa Sur","category":"playa","lat":25.429599722791416,"lng":68.53196865134211,"avgVisitMinutes":90,"estimatedCostEur":17,"score":1.9268193917302143},{"id":"tando-jam_7223","citySlug":"tando-jam","name":"Playa Norte","category":"playa","lat":25.427791893149372,"lng":68.52904385388157,"avgVisitMinutes":56,"estimatedCostEur":0,"score":4.328381635626032},{"id":"tando-jam_8376","citySlug":"tando-jam","name":"Museo Cultural de Tando Jam","category":"cultura","lat":25.423903768628616,"lng":68.52909512229265,"avgVisitMinutes":31,"estimatedCostEur":1,"score":0.7522568305597467},{"id":"tando-jam_2406","citySlug":"tando-jam","name":"Zona Comercial","category":"ocio","lat":25.436824655289588,"lng":68.53857961956237,"avgVisitMinutes":72,"estimatedCostEur":10,"score":1.1943869633301083},{"id":"tando-jam_6866","citySlug":"tando-jam","name":"Punto Panorámico","category":"mirador","lat":25.434645522836497,"lng":68.52691617125008,"avgVisitMinutes":56,"estimatedCostEur":0,"score":4.038664046418925},{"id":"tando-jam_5445","citySlug":"tando-jam","name":"Mirador de Tando Jam","category":"mirador","lat":25.43427087542493,"lng":68.52482293043104,"avgVisitMinutes":36,"estimatedCostEur":10,"score":3.3027285233074863},{"id":"tando-bago_1732","citySlug":"tando-bago","name":"Museo Cultural de Tando Bago","category":"cultura","lat":24.7820003794497,"lng":68.95806288652985,"avgVisitMinutes":72,"estimatedCostEur":11,"score":2.9979291309828002},{"id":"tando-bago_9608","citySlug":"tando-bago","name":"Mirador de Tando Bago","category":"mirador","lat":24.792378189936645,"lng":68.96829658713293,"avgVisitMinutes":43,"estimatedCostEur":14,"score":2.5391836932431477},{"id":"tando-bago_6039","citySlug":"tando-bago","name":"Punto Panorámico","category":"mirador","lat":24.79910196934582,"lng":68.96255696057486,"avgVisitMinutes":54,"estimatedCostEur":25,"score":4.923835172682237},{"id":"tando-bago_2784","citySlug":"tando-bago","name":"Galería de Arte","category":"cultura","lat":24.784197012869384,"lng":68.96801806102178,"avgVisitMinutes":47,"estimatedCostEur":21,"score":3.6911903969042275},{"id":"tando-bago_8937","citySlug":"tando-bago","name":"Museo Cultural de Tando Bago","category":"cultura","lat":24.790624080777413,"lng":68.96226208485467,"avgVisitMinutes":82,"estimatedCostEur":8,"score":1.3752454283763165},{"id":"tando-allahyar_8674","citySlug":"tando-allahyar","name":"Teatro Municipal","category":"cultura","lat":25.45838160079076,"lng":68.72451090212446,"avgVisitMinutes":65,"estimatedCostEur":12,"score":4.333738826696748},{"id":"tando-allahyar_6698","citySlug":"tando-allahyar","name":"Punto Panorámico","category":"mirador","lat":25.464448777909155,"lng":68.70746347404607,"avgVisitMinutes":41,"estimatedCostEur":11,"score":3.1089541987125258},{"id":"tando-allahyar_2437","citySlug":"tando-allahyar","name":"Galería de Arte","category":"cultura","lat":25.45732912752462,"lng":68.72609330917895,"avgVisitMinutes":71,"estimatedCostEur":19,"score":3.2246457727666127},{"id":"tando-allahyar_3635","citySlug":"tando-allahyar","name":"Zona Comercial","category":"ocio","lat":25.462435642445925,"lng":68.71920895064984,"avgVisitMinutes":53,"estimatedCostEur":9,"score":4.204374739526279},{"id":"tando-allahyar_3361","citySlug":"tando-allahyar","name":"Galería de Arte","category":"cultura","lat":25.450754363382053,"lng":68.71665764402412,"avgVisitMinutes":73,"estimatedCostEur":16,"score":4.196688802460049},{"id":"tando-allahyar_3165","citySlug":"tando-allahyar","name":"Playa Central","category":"playa","lat":25.454007365716116,"lng":68.71748754447181,"avgVisitMinutes":42,"estimatedCostEur":15,"score":4.45940600985379},{"id":"tando-allahyar_1796","citySlug":"tando-allahyar","name":"Ruta de Tapas","category":"gastronomia","lat":25.458375835519618,"lng":68.71278832789987,"avgVisitMinutes":83,"estimatedCostEur":2,"score":3.9323024995313025},{"id":"tando-allahyar_2977","citySlug":"tando-allahyar","name":"Punto Panorámico","category":"mirador","lat":25.46250470852079,"lng":68.72464284063805,"avgVisitMinutes":76,"estimatedCostEur":2,"score":1.912235513392642},{"id":"tando-allahyar_8755","citySlug":"tando-allahyar","name":"Playa Central","category":"playa","lat":25.462765302607274,"lng":68.7260180721604,"avgVisitMinutes":75,"estimatedCostEur":14,"score":1.5408717663387708},{"id":"tando-adam_4000","citySlug":"tando-adam","name":"Castillo de Tando Adam","category":"historia","lat":25.7684857630967,"lng":68.65670307527321,"avgVisitMinutes":71,"estimatedCostEur":16,"score":2.434306175369666},{"id":"tando-adam_7136","citySlug":"tando-adam","name":"Parque Central","category":"ocio","lat":25.77475913761775,"lng":68.66777086129717,"avgVisitMinutes":40,"estimatedCostEur":8,"score":2.8554909829649624},{"id":"tando-adam_6475","citySlug":"tando-adam","name":"Playa Norte","category":"playa","lat":25.763743056216413,"lng":68.65287154921437,"avgVisitMinutes":41,"estimatedCostEur":5,"score":1.8632428788486326},{"id":"tando-adam_3944","citySlug":"tando-adam","name":"Vista Alta de Tando Adam","category":"mirador","lat":25.7732177057808,"lng":68.67036813864166,"avgVisitMinutes":79,"estimatedCostEur":8,"score":4.3126878676002205},{"id":"tando-adam_8170","citySlug":"tando-adam","name":"Playa Sur","category":"playa","lat":25.762701463179745,"lng":68.65295386189494,"avgVisitMinutes":53,"estimatedCostEur":9,"score":1.7705187159813491},{"id":"tandlianwala_7481","citySlug":"tandlianwala","name":"Playa Central","category":"playa","lat":31.04343038731326,"lng":73.13702539939096,"avgVisitMinutes":60,"estimatedCostEur":7,"score":0.7043783367040695},{"id":"tandlianwala_5971","citySlug":"tandlianwala","name":"Ruta de Tapas","category":"gastronomia","lat":31.037958054210407,"lng":73.13697390916033,"avgVisitMinutes":88,"estimatedCostEur":23,"score":3.606586974997483},{"id":"tandlianwala_9317","citySlug":"tandlianwala","name":"Museo Cultural de Tandlianwala","category":"cultura","lat":31.034741539602845,"lng":73.12993744633418,"avgVisitMinutes":40,"estimatedCostEur":11,"score":1.6689193513399259},{"id":"tandlianwala_9573","citySlug":"tandlianwala","name":"Playa Sur","category":"playa","lat":31.038317242816863,"lng":73.12294550553615,"avgVisitMinutes":24,"estimatedCostEur":12,"score":4.803013866148189},{"id":"tandlianwala_3072","citySlug":"tandlianwala","name":"Vista Alta de Tandlianwala","category":"mirador","lat":31.043547290683293,"lng":73.1241591839845,"avgVisitMinutes":56,"estimatedCostEur":6,"score":1.2813816220232228},{"id":"tandlianwala_9566","citySlug":"tandlianwala","name":"Parque Central","category":"ocio","lat":31.025728626205563,"lng":73.12937348253834,"avgVisitMinutes":76,"estimatedCostEur":15,"score":3.760894751975085},{"id":"tandlianwala_1906","citySlug":"tandlianwala","name":"Mirador de Tandlianwala","category":"mirador","lat":31.0364044370655,"lng":73.14164653912268,"avgVisitMinutes":27,"estimatedCostEur":6,"score":4.128710223156332},{"id":"tandlianwala_6220","citySlug":"tandlianwala","name":"Galería de Arte","category":"cultura","lat":31.03650781461148,"lng":73.13940524966874,"avgVisitMinutes":80,"estimatedCostEur":21,"score":4.759235131545395},{"id":"talhar_8115","citySlug":"talhar","name":"Mirador de Talhar","category":"mirador","lat":24.8930295278096,"lng":68.80751033331873,"avgVisitMinutes":47,"estimatedCostEur":24,"score":4.211326424702139},{"id":"talhar_9666","citySlug":"talhar","name":"Restaurante Típico de Talhar","category":"gastronomia","lat":24.882021877365002,"lng":68.80817473455447,"avgVisitMinutes":78,"estimatedCostEur":25,"score":1.1749861604482854},{"id":"talhar_8660","citySlug":"talhar","name":"Murallas de Talhar","category":"historia","lat":24.888705227923673,"lng":68.81432376595708,"avgVisitMinutes":21,"estimatedCostEur":14,"score":3.662859849647072},{"id":"talhar_7460","citySlug":"talhar","name":"Playa Sur","category":"playa","lat":24.87475727688986,"lng":68.80731179959295,"avgVisitMinutes":49,"estimatedCostEur":20,"score":2.656147873101507},{"id":"talhar_5675","citySlug":"talhar","name":"Mirador de Talhar","category":"mirador","lat":24.880902474395377,"lng":68.80773251586422,"avgVisitMinutes":23,"estimatedCostEur":7,"score":0.6672624898859516},{"id":"talhar_9116","citySlug":"talhar","name":"Galería de Arte","category":"cultura","lat":24.886606212778283,"lng":68.81798911322804,"avgVisitMinutes":37,"estimatedCostEur":25,"score":1.0002355554327191},{"id":"talhar_5975","citySlug":"talhar","name":"Centro Histórico","category":"historia","lat":24.890582216060256,"lng":68.81775286407584,"avgVisitMinutes":30,"estimatedCostEur":17,"score":1.1875052732561748},{"id":"talhar_3940","citySlug":"talhar","name":"Museo Local de Talhar","category":"historia","lat":24.875608357018383,"lng":68.81167697486282,"avgVisitMinutes":61,"estimatedCostEur":12,"score":3.673152367378517},{"id":"talhar_4831","citySlug":"talhar","name":"Galería de Arte","category":"cultura","lat":24.891512415871055,"lng":68.81491644805432,"avgVisitMinutes":70,"estimatedCostEur":17,"score":0.6606816517050467},{"id":"talhar_2818","citySlug":"talhar","name":"Punto Panorámico","category":"mirador","lat":24.891139822337347,"lng":68.81243072380694,"avgVisitMinutes":24,"estimatedCostEur":15,"score":4.876894093338126},{"id":"talhar_9299","citySlug":"talhar","name":"Mirador de Talhar","category":"mirador","lat":24.892916435478195,"lng":68.80756694465006,"avgVisitMinutes":40,"estimatedCostEur":21,"score":0.7636258251214276},{"id":"talhar_2491","citySlug":"talhar","name":"Murallas de Talhar","category":"historia","lat":24.884699959927108,"lng":68.81497878210754,"avgVisitMinutes":46,"estimatedCostEur":13,"score":4.609855863291955},{"id":"talamba_9929","citySlug":"talamba","name":"Zona Comercial","category":"ocio","lat":30.52372499615669,"lng":72.23589310591098,"avgVisitMinutes":27,"estimatedCostEur":17,"score":4.496662883288385},{"id":"talamba_9140","citySlug":"talamba","name":"Museo Local de Talamba","category":"historia","lat":30.531249343253798,"lng":72.25069932934242,"avgVisitMinutes":78,"estimatedCostEur":14,"score":3.437384438060522},{"id":"talamba_7356","citySlug":"talamba","name":"Teatro Municipal","category":"cultura","lat":30.52794026817342,"lng":72.24409547949503,"avgVisitMinutes":90,"estimatedCostEur":3,"score":3.249881230720395},{"id":"talamba_5463","citySlug":"talamba","name":"Ruta de Tapas","category":"gastronomia","lat":30.519588781168444,"lng":72.23916988877757,"avgVisitMinutes":77,"estimatedCostEur":9,"score":0.9139653170373975},{"id":"talamba_8453","citySlug":"talamba","name":"Vista Alta de Talamba","category":"mirador","lat":30.53660271549669,"lng":72.23952238095208,"avgVisitMinutes":61,"estimatedCostEur":24,"score":4.600230530405596},{"id":"talamba_7881","citySlug":"talamba","name":"Paseo Principal","category":"ocio","lat":30.532582903157717,"lng":72.24242229911624,"avgVisitMinutes":45,"estimatedCostEur":7,"score":3.6536319510526916},{"id":"talagang_8740","citySlug":"talagang","name":"Museo Local de Talagang","category":"historia","lat":32.93745196447465,"lng":72.41112529897104,"avgVisitMinutes":30,"estimatedCostEur":15,"score":1.771688318347483},{"id":"talagang_9053","citySlug":"talagang","name":"Mercado Gastronómico","category":"gastronomia","lat":32.93669858835441,"lng":72.40917444074283,"avgVisitMinutes":63,"estimatedCostEur":5,"score":3.2577408461195247},{"id":"talagang_7308","citySlug":"talagang","name":"Zona Comercial","category":"ocio","lat":32.926815043202886,"lng":72.41292338518572,"avgVisitMinutes":90,"estimatedCostEur":5,"score":4.7977917881958865},{"id":"talagang_3484","citySlug":"talagang","name":"Restaurante Típico de Talagang","category":"gastronomia","lat":32.927300774488955,"lng":72.41678097898492,"avgVisitMinutes":64,"estimatedCostEur":5,"score":4.709378611132337},{"id":"talagang_7092","citySlug":"talagang","name":"Castillo de Talagang","category":"historia","lat":32.92991608005332,"lng":72.41801202273685,"avgVisitMinutes":31,"estimatedCostEur":25,"score":0.7122466016445921},{"id":"talagang_9118","citySlug":"talagang","name":"Mercado Gastronómico","category":"gastronomia","lat":32.920496508890515,"lng":72.40993112372445,"avgVisitMinutes":45,"estimatedCostEur":20,"score":2.5618877571817325},{"id":"talagang_5500","citySlug":"talagang","name":"Restaurante Típico de Talagang","category":"gastronomia","lat":32.928073413323055,"lng":72.41271224407609,"avgVisitMinutes":79,"estimatedCostEur":9,"score":4.980505365489399},{"id":"talagang_1214","citySlug":"talagang","name":"Mercado Gastronómico","category":"gastronomia","lat":32.93592983984061,"lng":72.41744576298956,"avgVisitMinutes":90,"estimatedCostEur":21,"score":2.376185323183687},{"id":"talagang_5345","citySlug":"talagang","name":"Vista Alta de Talagang","category":"mirador","lat":32.92355084206594,"lng":72.42381297001386,"avgVisitMinutes":32,"estimatedCostEur":22,"score":4.314095702255085},{"id":"thal_6096","citySlug":"thal","name":"Restaurante Típico de Thal","category":"gastronomia","lat":35.47296541535764,"lng":72.24684511618877,"avgVisitMinutes":62,"estimatedCostEur":24,"score":3.9450444253565418},{"id":"thal_3234","citySlug":"thal","name":"Punto Panorámico","category":"mirador","lat":35.474679986381894,"lng":72.24416134311356,"avgVisitMinutes":71,"estimatedCostEur":4,"score":0.9442994752860383},{"id":"thal_6872","citySlug":"thal","name":"Paseo Principal","category":"ocio","lat":35.47358006152084,"lng":72.23959125079183,"avgVisitMinutes":53,"estimatedCostEur":21,"score":0.9144931335468132},{"id":"thal_7818","citySlug":"thal","name":"Museo Cultural de Thal","category":"cultura","lat":35.47396926232674,"lng":72.23549077925152,"avgVisitMinutes":60,"estimatedCostEur":23,"score":2.0201307040896617},{"id":"thal_3036","citySlug":"thal","name":"Playa Norte","category":"playa","lat":35.47556735347157,"lng":72.23401342540886,"avgVisitMinutes":70,"estimatedCostEur":4,"score":1.7084565611413858},{"id":"thal_6618","citySlug":"thal","name":"Playa Norte","category":"playa","lat":35.478531726294875,"lng":72.24092326101223,"avgVisitMinutes":77,"estimatedCostEur":12,"score":1.4825984759290618},{"id":"swabi_6186","citySlug":"swabi","name":"Zona Comercial","category":"ocio","lat":34.11768446414424,"lng":72.46929374728207,"avgVisitMinutes":76,"estimatedCostEur":18,"score":4.681421602566676},{"id":"swabi_2051","citySlug":"swabi","name":"Playa Sur","category":"playa","lat":34.118054734165284,"lng":72.46125061043978,"avgVisitMinutes":71,"estimatedCostEur":16,"score":0.6186193454716462},{"id":"swabi_3409","citySlug":"swabi","name":"Paseo Principal","category":"ocio","lat":34.118988772103194,"lng":72.46080076541453,"avgVisitMinutes":81,"estimatedCostEur":19,"score":3.0946129069606743},{"id":"swabi_5474","citySlug":"swabi","name":"Castillo de Swabi","category":"historia","lat":34.1147000805411,"lng":72.4772871933061,"avgVisitMinutes":89,"estimatedCostEur":0,"score":0.6354516423534298},{"id":"swabi_1234","citySlug":"swabi","name":"Museo Cultural de Swabi","category":"cultura","lat":34.12982790488054,"lng":72.46580757171824,"avgVisitMinutes":24,"estimatedCostEur":19,"score":2.6061394478676685},{"id":"swabi_3345","citySlug":"swabi","name":"Galería de Arte","category":"cultura","lat":34.11651815381176,"lng":72.46342014238286,"avgVisitMinutes":78,"estimatedCostEur":6,"score":1.1808431321576167},{"id":"swabi_5861","citySlug":"swabi","name":"Playa Central","category":"playa","lat":34.114509127755966,"lng":72.47921788502731,"avgVisitMinutes":54,"estimatedCostEur":8,"score":1.0820336818508478},{"id":"swabi_9799","citySlug":"swabi","name":"Parque Central","category":"ocio","lat":34.11991260964746,"lng":72.46226769035535,"avgVisitMinutes":83,"estimatedCostEur":4,"score":2.2508613612380945},{"id":"swabi_8011","citySlug":"swabi","name":"Zona Comercial","category":"ocio","lat":34.12160975151018,"lng":72.46551798869768,"avgVisitMinutes":33,"estimatedCostEur":4,"score":1.0964739546143432},{"id":"swabi_3599","citySlug":"swabi","name":"Paseo Principal","category":"ocio","lat":34.11734974219222,"lng":72.47550374974016,"avgVisitMinutes":62,"estimatedCostEur":18,"score":4.2743343872791915},{"id":"surkhpur_3813","citySlug":"surkhpur","name":"Museo Local de Surkhpur","category":"historia","lat":32.71752838576039,"lng":74.44621231911268,"avgVisitMinutes":28,"estimatedCostEur":11,"score":4.156278332651203},{"id":"surkhpur_5156","citySlug":"surkhpur","name":"Zona Comercial","category":"ocio","lat":32.709914236351885,"lng":74.45266270718092,"avgVisitMinutes":75,"estimatedCostEur":3,"score":1.1324318880043003},{"id":"surkhpur_4290","citySlug":"surkhpur","name":"Ruta de Tapas","category":"gastronomia","lat":32.71438535812336,"lng":74.43846638084588,"avgVisitMinutes":72,"estimatedCostEur":15,"score":3.7222936646950786},{"id":"surkhpur_4182","citySlug":"surkhpur","name":"Murallas de Surkhpur","category":"historia","lat":32.717291379781166,"lng":74.44931481232467,"avgVisitMinutes":86,"estimatedCostEur":12,"score":2.064853425859552},{"id":"surkhpur_1838","citySlug":"surkhpur","name":"Ruta de Tapas","category":"gastronomia","lat":32.710332554869936,"lng":74.44386120458965,"avgVisitMinutes":59,"estimatedCostEur":17,"score":3.718574754659284},{"id":"surkhpur_7242","citySlug":"surkhpur","name":"Paseo Principal","category":"ocio","lat":32.718170880269746,"lng":74.45548855263532,"avgVisitMinutes":56,"estimatedCostEur":2,"score":1.7780989988259865},{"id":"surkhpur_8293","citySlug":"surkhpur","name":"Iglesia de Surkhpur","category":"historia","lat":32.72000141716158,"lng":74.43832150960549,"avgVisitMinutes":39,"estimatedCostEur":22,"score":2.696095205852059},{"id":"surkhpur_2780","citySlug":"surkhpur","name":"Mirador de Surkhpur","category":"mirador","lat":32.724861387107644,"lng":74.43909672622672,"avgVisitMinutes":88,"estimatedCostEur":11,"score":1.4903566102467887},{"id":"surab_2483","citySlug":"surab","name":"Centro Histórico","category":"historia","lat":28.486140945077192,"lng":66.26302197403423,"avgVisitMinutes":81,"estimatedCostEur":21,"score":4.715528548785046},{"id":"surab_6324","citySlug":"surab","name":"Zona Comercial","category":"ocio","lat":28.488320694518432,"lng":66.25677946276089,"avgVisitMinutes":73,"estimatedCostEur":25,"score":1.3134731703033702},{"id":"surab_1268","citySlug":"surab","name":"Centro de Arte de Surab","category":"cultura","lat":28.491640115492835,"lng":66.25710962606048,"avgVisitMinutes":50,"estimatedCostEur":0,"score":0.7415499328551645},{"id":"surab_9377","citySlug":"surab","name":"Centro Histórico","category":"historia","lat":28.484297638794434,"lng":66.26322688222209,"avgVisitMinutes":26,"estimatedCostEur":6,"score":3.815783743345834},{"id":"surab_5790","citySlug":"surab","name":"Teatro Municipal","category":"cultura","lat":28.493107093724827,"lng":66.25284282257402,"avgVisitMinutes":21,"estimatedCostEur":22,"score":3.7587276962041063},{"id":"surab_3849","citySlug":"surab","name":"Playa Norte","category":"playa","lat":28.48375659136052,"lng":66.26222820373556,"avgVisitMinutes":73,"estimatedCostEur":14,"score":2.0093677481780228},{"id":"surab_3939","citySlug":"surab","name":"Parque Central","category":"ocio","lat":28.491217211140814,"lng":66.25074165028113,"avgVisitMinutes":74,"estimatedCostEur":20,"score":0.7715858985384053},{"id":"sukkur_7304","citySlug":"sukkur","name":"Museo Local de Sukkur","category":"historia","lat":27.704782859918463,"lng":68.86040424348029,"avgVisitMinutes":63,"estimatedCostEur":17,"score":0.6082605160339378},{"id":"sukkur_8064","citySlug":"sukkur","name":"Playa Norte","category":"playa","lat":27.701132313928746,"lng":68.86091772602018,"avgVisitMinutes":28,"estimatedCostEur":1,"score":3.880210794275966},{"id":"sukkur_9112","citySlug":"sukkur","name":"Playa Sur","category":"playa","lat":27.694777321216467,"lng":68.86400500559766,"avgVisitMinutes":59,"estimatedCostEur":9,"score":1.3169439534186786},{"id":"sukkur_7004","citySlug":"sukkur","name":"Punto Panorámico","category":"mirador","lat":27.697518932297434,"lng":68.8662826671353,"avgVisitMinutes":51,"estimatedCostEur":19,"score":2.3098669322008765},{"id":"sukkur_8376","citySlug":"sukkur","name":"Playa Sur","category":"playa","lat":27.709747715974846,"lng":68.85296475610039,"avgVisitMinutes":78,"estimatedCostEur":17,"score":4.800605101622414},{"id":"sukkur_8884","citySlug":"sukkur","name":"Museo Local de Sukkur","category":"historia","lat":27.70177913153353,"lng":68.86157994844396,"avgVisitMinutes":74,"estimatedCostEur":10,"score":2.114106298384821},{"id":"sukheke-mandi_9363","citySlug":"sukheke-mandi","name":"Museo Cultural de Sukheke Mandi","category":"cultura","lat":31.873584128405028,"lng":73.51622390538971,"avgVisitMinutes":41,"estimatedCostEur":10,"score":0.9391171797497827},{"id":"sukheke-mandi_6088","citySlug":"sukheke-mandi","name":"Zona Comercial","category":"ocio","lat":31.873998651934613,"lng":73.51157592329506,"avgVisitMinutes":71,"estimatedCostEur":8,"score":2.7942638211512767},{"id":"sukheke-mandi_5492","citySlug":"sukheke-mandi","name":"Centro de Arte de Sukheke Mandi","category":"cultura","lat":31.862776234261066,"lng":73.50739550223587,"avgVisitMinutes":90,"estimatedCostEur":11,"score":0.8156504849890115},{"id":"sukheke-mandi_5896","citySlug":"sukheke-mandi","name":"Mirador de Sukheke Mandi","category":"mirador","lat":31.861813950573918,"lng":73.51168238816415,"avgVisitMinutes":28,"estimatedCostEur":17,"score":1.579456307646331},{"id":"sukheke-mandi_4273","citySlug":"sukheke-mandi","name":"Playa Central","category":"playa","lat":31.866041081117928,"lng":73.5101707948269,"avgVisitMinutes":24,"estimatedCostEur":11,"score":4.267017115419575},{"id":"sukheke-mandi_9759","citySlug":"sukheke-mandi","name":"Vista Alta de Sukheke Mandi","category":"mirador","lat":31.86453366779642,"lng":73.51857506155758,"avgVisitMinutes":84,"estimatedCostEur":6,"score":2.6317755515753705},{"id":"sukheke-mandi_3858","citySlug":"sukheke-mandi","name":"Galería de Arte","category":"cultura","lat":31.871628627391402,"lng":73.49967506201568,"avgVisitMinutes":72,"estimatedCostEur":16,"score":0.9332576629228359},{"id":"sukheke-mandi_3593","citySlug":"sukheke-mandi","name":"Castillo de Sukheke Mandi","category":"historia","lat":31.87471673594331,"lng":73.51845097077313,"avgVisitMinutes":41,"estimatedCostEur":21,"score":2.9330444295743243},{"id":"sukheke-mandi_8858","citySlug":"sukheke-mandi","name":"Playa Central","category":"playa","lat":31.85559212512549,"lng":73.51215971559874,"avgVisitMinutes":81,"estimatedCostEur":15,"score":3.965711193175026},{"id":"sohbatpur_5600","citySlug":"sohbatpur","name":"Restaurante Típico de Sohbatpur","category":"gastronomia","lat":28.52710489134083,"lng":68.54612442560597,"avgVisitMinutes":68,"estimatedCostEur":24,"score":3.403758766743911},{"id":"sohbatpur_9514","citySlug":"sohbatpur","name":"Museo Local de Sohbatpur","category":"historia","lat":28.51573384033308,"lng":68.53366021884221,"avgVisitMinutes":43,"estimatedCostEur":10,"score":2.952208021687902},{"id":"sohbatpur_2480","citySlug":"sohbatpur","name":"Mirador de Sohbatpur","category":"mirador","lat":28.519775504333015,"lng":68.54506914527171,"avgVisitMinutes":79,"estimatedCostEur":19,"score":4.348024807279058},{"id":"sohbatpur_8495","citySlug":"sohbatpur","name":"Punto Panorámico","category":"mirador","lat":28.51261971562557,"lng":68.54787364549085,"avgVisitMinutes":32,"estimatedCostEur":7,"score":3.052497087430317},{"id":"sohbatpur_4200","citySlug":"sohbatpur","name":"Iglesia de Sohbatpur","category":"historia","lat":28.517250215900674,"lng":68.54175405481004,"avgVisitMinutes":74,"estimatedCostEur":1,"score":3.17669024892141},{"id":"sohbatpur_3436","citySlug":"sohbatpur","name":"Zona Comercial","category":"ocio","lat":28.519396201503973,"lng":68.53859761486123,"avgVisitMinutes":87,"estimatedCostEur":6,"score":1.0755181821828046},{"id":"sohbatpur_3607","citySlug":"sohbatpur","name":"Playa Sur","category":"playa","lat":28.526871496627432,"lng":68.53428528327872,"avgVisitMinutes":44,"estimatedCostEur":11,"score":4.188538659766999},