{"country":"RW","pois":[{"id":"rwamagana_3439","citySlug":"rwamagana","name":"Playa Norte","category":"playa","lat":-1.9567497770780895,"lng":30.43392156344048,"avgVisitMinutes":30,"estimatedCostEur":10,"score":4.963130844487631},{"id":"rwamagana_1487","citySlug":"rwamagana","name":"Playa Sur","category":"playa","lat":-1.9402487505010269,"lng":30.42961760393719,"avgVisitMinutes":77,"estimatedCostEur":21,"score":3.266439825969815},{"id":"rwamagana_1486","citySlug":"rwamagana","name":"Parque Central","category":"ocio","lat":-1.9434884908347403,"lng":30.444646531784016,"avgVisitMinutes":75,"estimatedCostEur":24,"score":3.440979999270533},{"id":"rwamagana_1067","citySlug":"rwamagana","name":"Playa Norte","category":"playa","lat":-1.9392525464931838,"lng":30.434987659043315,"avgVisitMinutes":47,"estimatedCostEur":15,"score":3.0736136381644865},{"id":"rwamagana_2365","citySlug":"rwamagana","name":"Playa Sur","category":"playa","lat":-1.9420236175389942,"lng":30.42535766944634,"avgVisitMinutes":64,"estimatedCostEur":18,"score":2.213277950616975},{"id":"musanze_1474","citySlug":"musanze","name":"Zona Comercial","category":"ocio","lat":-1.4973047857329125,"lng":29.62901970864823,"avgVisitMinutes":85,"estimatedCostEur":11,"score":3.62177606494223},{"id":"musanze_4063","citySlug":"musanze","name":"Vista Alta de Musanze","category":"mirador","lat":-1.5063353395000927,"lng":29.637503164214447,"avgVisitMinutes":59,"estimatedCostEur":5,"score":2.818679793309056},{"id":"musanze_7175","citySlug":"musanze","name":"Iglesia de Musanze","category":"historia","lat":-1.4920560307863129,"lng":29.636503608435053,"avgVisitMinutes":30,"estimatedCostEur":22,"score":4.092051687300096},{"id":"musanze_8125","citySlug":"musanze","name":"Teatro Municipal","category":"cultura","lat":-1.504475260559254,"lng":29.63591406189019,"avgVisitMinutes":81,"estimatedCostEur":14,"score":3.204629776208433},{"id":"musanze_7852","citySlug":"musanze","name":"Playa Norte","category":"playa","lat":-1.503939926271999,"lng":29.641230676030307,"avgVisitMinutes":34,"estimatedCostEur":14,"score":2.233150109264346},{"id":"nyagatare_5182","citySlug":"nyagatare","name":"Playa Central","category":"playa","lat":-1.2953021209453641,"lng":30.328516048843966,"avgVisitMinutes":55,"estimatedCostEur":4,"score":4.240408446117717},{"id":"nyagatare_2491","citySlug":"nyagatare","name":"Teatro Municipal","category":"cultura","lat":-1.2855762755790492,"lng":30.31677215599985,"avgVisitMinutes":63,"estimatedCostEur":25,"score":1.0450438201584926},{"id":"nyagatare_4852","citySlug":"nyagatare","name":"Museo Cultural de Nyagatare","category":"cultura","lat":-1.2980671742985732,"lng":30.33184886411397,"avgVisitMinutes":28,"estimatedCostEur":13,"score":4.1801011705665},{"id":"nyagatare_3786","citySlug":"nyagatare","name":"Museo Local de Nyagatare","category":"historia","lat":-1.2884021804732948,"lng":30.326770824049675,"avgVisitMinutes":49,"estimatedCostEur":9,"score":2.317400381451532},{"id":"nyagatare_6310","citySlug":"nyagatare","name":"Iglesia de Nyagatare","category":"historia","lat":-1.2863697750856629,"lng":30.323418792767985,"avgVisitMinutes":45,"estimatedCostEur":3,"score":3.1454098289697794},{"id":"nyagatare_1283","citySlug":"nyagatare","name":"Ruta de Tapas","category":"gastronomia","lat":-1.288248575893012,"lng":30.31778836491956,"avgVisitMinutes":89,"estimatedCostEur":8,"score":1.055666351720704},{"id":"mugina_6981","citySlug":"mugina","name":"Playa Norte","category":"playa","lat":-2.114944203765411,"lng":29.947264640268045,"avgVisitMinutes":33,"estimatedCostEur":18,"score":2.3294706392872175},{"id":"mugina_5668","citySlug":"mugina","name":"Mercado Gastronómico","category":"gastronomia","lat":-2.1005344118682063,"lng":29.9338514201038,"avgVisitMinutes":87,"estimatedCostEur":9,"score":4.410732634893556},{"id":"mugina_8669","citySlug":"mugina","name":"Mercado Gastronómico","category":"gastronomia","lat":-2.103717304254986,"lng":29.93821388263701,"avgVisitMinutes":88,"estimatedCostEur":16,"score":4.534040726624513},{"id":"mugina_9052","citySlug":"mugina","name":"Playa Norte","category":"playa","lat":-2.1073957360717426,"lng":29.93273996522331,"avgVisitMinutes":84,"estimatedCostEur":14,"score":0.6830541689419123},{"id":"mugina_7223","citySlug":"mugina","name":"Galería de Arte","category":"cultura","lat":-2.112728368780668,"lng":29.943445042399773,"avgVisitMinutes":62,"estimatedCostEur":5,"score":0.6601520172017307},{"id":"mugina_8334","citySlug":"mugina","name":"Murallas de Mugina","category":"historia","lat":-2.107369728505636,"lng":29.93319412360485,"avgVisitMinutes":45,"estimatedCostEur":24,"score":2.5333826193044744},{"id":"mugina_4424","citySlug":"mugina","name":"Ruta de Tapas","category":"gastronomia","lat":-2.1062165150251175,"lng":29.938478720306335,"avgVisitMinutes":50,"estimatedCostEur":7,"score":4.255431212472882},{"id":"mugina_2298","citySlug":"mugina","name":"Vista Alta de Mugina","category":"mirador","lat":-2.097212284865313,"lng":29.933869111557527,"avgVisitMinutes":23,"estimatedCostEur":10,"score":4.685910634770506},{"id":"mugina_7925","citySlug":"mugina","name":"Centro de Arte de Mugina","category":"cultura","lat":-2.102956727445654,"lng":29.93385521333445,"avgVisitMinutes":90,"estimatedCostEur":19,"score":3.652228501708053},{"id":"mugina_9558","citySlug":"mugina","name":"Teatro Municipal","category":"cultura","lat":-2.111778809774167,"lng":29.940042454848815,"avgVisitMinutes":23,"estimatedCostEur":17,"score":4.355040325537649},{"id":"nzega_9107","citySlug":"nzega","name":"Ruta de Tapas","category":"gastronomia","lat":-2.4830228398206353,"lng":29.548101190482946,"avgVisitMinutes":71,"estimatedCostEur":22,"score":2.1967559577327274},{"id":"nzega_1120","citySlug":"nzega","name":"Castillo de Nzega","category":"historia","lat":-2.47821512064544,"lng":29.550265785179796,"avgVisitMinutes":48,"estimatedCostEur":10,"score":1.884065408240994},{"id":"nzega_6767","citySlug":"nzega","name":"Museo Local de Nzega","category":"historia","lat":-2.471374814074097,"lng":29.55792053130803,"avgVisitMinutes":40,"estimatedCostEur":18,"score":2.932157855507314},{"id":"nzega_8660","citySlug":"nzega","name":"Teatro Municipal","category":"cultura","lat":-2.4757305770199745,"lng":29.56586093999974,"avgVisitMinutes":32,"estimatedCostEur":3,"score":4.48338826000818},{"id":"nzega_7475","citySlug":"nzega","name":"Playa Sur","category":"playa","lat":-2.4770205840669393,"lng":29.5547299742611,"avgVisitMinutes":53,"estimatedCostEur":16,"score":1.4184048897777286},{"id":"nzega_5848","citySlug":"nzega","name":"Mirador de Nzega","category":"mirador","lat":-2.477653388492943,"lng":29.560852761849404,"avgVisitMinutes":29,"estimatedCostEur":15,"score":4.150518247464737},{"id":"nzega_2457","citySlug":"nzega","name":"Teatro Municipal","category":"cultura","lat":-2.4714903431035884,"lng":29.547544665683127,"avgVisitMinutes":57,"estimatedCostEur":22,"score":3.644793712745093},{"id":"nzega_8709","citySlug":"nzega","name":"Mercado Gastronómico","category":"gastronomia","lat":-2.4790511297418387,"lng":29.54970217877077,"avgVisitMinutes":76,"estimatedCostEur":2,"score":0.9824718227304319},{"id":"nzega_8978","citySlug":"nzega","name":"Centro Histórico","category":"historia","lat":-2.470229907057267,"lng":29.564101470239866,"avgVisitMinutes":42,"estimatedCostEur":11,"score":3.0491364016702285},{"id":"nzega_3133","citySlug":"nzega","name":"Galería de Arte","category":"cultura","lat":-2.4769660524301034,"lng":29.55945883196772,"avgVisitMinutes":54,"estimatedCostEur":4,"score":4.906920287970908},{"id":"mabanza_3466","citySlug":"mabanza","name":"Museo Local de Mabanza","category":"historia","lat":-2.0602269319337916,"lng":29.41157829990045,"avgVisitMinutes":32,"estimatedCostEur":1,"score":2.889132448440141},{"id":"mabanza_9300","citySlug":"mabanza","name":"Museo Local de Mabanza","category":"historia","lat":-2.0439489290616306,"lng":29.399505442729886,"avgVisitMinutes":22,"estimatedCostEur":7,"score":0.5121267267665682},{"id":"mabanza_5291","citySlug":"mabanza","name":"Zona Comercial","category":"ocio","lat":-2.057128973346604,"lng":29.40636356361641,"avgVisitMinutes":33,"estimatedCostEur":12,"score":2.536891210508741},{"id":"mabanza_4691","citySlug":"mabanza","name":"Museo Cultural de Mabanza","category":"cultura","lat":-2.049510422103077,"lng":29.404228864615323,"avgVisitMinutes":60,"estimatedCostEur":23,"score":1.4505466474014554},{"id":"mabanza_6964","citySlug":"mabanza","name":"Parque Central","category":"ocio","lat":-2.0480032732914673,"lng":29.399503457360947,"avgVisitMinutes":69,"estimatedCostEur":21,"score":0.7566592256534019},{"id":"mabanza_9332","citySlug":"mabanza","name":"Galería de Arte","category":"cultura","lat":-2.047418810618975,"lng":29.415695368000097,"avgVisitMinutes":37,"estimatedCostEur":0,"score":3.1427472606750735},{"id":"mabanza_2647","citySlug":"mabanza","name":"Parque Central","category":"ocio","lat":-2.042817641420949,"lng":29.412503184866924,"avgVisitMinutes":74,"estimatedCostEur":14,"score":3.612804093114176},{"id":"mabanza_9230","citySlug":"mabanza","name":"Playa Norte","category":"playa","lat":-2.0444866500529923,"lng":29.405177835008736,"avgVisitMinutes":23,"estimatedCostEur":12,"score":1.1952438287640696},{"id":"mabanza_2678","citySlug":"mabanza","name":"Vista Alta de Mabanza","category":"mirador","lat":-2.0549052491622364,"lng":29.419032945781236,"avgVisitMinutes":76,"estimatedCostEur":4,"score":2.209743322358166},{"id":"kinigi_5089","citySlug":"kinigi","name":"Vista Alta de Kinigi","category":"mirador","lat":-1.4446259835052773,"lng":29.589721368458974,"avgVisitMinutes":21,"estimatedCostEur":9,"score":4.850863953583005},{"id":"kinigi_1692","citySlug":"kinigi","name":"Iglesia de Kinigi","category":"historia","lat":-1.4447128674462817,"lng":29.598976293404338,"avgVisitMinutes":90,"estimatedCostEur":25,"score":1.3998568256226764},{"id":"kinigi_1207","citySlug":"kinigi","name":"Parque Central","category":"ocio","lat":-1.442353317621503,"lng":29.588002013889177,"avgVisitMinutes":73,"estimatedCostEur":13,"score":4.379839722145648},{"id":"kinigi_9944","citySlug":"kinigi","name":"Playa Central","category":"playa","lat":-1.4350154438032905,"lng":29.59438359870695,"avgVisitMinutes":31,"estimatedCostEur":22,"score":3.9195375488018493},{"id":"kinigi_3959","citySlug":"kinigi","name":"Museo Local de Kinigi","category":"historia","lat":-1.4455710744728845,"lng":29.597381794378713,"avgVisitMinutes":45,"estimatedCostEur":9,"score":2.8268909958455226},{"id":"kinigi_4596","citySlug":"kinigi","name":"Parque Central","category":"ocio","lat":-1.451882894066627,"lng":29.590121815004,"avgVisitMinutes":75,"estimatedCostEur":9,"score":1.5236326848362252},{"id":"kinigi_1308","citySlug":"kinigi","name":"Centro de Arte de Kinigi","category":"cultura","lat":-1.450314854518999,"lng":29.584558428350533,"avgVisitMinutes":32,"estimatedCostEur":3,"score":4.154899074840278},{"id":"kinigi_8488","citySlug":"kinigi","name":"Murallas de Kinigi","category":"historia","lat":-1.4401558888111479,"lng":29.597497277946438,"avgVisitMinutes":21,"estimatedCostEur":15,"score":4.397481829298798},{"id":"kinigi_7155","citySlug":"kinigi","name":"Vista Alta de Kinigi","category":"mirador","lat":-1.440668758910329,"lng":29.58045234305959,"avgVisitMinutes":57,"estimatedCostEur":11,"score":4.3530573911399815},{"id":"kinigi_5462","citySlug":"kinigi","name":"Playa Sur","category":"playa","lat":-1.4346503530035297,"lng":29.59270531413413,"avgVisitMinutes":21,"estimatedCostEur":15,"score":0.5820330442932343},{"id":"kinigi_3695","citySlug":"kinigi","name":"Playa Sur","category":"playa","lat":-1.4414832836059932,"lng":29.581955815978365,"avgVisitMinutes":30,"estimatedCostEur":20,"score":0.9186377442152802},{"id":"kinigi_6026","citySlug":"kinigi","name":"Centro de Arte de Kinigi","category":"cultura","lat":-1.4470312930671452,"lng":29.5859601175411,"avgVisitMinutes":46,"estimatedCostEur":12,"score":2.0450915985128963},{"id":"kirimbi_6037","citySlug":"kirimbi","name":"Mirador de Kirimbi","category":"mirador","lat":-2.2716730063574193,"lng":29.190327043787647,"avgVisitMinutes":47,"estimatedCostEur":23,"score":0.6506555517913359},{"id":"kirimbi_5534","citySlug":"kirimbi","name":"Playa Central","category":"playa","lat":-2.258409734405335,"lng":29.19457200523007,"avgVisitMinutes":61,"estimatedCostEur":22,"score":2.965911723050221},{"id":"kirimbi_6608","citySlug":"kirimbi","name":"Playa Central","category":"playa","lat":-2.265600966330239,"lng":29.19098603159246,"avgVisitMinutes":70,"estimatedCostEur":7,"score":2.7638747571919207},{"id":"kirimbi_7609","citySlug":"kirimbi","name":"Castillo de Kirimbi","category":"historia","lat":-2.260692817966247,"lng":29.20559389276875,"avgVisitMinutes":83,"estimatedCostEur":17,"score":2.818295024250939},{"id":"kirimbi_4133","citySlug":"kirimbi","name":"Centro de Arte de Kirimbi","category":"cultura","lat":-2.2651494105990455,"lng":29.20252502681867,"avgVisitMinutes":43,"estimatedCostEur":21,"score":0.7456083697558362},{"id":"kirimbi_6555","citySlug":"kirimbi","name":"Mercado Gastronómico","category":"gastronomia","lat":-2.2713017218867093,"lng":29.18911941396478,"avgVisitMinutes":55,"estimatedCostEur":25,"score":4.046570969081017},{"id":"kigali_5805","citySlug":"kigali","name":"Parque Central","category":"ocio","lat":-1.9417929325049668,"lng":30.050850190695655,"avgVisitMinutes":20,"estimatedCostEur":5,"score":2.68895376903673},{"id":"kigali_8398","citySlug":"kigali","name":"Paseo Principal","category":"ocio","lat":-1.9525654743501373,"lng":30.068035922113065,"avgVisitMinutes":36,"estimatedCostEur":24,"score":1.8089298896659405},{"id":"kigali_3004","citySlug":"kigali","name":"Mercado Gastronómico","category":"gastronomia","lat":-1.954973154512777,"lng":30.055597700531585,"avgVisitMinutes":71,"estimatedCostEur":25,"score":1.360959563672138},{"id":"kigali_8455","citySlug":"kigali","name":"Parque Central","category":"ocio","lat":-1.9523566846899674,"lng":30.056881722848512,"avgVisitMinutes":66,"estimatedCostEur":6,"score":3.8270442545321615},{"id":"kigali_7044","citySlug":"kigali","name":"Vista Alta de Kigali","category":"mirador","lat":-1.9498011974412277,"lng":30.059296276877802,"avgVisitMinutes":24,"estimatedCostEur":13,"score":3.2363418203219867},{"id":"kigali_2901","citySlug":"kigali","name":"Murallas de Kigali","category":"historia","lat":-1.9506667743157258,"lng":30.05453906823763,"avgVisitMinutes":57,"estimatedCostEur":12,"score":4.200771758642251},{"id":"kigali_5240","citySlug":"kigali","name":"Vista Alta de Kigali","category":"mirador","lat":-1.9472584167806852,"lng":30.05920648887718,"avgVisitMinutes":86,"estimatedCostEur":3,"score":4.90861520886427},{"id":"kibuye_5489","citySlug":"kibuye","name":"Punto Panorámico","category":"mirador","lat":-2.0696345919923895,"lng":29.34655039798589,"avgVisitMinutes":45,"estimatedCostEur":5,"score":4.431845452834706},{"id":"kibuye_8864","citySlug":"kibuye","name":"Mirador de Kibuye","category":"mirador","lat":-2.0685735531413463,"lng":29.34176756884151,"avgVisitMinutes":63,"estimatedCostEur":2,"score":4.970131292615973},{"id":"kibuye_8683","citySlug":"kibuye","name":"Playa Central","category":"playa","lat":-2.059201395176218,"lng":29.345398188642346,"avgVisitMinutes":21,"estimatedCostEur":9,"score":0.8085316970859491},{"id":"kibuye_6743","citySlug":"kibuye","name":"Punto Panorámico","category":"mirador","lat":-2.063344171551104,"lng":29.34525274689084,"avgVisitMinutes":20,"estimatedCostEur":15,"score":3.562208348738952},{"id":"kibuye_3495","citySlug":"kibuye","name":"Murallas de Kibuye","category":"historia","lat":-2.060481842414601,"lng":29.33792460075547,"avgVisitMinutes":59,"estimatedCostEur":25,"score":1.737757471177479},{"id":"kibungo_7613","citySlug":"kibungo","name":"Parque Central","category":"ocio","lat":-2.1673041650183964,"lng":30.540532455637294,"avgVisitMinutes":86,"estimatedCostEur":21,"score":3.5958278185093726},{"id":"kibungo_6267","citySlug":"kibungo","name":"Museo Cultural de Kibungo","category":"cultura","lat":-2.161040949042306,"lng":30.543368440511763,"avgVisitMinutes":31,"estimatedCostEur":17,"score":0.7506496209314433},{"id":"kibungo_6199","citySlug":"kibungo","name":"Vista Alta de Kibungo","category":"mirador","lat":-2.16451713633666,"lng":30.538116732051378,"avgVisitMinutes":74,"estimatedCostEur":23,"score":2.778013551417139},{"id":"kibungo_1842","citySlug":"kibungo","name":"Galería de Arte","category":"cultura","lat":-2.1675411899972707,"lng":30.549246064715575,"avgVisitMinutes":69,"estimatedCostEur":8,"score":2.173984405972825},{"id":"kibungo_8188","citySlug":"kibungo","name":"Teatro Municipal","category":"cultura","lat":-2.150825926401841,"lng":30.543407375211846,"avgVisitMinutes":57,"estimatedCostEur":25,"score":1.1593159178811343},{"id":"kibungo_6530","citySlug":"kibungo","name":"Playa Central","category":"playa","lat":-2.157921449583289,"lng":30.54490599642298,"avgVisitMinutes":85,"estimatedCostEur":1,"score":1.627901310624554},{"id":"kibungo_6496","citySlug":"kibungo","name":"Vista Alta de Kibungo","category":"mirador","lat":-2.1664190799199856,"lng":30.539505334772127,"avgVisitMinutes":39,"estimatedCostEur":0,"score":0.8116226664933508},{"id":"kibungo_7818","citySlug":"kibungo","name":"Teatro Municipal","category":"cultura","lat":-2.1517928886731363,"lng":30.532996789535858,"avgVisitMinutes":50,"estimatedCostEur":14,"score":3.124696029630241},{"id":"kibungo_3242","citySlug":"kibungo","name":"Zona Comercial","category":"ocio","lat":-2.1651118459901952,"lng":30.5343359869279,"avgVisitMinutes":22,"estimatedCostEur":25,"score":4.740372710168193},{"id":"kibungo_8786","citySlug":"kibungo","name":"Teatro Municipal","category":"cultura","lat":-2.1571953180408427,"lng":30.53358998321586,"avgVisitMinutes":53,"estimatedCostEur":23,"score":4.584976737765655},{"id":"gitarama_2539","citySlug":"gitarama","name":"Parque Central","category":"ocio","lat":-2.0719733700555203,"lng":29.75987364493341,"avgVisitMinutes":78,"estimatedCostEur":22,"score":3.532812653041062},{"id":"gitarama_6414","citySlug":"gitarama","name":"Galería de Arte","category":"cultura","lat":-2.071091988397945,"lng":29.75195565817929,"avgVisitMinutes":52,"estimatedCostEur":24,"score":3.1043448957801116},{"id":"gitarama_7780","citySlug":"gitarama","name":"Paseo Principal","category":"ocio","lat":-2.066559423186307,"lng":29.748028479525082,"avgVisitMinutes":32,"estimatedCostEur":25,"score":4.091722041484293},{"id":"gitarama_3828","citySlug":"gitarama","name":"Centro Histórico","category":"historia","lat":-2.079305807566874,"lng":29.751793810956375,"avgVisitMinutes":72,"estimatedCostEur":19,"score":1.4969310048849724},{"id":"gitarama_7020","citySlug":"gitarama","name":"Murallas de Gitarama","category":"historia","lat":-2.064680515117238,"lng":29.756965764996867,"avgVisitMinutes":51,"estimatedCostEur":23,"score":1.4394517497795822},{"id":"gikongoro_5177","citySlug":"gikongoro","name":"Ruta de Tapas","category":"gastronomia","lat":-2.4685167009320694,"lng":29.57159924822838,"avgVisitMinutes":56,"estimatedCostEur":7,"score":0.8211404709615623},{"id":"gikongoro_4920","citySlug":"gikongoro","name":"Mirador de Gikongoro","category":"mirador","lat":-2.4580215501265195,"lng":29.569613606177093,"avgVisitMinutes":51,"estimatedCostEur":8,"score":1.9055290712358293},{"id":"gikongoro_2889","citySlug":"gikongoro","name":"Parque Central","category":"ocio","lat":-2.4542293895228293,"lng":29.5804728958958,"avgVisitMinutes":87,"estimatedCostEur":0,"score":4.124963331112603},{"id":"gikongoro_3298","citySlug":"gikongoro","name":"Playa Sur","category":"playa","lat":-2.4583267927675374,"lng":29.58152389841296,"avgVisitMinutes":25,"estimatedCostEur":24,"score":1.0464503146143245},{"id":"gikongoro_2217","citySlug":"gikongoro","name":"Restaurante Típico de Gikongoro","category":"gastronomia","lat":-2.4546510836481867,"lng":29.573831319176882,"avgVisitMinutes":72,"estimatedCostEur":17,"score":1.9169876389346332},{"id":"gikongoro_7176","citySlug":"gikongoro","name":"Ruta de Tapas","category":"gastronomia","lat":-2.4617440103397574,"lng":29.572945796225167,"avgVisitMinutes":59,"estimatedCostEur":25,"score":3.0765005992474714},{"id":"gikongoro_9213","citySlug":"gikongoro","name":"Teatro Municipal","category":"cultura","lat":-2.4626280174017134,"lng":29.567783917028134,"avgVisitMinutes":58,"estimatedCostEur":10,"score":4.040338424806301},{"id":"gikongoro_4769","citySlug":"gikongoro","name":"Centro de Arte de Gikongoro","category":"cultura","lat":-2.4731509646424708,"lng":29.577784713988162,"avgVisitMinutes":24,"estimatedCostEur":11,"score":1.5517154403484248},{"id":"gikongoro_2856","citySlug":"gikongoro","name":"Murallas de Gikongoro","category":"historia","lat":-2.4627612392499305,"lng":29.57792254917083,"avgVisitMinutes":28,"estimatedCostEur":13,"score":2.3037706453220483},{"id":"gikongoro_5017","citySlug":"gikongoro","name":"Mirador de Gikongoro","category":"mirador","lat":-2.4690424028010325,"lng":29.57908887061864,"avgVisitMinutes":58,"estimatedCostEur":5,"score":0.5721475024202944},{"id":"gikongoro_2604","citySlug":"gikongoro","name":"Playa Central","category":"playa","lat":-2.459972234718408,"lng":29.573645573274458,"avgVisitMinutes":85,"estimatedCostEur":22,"score":4.6202662859222725},{"id":"gahini_3696","citySlug":"gahini","name":"Teatro Municipal","category":"cultura","lat":-1.8407649876584893,"lng":30.48749118237972,"avgVisitMinutes":60,"estimatedCostEur":8,"score":1.4764015479861299},{"id":"gahini_1913","citySlug":"gahini","name":"Zona Comercial","category":"ocio","lat":-1.8385933449481893,"lng":30.48981946439406,"avgVisitMinutes":85,"estimatedCostEur":17,"score":2.013137371463839},{"id":"gahini_4069","citySlug":"gahini","name":"Mercado Gastronómico","category":"gastronomia","lat":-1.8377684752140218,"lng":30.48675439679043,"avgVisitMinutes":38,"estimatedCostEur":24,"score":3.637643073940212},{"id":"gahini_1460","citySlug":"gahini","name":"Restaurante Típico de Gahini","category":"gastronomia","lat":-1.8339725006114433,"lng":30.47923128543349,"avgVisitMinutes":26,"estimatedCostEur":3,"score":2.642842727305146},{"id":"gahini_4897","citySlug":"gahini","name":"Museo Cultural de Gahini","category":"cultura","lat":-1.8470475776574682,"lng":30.481287215424636,"avgVisitMinutes":21,"estimatedCostEur":4,"score":2.8327178449155483},{"id":"gahini_2116","citySlug":"gahini","name":"Parque Central","category":"ocio","lat":-1.8312361607124503,"lng":30.472883125886092,"avgVisitMinutes":23,"estimatedCostEur":13,"score":4.061811060502244},{"id":"gahini_9438","citySlug":"gahini","name":"Murallas de Gahini","category":"historia","lat":-1.8353197783527355,"lng":30.479419233686432,"avgVisitMinutes":51,"estimatedCostEur":9,"score":1.921231829427861},{"id":"gahini_3897","citySlug":"gahini","name":"Parque Central","category":"ocio","lat":-1.848344671478997,"lng":30.471612516090584,"avgVisitMinutes":49,"estimatedCostEur":2,"score":4.582176939197711},{"id":"gahini_3588","citySlug":"gahini","name":"Centro de Arte de Gahini","category":"cultura","lat":-1.833524336240745,"lng":30.490428684628533,"avgVisitMinutes":33,"estimatedCostEur":0,"score":3.8762894965307235},{"id":"gahini_8846","citySlug":"gahini","name":"Restaurante Típico de Gahini","category":"gastronomia","lat":-1.849042378051849,"lng":30.472879846436577,"avgVisitMinutes":48,"estimatedCostEur":2,"score":1.3248087613169541},{"id":"cyangugu_7326","citySlug":"cyangugu","name":"Galería de Arte","category":"cultura","lat":-2.493147216987861,"lng":28.908158030780207,"avgVisitMinutes":23,"estimatedCostEur":0,"score":4.040952306308935},{"id":"cyangugu_6372","citySlug":"cyangugu","name":"Restaurante Típico de Cyangugu","category":"gastronomia","lat":-2.4927164068321903,"lng":28.909352699937546,"avgVisitMinutes":73,"estimatedCostEur":5,"score":0.7159097306981332},{"id":"cyangugu_9617","citySlug":"cyangugu","name":"Centro de Arte de Cyangugu","category":"cultura","lat":-2.480501630802384,"lng":28.9080183040473,"avgVisitMinutes":61,"estimatedCostEur":19,"score":3.030642204117792},{"id":"cyangugu_2186","citySlug":"cyangugu","name":"Restaurante Típico de Cyangugu","category":"gastronomia","lat":-2.490344314380684,"lng":28.897809074047696,"avgVisitMinutes":65,"estimatedCostEur":8,"score":0.7551376479669935},{"id":"cyangugu_2848","citySlug":"cyangugu","name":"Murallas de Cyangugu","category":"historia","lat":-2.4915168257565545,"lng":28.910614114849437,"avgVisitMinutes":33,"estimatedCostEur":10,"score":4.812122576431664},{"id":"cyangugu_2405","citySlug":"cyangugu","name":"Parque Central","category":"ocio","lat":-2.479322726595258,"lng":28.91189592700355,"avgVisitMinutes":25,"estimatedCostEur":4,"score":2.5185056107512085},{"id":"cyangugu_1957","citySlug":"cyangugu","name":"Ruta de Tapas","category":"gastronomia","lat":-2.4938966564100573,"lng":28.914457940960972,"avgVisitMinutes":72,"estimatedCostEur":13,"score":2.240020853047942},{"id":"shyorongi_6214","citySlug":"shyorongi","name":"Restaurante Típico de Shyorongi","category":"gastronomia","lat":-1.8583935763309651,"lng":29.955678146220936,"avgVisitMinutes":55,"estimatedCostEur":25,"score":2.370923575612302},{"id":"shyorongi_5760","citySlug":"shyorongi","name":"Playa Sur","category":"playa","lat":-1.8476196439781114,"lng":29.9695413552157,"avgVisitMinutes":24,"estimatedCostEur":3,"score":2.6129699892525835},{"id":"shyorongi_3402","citySlug":"shyorongi","name":"Mirador de Shyorongi","category":"mirador","lat":-1.8609158385211322,"lng":29.964603366558833,"avgVisitMinutes":45,"estimatedCostEur":8,"score":1.4617190717059294},{"id":"shyorongi_2509","citySlug":"shyorongi","name":"Punto Panorámico","category":"mirador","lat":-1.8504250779705775,"lng":29.97192169112784,"avgVisitMinutes":81,"estimatedCostEur":13,"score":2.4112356607751018},{"id":"shyorongi_9067","citySlug":"shyorongi","name":"Restaurante Típico de Shyorongi","category":"gastronomia","lat":-1.848639990755181,"lng":29.97098259457422,"avgVisitMinutes":86,"estimatedCostEur":19,"score":2.9651037618694707},{"id":"shyorongi_3395","citySlug":"shyorongi","name":"Parque Central","category":"ocio","lat":-1.8452637026054914,"lng":29.952668665050204,"avgVisitMinutes":51,"estimatedCostEur":21,"score":4.254483528069355},{"id":"shyorongi_2290","citySlug":"shyorongi","name":"Museo Cultural de Shyorongi","category":"cultura","lat":-1.857379808413825,"lng":29.96317115739748,"avgVisitMinutes":75,"estimatedCostEur":16,"score":1.303860195192602},{"id":"shyorongi_2413","citySlug":"shyorongi","name":"Parque Central","category":"ocio","lat":-1.857442210303772,"lng":29.953450790110306,"avgVisitMinutes":85,"estimatedCostEur":1,"score":2.8607077454954473},{"id":"shangi_7299","citySlug":"shangi","name":"Playa Central","category":"playa","lat":-2.4117283060827837,"lng":29.00588000173363,"avgVisitMinutes":52,"estimatedCostEur":2,"score":4.1292350844597205},{"id":"shangi_1875","citySlug":"shangi","name":"Museo Cultural de Shangi","category":"cultura","lat":-2.4072846153826446,"lng":28.998507980324717,"avgVisitMinutes":51,"estimatedCostEur":23,"score":1.6247165310505245},{"id":"shangi_7847","citySlug":"shangi","name":"Parque Central","category":"ocio","lat":-2.405451210218578,"lng":28.99785291706163,"avgVisitMinutes":83,"estimatedCostEur":17,"score":2.848383194837166},{"id":"shangi_4012","citySlug":"shangi","name":"Museo Local de Shangi","category":"historia","lat":-2.3997816802163,"lng":28.99880025754019,"avgVisitMinutes":67,"estimatedCostEur":0,"score":3.5621759771716928},{"id":"shangi_9947","citySlug":"shangi","name":"Mercado Gastronómico","category":"gastronomia","lat":-2.400227825175129,"lng":28.999443703579992,"avgVisitMinutes":64,"estimatedCostEur":8,"score":4.859450503827529},{"id":"shangi_4655","citySlug":"shangi","name":"Playa Norte","category":"playa","lat":-2.4030312794644266,"lng":29.00758619472529,"avgVisitMinutes":30,"estimatedCostEur":9,"score":3.984558265947577},{"id":"shangi_8898","citySlug":"shangi","name":"Galería de Arte","category":"cultura","lat":-2.409501801587069,"lng":29.00271153240027,"avgVisitMinutes":38,"estimatedCostEur":23,"score":1.3296973432206682},{"id":"shangi_7540","citySlug":"shangi","name":"Centro de Arte de Shangi","category":"cultura","lat":-2.4029279220411435,"lng":29.00427206737643,"avgVisitMinutes":82,"estimatedCostEur":9,"score":4.319525940759679},{"id":"ngororero_6934","citySlug":"ngororero","name":"Punto Panorámico","category":"mirador","lat":-1.8699303037036423,"lng":29.634568501116185,"avgVisitMinutes":52,"estimatedCostEur":3,"score":0.7400067782216555},{"id":"ngororero_8393","citySlug":"ngororero","name":"Restaurante Típico de Ngororero","category":"gastronomia","lat":-1.8699735077933555,"lng":29.622299345245505,"avgVisitMinutes":32,"estimatedCostEur":21,"score":1.3730741593788771},{"id":"ngororero_9789","citySlug":"ngororero","name":"Teatro Municipal","category":"cultura","lat":-1.8637546355276573,"lng":29.63526979180455,"avgVisitMinutes":62,"estimatedCostEur":16,"score":4.093541045956897},{"id":"ngororero_7549","citySlug":"ngororero","name":"Playa Sur","category":"playa","lat":-1.8589762348754995,"lng":29.627043510548226,"avgVisitMinutes":90,"estimatedCostEur":15,"score":2.448066561830884},{"id":"ngororero_9988","citySlug":"ngororero","name":"Castillo de Ngororero","category":"historia","lat":-1.8535313649765126,"lng":29.632478789802995,"avgVisitMinutes":35,"estimatedCostEur":9,"score":1.1896331758009457},{"id":"ngororero_5734","citySlug":"ngororero","name":"Playa Norte","category":"playa","lat":-1.8717087857373904,"lng":29.62518640429532,"avgVisitMinutes":69,"estimatedCostEur":23,"score":3.35845085434797},{"id":"ngororero_3769","citySlug":"ngororero","name":"Punto Panorámico","category":"mirador","lat":-1.8575363892817558,"lng":29.631856410257544,"avgVisitMinutes":63,"estimatedCostEur":24,"score":4.921113259651077},{"id":"ngororero_2016","citySlug":"ngororero","name":"Teatro Municipal","category":"cultura","lat":-1.8697998646262612,"lng":29.618981920461998,"avgVisitMinutes":36,"estimatedCostEur":2,"score":0.7251971119781838},{"id":"ngororero_1284","citySlug":"ngororero","name":"Centro de Arte de Ngororero","category":"cultura","lat":-1.8642587385867695,"lng":29.62699676353878,"avgVisitMinutes":87,"estimatedCostEur":5,"score":3.7835949517468794},{"id":"ngororero_4356","citySlug":"ngororero","name":"Ruta de Tapas","category":"gastronomia","lat":-1.8700888442014343,"lng":29.624706341097536,"avgVisitMinutes":34,"estimatedCostEur":22,"score":3.799805907150279},{"id":"ngororero_8304","citySlug":"ngororero","name":"Centro de Arte de Ngororero","category":"cultura","lat":-1.8653432541402317,"lng":29.625444313089222,"avgVisitMinutes":44,"estimatedCostEur":20,"score":2.859701797773921},{"id":"ngororero_1898","citySlug":"ngororero","name":"Centro de Arte de Ngororero","category":"cultura","lat":-1.8567203692096685,"lng":29.628542606786603,"avgVisitMinutes":35,"estimatedCostEur":12,"score":3.561865020214067},{"id":"ndera_2490","citySlug":"ndera","name":"Zona Comercial","category":"ocio","lat":-1.9471410100593272,"lng":30.169107251010654,"avgVisitMinutes":63,"estimatedCostEur":1,"score":1.043133973643176},{"id":"ndera_2441","citySlug":"ndera","name":"Vista Alta de Ndera","category":"mirador","lat":-1.9481561559353564,"lng":30.172512410715868,"avgVisitMinutes":22,"estimatedCostEur":17,"score":1.0278647088568764},{"id":"ndera_1556","citySlug":"ndera","name":"Mirador de Ndera","category":"mirador","lat":-1.9422331334320542,"lng":30.16717881760612,"avgVisitMinutes":27,"estimatedCostEur":2,"score":3.670826186882289},{"id":"ndera_4166","citySlug":"ndera","name":"Paseo Principal","category":"ocio","lat":-1.9505562036486122,"lng":30.169752023328236,"avgVisitMinutes":20,"estimatedCostEur":2,"score":3.1288525230617754},{"id":"ndera_7949","citySlug":"ndera","name":"Vista Alta de Ndera","category":"mirador","lat":-1.9419813066789013,"lng":30.16198425503211,"avgVisitMinutes":28,"estimatedCostEur":10,"score":1.0490543382092827},{"id":"ndera_7413","citySlug":"ndera","name":"Parque Central","category":"ocio","lat":-1.9418360729492807,"lng":30.171744251863636,"avgVisitMinutes":90,"estimatedCostEur":23,"score":1.7995130443933567},{"id":"ndera_4135","citySlug":"ndera","name":"Zona Comercial","category":"ocio","lat":-1.9413134347790857,"lng":30.1743636843868,"avgVisitMinutes":39,"estimatedCostEur":20,"score":3.560936594309559},{"id":"ndera_2529","citySlug":"ndera","name":"Centro Histórico","category":"historia","lat":-1.9412325299043585,"lng":30.162744378240607,"avgVisitMinutes":39,"estimatedCostEur":7,"score":4.395443248650861},{"id":"kirambo_3565","citySlug":"kirambo","name":"Ruta de Tapas","category":"gastronomia","lat":-2.3063340218521393,"lng":29.13678357622676,"avgVisitMinutes":26,"estimatedCostEur":1,"score":2.1869664352846634},{"id":"kirambo_1498","citySlug":"kirambo","name":"Museo Local de Kirambo","category":"historia","lat":-2.3131437805797757,"lng":29.136380812059905,"avgVisitMinutes":50,"estimatedCostEur":13,"score":2.325018105612049},{"id":"kirambo_1707","citySlug":"kirambo","name":"Mirador de Kirambo","category":"mirador","lat":-2.312153307765069,"lng":29.139797857036054,"avgVisitMinutes":35,"estimatedCostEur":5,"score":4.273383379973975},{"id":"kirambo_3616","citySlug":"kirambo","name":"Mercado Gastronómico","category":"gastronomia","lat":-2.3109370579419237,"lng":29.149024992071844,"avgVisitMinutes":81,"estimatedCostEur":18,"score":4.494989852268408},{"id":"kirambo_9564","citySlug":"kirambo","name":"Iglesia de Kirambo","category":"historia","lat":-2.3094170747252982,"lng":29.139682103336426,"avgVisitMinutes":51,"estimatedCostEur":13,"score":2.816733771522456},{"id":"kirambo_8012","citySlug":"kirambo","name":"Vista Alta de Kirambo","category":"mirador","lat":-2.3155054807090716,"lng":29.140710799797127,"avgVisitMinutes":86,"estimatedCostEur":23,"score":3.709495397066076},{"id":"kirambo_9771","citySlug":"kirambo","name":"Museo Cultural de Kirambo","category":"cultura","lat":-2.3253553590771787,"lng":29.132020214808225,"avgVisitMinutes":64,"estimatedCostEur":23,"score":2.6774863885302334},{"id":"kirambo_8142","citySlug":"kirambo","name":"Parque Central","category":"ocio","lat":-2.324912885917921,"lng":29.147889348283407,"avgVisitMinutes":43,"estimatedCostEur":17,"score":4.265279369685784},{"id":"kirambo_7589","citySlug":"kirambo","name":"Playa Sur","category":"playa","lat":-2.3120473552693745,"lng":29.13550393340766,"avgVisitMinutes":57,"estimatedCostEur":24,"score":3.5510623879432464},{"id":"karengera_1468","citySlug":"karengera","name":"Mercado Gastronómico","category":"gastronomia","lat":-2.5212254757032904,"lng":29.03300061338459,"avgVisitMinutes":59,"estimatedCostEur":20,"score":4.601902382922473},{"id":"karengera_4046","citySlug":"karengera","name":"Zona Comercial","category":"ocio","lat":-2.5110340685577075,"lng":29.02682768159166,"avgVisitMinutes":43,"estimatedCostEur":14,"score":4.574872044672692},{"id":"karengera_5708","citySlug":"karengera","name":"Museo Local de Karengera","category":"historia","lat":-2.524799483621416,"lng":29.02932236445803,"avgVisitMinutes":42,"estimatedCostEur":17,"score":1.107052723484642},{"id":"karengera_5772","citySlug":"karengera","name":"Punto Panorámico","category":"mirador","lat":-2.52619095886122,"lng":29.026031708245643,"avgVisitMinutes":20,"estimatedCostEur":21,"score":1.5571932788975948},{"id":"karengera_1672","citySlug":"karengera","name":"Zona Comercial","category":"ocio","lat":-2.5176915960763657,"lng":29.038767196097652,"avgVisitMinutes":83,"estimatedCostEur":23,"score":1.451983307757621},{"id":"karengera_5075","citySlug":"karengera","name":"Mirador de Karengera","category":"mirador","lat":-2.5136035637572616,"lng":29.03383260180701,"avgVisitMinutes":85,"estimatedCostEur":15,"score":2.4611483828282994},{"id":"karengera_2195","citySlug":"karengera","name":"Zona Comercial","category":"ocio","lat":-2.5253612070029288,"lng":29.024576730764363,"avgVisitMinutes":88,"estimatedCostEur":12,"score":4.472765498678241},{"id":"karengera_2152","citySlug":"karengera","name":"Murallas de Karengera","category":"historia","lat":-2.5240278885033662,"lng":29.022930604316105,"avgVisitMinutes":83,"estimatedCostEur":20,"score":3.015132623235745},{"id":"karengera_5653","citySlug":"karengera","name":"Centro Histórico","category":"historia","lat":-2.521410162483477,"lng":29.025316475013398,"avgVisitMinutes":73,"estimatedCostEur":0,"score":4.07421477358017},{"id":"karengera_8450","citySlug":"karengera","name":"Zona Comercial","category":"ocio","lat":-2.5224821397639587,"lng":29.041178088095677,"avgVisitMinutes":62,"estimatedCostEur":11,"score":3.364122717167909},{"id":"karengera_8851","citySlug":"karengera","name":"Galería de Arte","category":"cultura","lat":-2.5209525798104577,"lng":29.03133910013744,"avgVisitMinutes":63,"estimatedCostEur":22,"score":1.1885273436245902},{"id":"karengera_6459","citySlug":"karengera","name":"Paseo Principal","category":"ocio","lat":-2.5133847296863254,"lng":29.042132669821513,"avgVisitMinutes":60,"estimatedCostEur":6,"score":4.627346325523717},{"id":"gisenyi_1975","citySlug":"gisenyi","name":"Playa Central","category":"playa","lat":-1.7059785148174427,"lng":29.25868530754216,"avgVisitMinutes":56,"estimatedCostEur":22,"score":1.3739199371258664},{"id":"gisenyi_3824","citySlug":"gisenyi","name":"Centro Histórico","category":"historia","lat":-1.7070466138910037,"lng":29.25029923523686,"avgVisitMinutes":82,"estimatedCostEur":11,"score":4.238956762776626},{"id":"gisenyi_6793","citySlug":"gisenyi","name":"Paseo Principal","category":"ocio","lat":-1.708841548323647,"lng":29.246672128011248,"avgVisitMinutes":30,"estimatedCostEur":3,"score":0.636601043251904},{"id":"gisenyi_6094","citySlug":"gisenyi","name":"Playa Norte","category":"playa","lat":-1.7039057107598328,"lng":29.2582425092856,"avgVisitMinutes":67,"estimatedCostEur":18,"score":3.2315269995092883},{"id":"gisenyi_2361","citySlug":"gisenyi","name":"Mercado Gastronómico","category":"gastronomia","lat":-1.6975618050494232,"lng":29.258229343911342,"avgVisitMinutes":59,"estimatedCostEur":2,"score":2.016870097793515},{"id":"gisenyi_3774","citySlug":"gisenyi","name":"Punto Panorámico","category":"mirador","lat":-1.7026585498972313,"lng":29.250295388038076,"avgVisitMinutes":79,"estimatedCostEur":24,"score":2.5427429581979664},{"id":"gisenyi_7541","citySlug":"gisenyi","name":"Punto Panorámico","category":"mirador","lat":-1.7032072159270721,"lng":29.254226916404757,"avgVisitMinutes":42,"estimatedCostEur":25,"score":4.69439838285891},{"id":"bushekeri_2593","citySlug":"bushekeri","name":"Vista Alta de Bushekeri","category":"mirador","lat":-2.415907287673143,"lng":29.09855272197737,"avgVisitMinutes":20,"estimatedCostEur":22,"score":1.238762775018816},{"id":"bushekeri_3520","citySlug":"bushekeri","name":"Ruta de Tapas","category":"gastronomia","lat":-2.4197946453468395,"lng":29.094181282037592,"avgVisitMinutes":73,"estimatedCostEur":2,"score":1.8186315089560736},{"id":"bushekeri_6126","citySlug":"bushekeri","name":"Playa Norte","category":"playa","lat":-2.4127638880899016,"lng":29.09524328825191,"avgVisitMinutes":76,"estimatedCostEur":15,"score":4.317425701872127},{"id":"bushekeri_1711","citySlug":"bushekeri","name":"Iglesia de Bushekeri","category":"historia","lat":-2.4203293952148295,"lng":29.091503219631846,"avgVisitMinutes":53,"estimatedCostEur":25,"score":4.380360553907401},{"id":"bushekeri_9403","citySlug":"bushekeri","name":"Centro Histórico","category":"historia","lat":-2.4276205495965435,"lng":29.096873803048624,"avgVisitMinutes":53,"estimatedCostEur":1,"score":4.499957475659555},{"id":"bushekeri_4268","citySlug":"bushekeri","name":"Punto Panorámico","category":"mirador","lat":-2.418475540905542,"lng":29.086623630739876,"avgVisitMinutes":50,"estimatedCostEur":21,"score":0.5637348307459087},{"id":"bushekeri_3576","citySlug":"bushekeri","name":"Museo Cultural de Bushekeri","category":"cultura","lat":-2.4118831588674685,"lng":29.093943813430574,"avgVisitMinutes":53,"estimatedCostEur":5,"score":1.8880115391263368},{"id":"bushekeri_2140","citySlug":"bushekeri","name":"Punto Panorámico","category":"mirador","lat":-2.413422708576916,"lng":29.09279650233845,"avgVisitMinutes":44,"estimatedCostEur":11,"score":1.5619283549610634},{"id":"bushekeri_8720","citySlug":"bushekeri","name":"Playa Central","category":"playa","lat":-2.4220927233491434,"lng":29.0848832470806,"avgVisitMinutes":72,"estimatedCostEur":9,"score":3.7992930569756767},{"id":"byumba_9786","citySlug":"byumba","name":"Teatro Municipal","category":"cultura","lat":-1.5768729496835219,"lng":30.076969854470825,"avgVisitMinutes":77,"estimatedCostEur":2,"score":1.2088928379151722},{"id":"byumba_1301","citySlug":"byumba","name":"Mirador de Byumba","category":"mirador","lat":-1.5839349791658563,"lng":30.069599513725535,"avgVisitMinutes":37,"estimatedCostEur":16,"score":1.7778363792457927},{"id":"byumba_6626","citySlug":"byumba","name":"Iglesia de Byumba","category":"historia","lat":-1.5681475938761729,"lng":30.065566628612057,"avgVisitMinutes":73,"estimatedCostEur":23,"score":2.4210740207247428},{"id":"byumba_2937","citySlug":"byumba","name":"Punto Panorámico","category":"mirador","lat":-1.5802295735812353,"lng":30.072450543074122,"avgVisitMinutes":46,"estimatedCostEur":22,"score":0.7637045446601951},{"id":"byumba_8002","citySlug":"byumba","name":"Zona Comercial","category":"ocio","lat":-1.5744686346953662,"lng":30.07458739845993,"avgVisitMinutes":52,"estimatedCostEur":8,"score":1.185944584248745},{"id":"byumba_8216","citySlug":"byumba","name":"Murallas de Byumba","category":"historia","lat":-1.5730394492708855,"lng":30.07479728830659,"avgVisitMinutes":55,"estimatedCostEur":2,"score":0.7105554345899625},{"id":"byumba_1401","citySlug":"byumba","name":"Ruta de Tapas","category":"gastronomia","lat":-1.5732896454915242,"lng":30.066035508816203,"avgVisitMinutes":87,"estimatedCostEur":15,"score":3.8993100725483916},{"id":"byumba_2254","citySlug":"byumba","name":"Restaurante Típico de Byumba","category":"gastronomia","lat":-1.5712156612054764,"lng":30.07139574969734,"avgVisitMinutes":73,"estimatedCostEur":21,"score":3.098731904963084},{"id":"byumba_8187","citySlug":"byumba","name":"Museo Cultural de Byumba","category":"cultura","lat":-1.5829714356272548,"lng":30.077292473749953,"avgVisitMinutes":33,"estimatedCostEur":0,"score":3.8366306164026707},{"id":"byumba_3865","citySlug":"byumba","name":"Museo Cultural de Byumba","category":"cultura","lat":-1.5671040474347744,"lng":30.06472639392053,"avgVisitMinutes":45,"estimatedCostEur":14,"score":2.4779796395282196},{"id":"byumba_5812","citySlug":"byumba","name":"Museo Cultural de Byumba","category":"cultura","lat":-1.5664797714408234,"lng":30.060539626326275,"avgVisitMinutes":59,"estimatedCostEur":14,"score":3.0914528767915943},{"id":"byumba_5895","citySlug":"byumba","name":"Playa Sur","category":"playa","lat":-1.5824297923195112,"lng":30.059074304904716,"avgVisitMinutes":48,"estimatedCostEur":11,"score":4.634173329427461},{"id":"butare_6558","citySlug":"butare","name":"Restaurante Típico de Butare","category":"gastronomia","lat":-2.606525053783466,"lng":29.732147808044395,"avgVisitMinutes":43,"estimatedCostEur":0,"score":4.618423178289534},{"id":"butare_4325","citySlug":"butare","name":"Murallas de Butare","category":"historia","lat":-2.5867905780773315,"lng":29.74513190591591,"avgVisitMinutes":86,"estimatedCostEur":24,"score":4.7909899915296},{"id":"butare_2944","citySlug":"butare","name":"Ruta de Tapas","category":"gastronomia","lat":-2.588736218348258,"lng":29.741567902363467,"avgVisitMinutes":53,"estimatedCostEur":18,"score":4.262562464587132},{"id":"butare_7335","citySlug":"butare","name":"Zona Comercial","category":"ocio","lat":-2.590635134045603,"lng":29.743704644404797,"avgVisitMinutes":28,"estimatedCostEur":10,"score":4.885142399128192},{"id":"butare_7922","citySlug":"butare","name":"Restaurante Típico de Butare","category":"gastronomia","lat":-2.59169418294957,"lng":29.74032614511334,"avgVisitMinutes":61,"estimatedCostEur":14,"score":1.890040052544433},{"id":"butare_5878","citySlug":"butare","name":"Punto Panorámico","category":"mirador","lat":-2.5997436852265556,"lng":29.73972826315665,"avgVisitMinutes":85,"estimatedCostEur":21,"score":4.403664646935982},{"id":"butare_4076","citySlug":"butare","name":"Paseo Principal","category":"ocio","lat":-2.6049154451282126,"lng":29.740765416965292,"avgVisitMinutes":20,"estimatedCostEur":16,"score":4.747530749375445},{"id":"butare_6926","citySlug":"butare","name":"Playa Sur","category":"playa","lat":-2.5874318136240353,"lng":29.74473827865289,"avgVisitMinutes":66,"estimatedCostEur":3,"score":1.579395357434519},{"id":"busogo_1862","citySlug":"busogo","name":"Zona Comercial","category":"ocio","lat":-1.5561623476547581,"lng":29.550598447093122,"avgVisitMinutes":76,"estimatedCostEur":0,"score":1.231462066620551},{"id":"busogo_7919","citySlug":"busogo","name":"Museo Cultural de Busogo","category":"cultura","lat":-1.5553789384003043,"lng":29.54647373701567,"avgVisitMinutes":75,"estimatedCostEur":25,"score":4.7733280942769465},{"id":"busogo_3753","citySlug":"busogo","name":"Playa Sur","category":"playa","lat":-1.550094729092321,"lng":29.553130445768822,"avgVisitMinutes":38,"estimatedCostEur":12,"score":3.8902180802877093},{"id":"busogo_9565","citySlug":"busogo","name":"Zona Comercial","category":"ocio","lat":-1.5653831781599659,"lng":29.534740580347343,"avgVisitMinutes":46,"estimatedCostEur":12,"score":4.255900991535897},{"id":"busogo_9240","citySlug":"busogo","name":"Playa Sur","category":"playa","lat":-1.560991999864827,"lng":29.536834234610325,"avgVisitMinutes":56,"estimatedCostEur":14,"score":1.1557568588833482},{"id":"busogo_1918","citySlug":"busogo","name":"Galería de Arte","category":"cultura","lat":-1.5675688643040948,"lng":29.538514789728907,"avgVisitMinutes":23,"estimatedCostEur":14,"score":1.9034542215785928},{"id":"busogo_2123","citySlug":"busogo","name":"Punto Panorámico","category":"mirador","lat":-1.565823793287003,"lng":29.539712651358453,"avgVisitMinutes":35,"estimatedCostEur":2,"score":2.8835601444410814},{"id":"busogo_8958","citySlug":"busogo","name":"Vista Alta de Busogo","category":"mirador","lat":-1.5633751478928204,"lng":29.536385969156765,"avgVisitMinutes":47,"estimatedCostEur":21,"score":0.5562112521830948},{"id":"busogo_3322","citySlug":"busogo","name":"Galería de Arte","category":"cultura","lat":-1.5559332202071086,"lng":29.53669923334482,"avgVisitMinutes":49,"estimatedCostEur":7,"score":2.043879489969071},{"id":"bugarama_2520","citySlug":"bugarama","name":"Ruta de Tapas","category":"gastronomia","lat":-2.7006905670521886,"lng":29.001710383864072,"avgVisitMinutes":20,"estimatedCostEur":4,"score":1.8946989943728012},{"id":"bugarama_4954","citySlug":"bugarama","name":"Mirador de Bugarama","category":"mirador","lat":-2.694262366272547,"lng":29.005052500829,"avgVisitMinutes":32,"estimatedCostEur":19,"score":1.2201541180924906},{"id":"bugarama_4282","citySlug":"bugarama","name":"Playa Norte","category":"playa","lat":-2.694829837063269,"lng":29.000770356879862,"avgVisitMinutes":53,"estimatedCostEur":6,"score":1.21817899526563},{"id":"bugarama_1633","citySlug":"bugarama","name":"Playa Central","category":"playa","lat":-2.683468665783671,"lng":28.999638003100827,"avgVisitMinutes":20,"estimatedCostEur":21,"score":3.8027477633442626},{"id":"bugarama_8062","citySlug":"bugarama","name":"Iglesia de Bugarama","category":"historia","lat":-2.6949312292379344,"lng":28.99879522814337,"avgVisitMinutes":47,"estimatedCostEur":11,"score":3.4436368564559583},{"id":"bugarama_7588","citySlug":"bugarama","name":"Galería de Arte","category":"cultura","lat":-2.685988513462183,"lng":29.01154435359895,"avgVisitMinutes":54,"estimatedCostEur":12,"score":3.293915518045541},{"id":"bugarama_5289","citySlug":"bugarama","name":"Ruta de Tapas","category":"gastronomia","lat":-2.6932925001264816,"lng":29.014767535967,"avgVisitMinutes":39,"estimatedCostEur":24,"score":0.7741317580848606},{"id":"bugarama_2889","citySlug":"bugarama","name":"Playa Norte","category":"playa","lat":-2.6888031972129802,"lng":29.001638751429034,"avgVisitMinutes":89,"estimatedCostEur":22,"score":3.468416988286889},{"id":"rangiro_9857","citySlug":"rangiro","name":"Vista Alta de Rangiro","category":"mirador","lat":-2.4137519806677954,"lng":29.168058500447163,"avgVisitMinutes":24,"estimatedCostEur":6,"score":4.320088593580051},{"id":"rangiro_5898","citySlug":"rangiro","name":"Playa Central","category":"playa","lat":-2.3946734495371294,"lng":29.157759418110412,"avgVisitMinutes":37,"estimatedCostEur":17,"score":0.8441189302406256},{"id":"rangiro_6912","citySlug":"rangiro","name":"Zona Comercial","category":"ocio","lat":-2.4131001675112986,"lng":29.151103112897673,"avgVisitMinutes":52,"estimatedCostEur":17,"score":4.799221554498356},{"id":"rangiro_7011","citySlug":"rangiro","name":"Galería de Arte","category":"cultura","lat":-2.408546495572218,"lng":29.16403269130618,"avgVisitMinutes":57,"estimatedCostEur":23,"score":0.8339769299433433},{"id":"rangiro_9174","citySlug":"rangiro","name":"Teatro Municipal","category":"cultura","lat":-2.398388339155576,"lng":29.165766529323097,"avgVisitMinutes":39,"estimatedCostEur":4,"score":2.4876475494430506},{"id":"rangiro_5851","citySlug":"rangiro","name":"Zona Comercial","category":"ocio","lat":-2.3973676322775805,"lng":29.16052387154884,"avgVisitMinutes":30,"estimatedCostEur":22,"score":2.7973269963577643},{"id":"rangiro_4336","citySlug":"rangiro","name":"Teatro Municipal","category":"cultura","lat":-2.404358327800505,"lng":29.16024557975755,"avgVisitMinutes":71,"estimatedCostEur":14,"score":2.9905518345528708},{"id":"rangiro_6994","citySlug":"rangiro","name":"Restaurante Típico de Rangiro","category":"gastronomia","lat":-2.395657029522724,"lng":29.150840835364214,"avgVisitMinutes":87,"estimatedCostEur":4,"score":1.2840273815838854},{"id":"rangiro_6456","citySlug":"rangiro","name":"Museo Cultural de Rangiro","category":"cultura","lat":-2.412439979643662,"lng":29.16059187579136,"avgVisitMinutes":31,"estimatedCostEur":7,"score":0.6549337562505154},{"id":"gitesi_4553","citySlug":"gitesi","name":"Mercado Gastronómico","category":"gastronomia","lat":-2.1170892687157314,"lng":29.405850085657104,"avgVisitMinutes":27,"estimatedCostEur":17,"score":4.521116372727655},{"id":"gitesi_1416","citySlug":"gitesi","name":"Restaurante Típico de Gitesi","category":"gastronomia","lat":-2.117699382973985,"lng":29.392551936492602,"avgVisitMinutes":78,"estimatedCostEur":5,"score":4.382756925381599},{"id":"gitesi_9409","citySlug":"gitesi","name":"Restaurante Típico de Gitesi","category":"gastronomia","lat":-2.1054750146758683,"lng":29.402850334523553,"avgVisitMinutes":20,"estimatedCostEur":11,"score":4.76003145224867},{"id":"gitesi_4350","citySlug":"gitesi","name":"Punto Panorámico","category":"mirador","lat":-2.107447261678984,"lng":29.405238298854833,"avgVisitMinutes":21,"estimatedCostEur":13,"score":1.3586979299507944},{"id":"gitesi_3420","citySlug":"gitesi","name":"Parque Central","category":"ocio","lat":-2.1043346102523626,"lng":29.398753572633364,"avgVisitMinutes":34,"estimatedCostEur":16,"score":1.9814380854651858},{"id":"gitesi_6544","citySlug":"gitesi","name":"Centro de Arte de Gitesi","category":"cultura","lat":-2.108083398536063,"lng":29.394914428161,"avgVisitMinutes":89,"estimatedCostEur":16,"score":1.966070264878925},{"id":"gitesi_7222","citySlug":"gitesi","name":"Vista Alta de Gitesi","category":"mirador","lat":-2.1184287542243267,"lng":29.40160099063469,"avgVisitMinutes":31,"estimatedCostEur":0,"score":2.2959808693156925},{"id":"gitesi_9672","citySlug":"gitesi","name":"Zona Comercial","category":"ocio","lat":-2.1191203317656653,"lng":29.392821385425727,"avgVisitMinutes":31,"estimatedCostEur":5,"score":1.4732649614200104},{"id":"gitesi_3525","citySlug":"gitesi","name":"Museo Cultural de Gitesi","category":"cultura","lat":-2.104566759643694,"lng":29.401917414590464,"avgVisitMinutes":61,"estimatedCostEur":3,"score":3.871660448909182},{"id":"gitesi_7316","citySlug":"gitesi","name":"Iglesia de Gitesi","category":"historia","lat":-2.1147612903693584,"lng":29.394698604527335,"avgVisitMinutes":44,"estimatedCostEur":12,"score":1.2131923239011215},{"id":"gitesi_9283","citySlug":"gitesi","name":"Zona Comercial","category":"ocio","lat":-2.1176311986323615,"lng":29.411342816939822,"avgVisitMinutes":59,"estimatedCostEur":3,"score":4.504119122337398},{"id":"kora_6303","citySlug":"kora","name":"Paseo Principal","category":"ocio","lat":-1.6055427987623956,"lng":29.441176822348325,"avgVisitMinutes":20,"estimatedCostEur":23,"score":3.365678648363591},{"id":"kora_7831","citySlug":"kora","name":"Restaurante Típico de Kora","category":"gastronomia","lat":-1.6085757109670782,"lng":29.44152452193958,"avgVisitMinutes":30,"estimatedCostEur":24,"score":2.570682806809576},{"id":"kora_9561","citySlug":"kora","name":"Iglesia de Kora","category":"historia","lat":-1.6057767036157777,"lng":29.454963769265152,"avgVisitMinutes":53,"estimatedCostEur":15,"score":2.6419215188896703},{"id":"kora_4560","citySlug":"kora","name":"Punto Panorámico","category":"mirador","lat":-1.6091381040485988,"lng":29.44257120576761,"avgVisitMinutes":45,"estimatedCostEur":24,"score":1.1521853452540518},{"id":"kora_6317","citySlug":"kora","name":"Playa Central","category":"playa","lat":-1.617449250220756,"lng":29.453213298746885,"avgVisitMinutes":25,"estimatedCostEur":1,"score":1.5232440758321997},{"id":"kora_5605","citySlug":"kora","name":"Mercado Gastronómico","category":"gastronomia","lat":-1.6085820564508901,"lng":29.43809688709254,"avgVisitMinutes":70,"estimatedCostEur":7,"score":1.7422620788564278},{"id":"kora_1179","citySlug":"kora","name":"Murallas de Kora","category":"historia","lat":-1.6160104212334967,"lng":29.442482220495204,"avgVisitMinutes":86,"estimatedCostEur":2,"score":3.074644404500958},{"id":"kora_2483","citySlug":"kora","name":"Mercado Gastronómico","category":"gastronomia","lat":-1.607686019215564,"lng":29.444075976070803,"avgVisitMinutes":20,"estimatedCostEur":19,"score":0.5590374571884413},{"id":"mukamira_4834","citySlug":"mukamira","name":"Zona Comercial","category":"ocio","lat":-1.6203222782557003,"lng":29.493518889770435,"avgVisitMinutes":56,"estimatedCostEur":13,"score":2.365710052812666},{"id":"mukamira_5104","citySlug":"mukamira","name":"Playa Norte","category":"playa","lat":-1.6025733191730507,"lng":29.50093433516312,"avgVisitMinutes":23,"estimatedCostEur":24,"score":3.2415337374989117},{"id":"mukamira_4313","citySlug":"mukamira","name":"Restaurante Típico de Mukamira","category":"gastronomia","lat":-1.6176750424179134,"lng":29.49914284369978,"avgVisitMinutes":28,"estimatedCostEur":13,"score":4.904609133762038},{"id":"mukamira_2761","citySlug":"mukamira","name":"Museo Cultural de Mukamira","category":"cultura","lat":-1.6106256742002303,"lng":29.495738693025388,"avgVisitMinutes":48,"estimatedCostEur":10,"score":1.7964208822972791},{"id":"mukamira_1556","citySlug":"mukamira","name":"Parque Central","category":"ocio","lat":-1.6083039934068835,"lng":29.501754237447976,"avgVisitMinutes":35,"estimatedCostEur":1,"score":0.5920640672637638},{"id":"mukamira_4992","citySlug":"mukamira","name":"Playa Sur","category":"playa","lat":-1.6200150168424383,"lng":29.501736434496138,"avgVisitMinutes":90,"estimatedCostEur":3,"score":1.4459206617761033},{"id":"mukamira_7067","citySlug":"mukamira","name":"Punto Panorámico","category":"mirador","lat":-1.6160837276952873,"lng":29.492505470115056,"avgVisitMinutes":52,"estimatedCostEur":0,"score":3.8121138811400463},{"id":"mukamira_6929","citySlug":"mukamira","name":"Paseo Principal","category":"ocio","lat":-1.6204292077176552,"lng":29.506061737741586,"avgVisitMinutes":68,"estimatedCostEur":24,"score":4.113301017895575},{"id":"mukamira_7770","citySlug":"mukamira","name":"Murallas de Mukamira","category":"historia","lat":-1.6154120792453015,"lng":29.50316965241614,"avgVisitMinutes":78,"estimatedCostEur":4,"score":1.8144192378475532},{"id":"mukingo_9099","citySlug":"mukingo","name":"Centro Histórico","category":"historia","lat":-1.54728335108943,"lng":29.555025922700725,"avgVisitMinutes":37,"estimatedCostEur":3,"score":2.4718666753358702},{"id":"mukingo_1840","citySlug":"mukingo","name":"Parque Central","category":"ocio","lat":-1.5349740970399914,"lng":29.546135837966396,"avgVisitMinutes":41,"estimatedCostEur":7,"score":3.1490832876290806},{"id":"mukingo_8233","citySlug":"mukingo","name":"Playa Norte","category":"playa","lat":-1.5334541797931622,"lng":29.54644014837569,"avgVisitMinutes":20,"estimatedCostEur":14,"score":4.478595200149857},{"id":"mukingo_3083","citySlug":"mukingo","name":"Paseo Principal","category":"ocio","lat":-1.5333093830604103,"lng":29.54683918930349,"avgVisitMinutes":67,"estimatedCostEur":19,"score":3.7115003090046144},{"id":"mukingo_8080","citySlug":"mukingo","name":"Mercado Gastronómico","category":"gastronomia","lat":-1.5329341649416777,"lng":29.55683402666231,"avgVisitMinutes":33,"estimatedCostEur":6,"score":4.177907994328866},{"id":"mukingo_4397","citySlug":"mukingo","name":"Mercado Gastronómico","category":"gastronomia","lat":-1.5426262510274376,"lng":29.55501044332706,"avgVisitMinutes":73,"estimatedCostEur":3,"score":2.4924382532983254},{"id":"mukingo_8452","citySlug":"mukingo","name":"Zona Comercial","category":"ocio","lat":-1.535999147333754,"lng":29.556260651722415,"avgVisitMinutes":49,"estimatedCostEur":17,"score":1.3365897255939616},{"id":"mukingo_8905","citySlug":"mukingo","name":"Mercado Gastronómico","category":"gastronomia","lat":-1.5431500823988782,"lng":29.560487671281443,"avgVisitMinutes":64,"estimatedCostEur":10,"score":0.5716986441720812},{"id":"mukingo_1573","citySlug":"mukingo","name":"Iglesia de Mukingo","category":"historia","lat":-1.5308243869320342,"lng":29.5596301057688,"avgVisitMinutes":29,"estimatedCostEur":9,"score":1.0951624344075293},{"id":"mukingo_7793","citySlug":"mukingo","name":"Centro Histórico","category":"historia","lat":-1.5384995399298196,"lng":29.56059298766929,"avgVisitMinutes":68,"estimatedCostEur":10,"score":2.6362031191966278},{"id":"mukingo_3604","citySlug":"mukingo","name":"Paseo Principal","category":"ocio","lat":-1.532267115686522,"lng":29.554309580580483,"avgVisitMinutes":56,"estimatedCostEur":24,"score":1.6405647628495084},{"id":"tare_1074","citySlug":"tare","name":"Parque Central","category":"ocio","lat":-1.7211116937358968,"lng":29.894383481200038,"avgVisitMinutes":43,"estimatedCostEur":11,"score":4.068485565143915},{"id":"tare_3405","citySlug":"tare","name":"Paseo Principal","category":"ocio","lat":-1.7087768121482192,"lng":29.907098574874627,"avgVisitMinutes":87,"estimatedCostEur":17,"score":2.2386890025018156},{"id":"tare_7592","citySlug":"tare","name":"Paseo Principal","category":"ocio","lat":-1.7249312576163245,"lng":29.893478049286635,"avgVisitMinutes":47,"estimatedCostEur":14,"score":4.81713329167797},{"id":"tare_5942","citySlug":"tare","name":"Centro de Arte de Tare","category":"cultura","lat":-1.706924789633908,"lng":29.897757098351523,"avgVisitMinutes":72,"estimatedCostEur":8,"score":0.8741689512049249},{"id":"tare_3204","citySlug":"tare","name":"Zona Comercial","category":"ocio","lat":-1.7057431983858935,"lng":29.903868375801483,"avgVisitMinutes":61,"estimatedCostEur":17,"score":0.9577776528072017},{"id":"tare_2494","citySlug":"tare","name":"Galería de Arte","category":"cultura","lat":-1.7242888492251223,"lng":29.90383866360319,"avgVisitMinutes":81,"estimatedCostEur":11,"score":1.7066275936492121},{"id":"ruhuha_2844","citySlug":"ruhuha","name":"Museo Cultural de Ruhuha","category":"cultura","lat":-2.3139057043785316,"lng":30.053561444707157,"avgVisitMinutes":27,"estimatedCostEur":23,"score":1.219653034712078},{"id":"ruhuha_8219","citySlug":"ruhuha","name":"Museo Cultural de Ruhuha","category":"cultura","lat":-2.296295124740456,"lng":30.049903013475646,"avgVisitMinutes":39,"estimatedCostEur":14,"score":1.8347392360106745},{"id":"ruhuha_8845","citySlug":"ruhuha","name":"Ruta de Tapas","category":"gastronomia","lat":-2.3123297344229434,"lng":30.052874805349067,"avgVisitMinutes":30,"estimatedCostEur":1,"score":2.7235304670109004},{"id":"ruhuha_1925","citySlug":"ruhuha","name":"Centro Histórico","category":"historia","lat":-2.294522030554558,"lng":30.056887321913937,"avgVisitMinutes":28,"estimatedCostEur":19,"score":2.7121562638768246},{"id":"ruhuha_1027","citySlug":"ruhuha","name":"Playa Sur","category":"playa","lat":-2.2985990515034596,"lng":30.04152346203883,"avgVisitMinutes":21,"estimatedCostEur":14,"score":3.369944310384529},{"id":"ruhuha_4546","citySlug":"ruhuha","name":"Ruta de Tapas","category":"gastronomia","lat":-2.2993833727978803,"lng":30.059167645752712,"avgVisitMinutes":69,"estimatedCostEur":3,"score":4.885946875045048},{"id":"ruhuha_4358","citySlug":"ruhuha","name":"Playa Sur","category":"playa","lat":-2.3103910528227405,"lng":30.051328785797093,"avgVisitMinutes":61,"estimatedCostEur":10,"score":1.6174501354934125},{"id":"kayonza_3919","citySlug":"kayonza","name":"Galería de Arte","category":"cultura","lat":-1.942863038120904,"lng":30.530180772008002,"avgVisitMinutes":70,"estimatedCostEur":13,"score":2.1073556944479854},{"id":"kayonza_9209","citySlug":"kayonza","name":"Restaurante Típico de Kayonza","category":"gastronomia","lat":-1.9439475096768524,"lng":30.522067184070952,"avgVisitMinutes":26,"estimatedCostEur":22,"score":1.25070336728389},{"id":"kayonza_8040","citySlug":"kayonza","name":"Centro Histórico","category":"historia","lat":-1.9557438973775834,"lng":30.519438684031794,"avgVisitMinutes":80,"estimatedCostEur":10,"score":2.8698928561898},{"id":"kayonza_4154","citySlug":"kayonza","name":"Teatro Municipal","category":"cultura","lat":-1.9534711990243752,"lng":30.511119116863313,"avgVisitMinutes":50,"estimatedCostEur":7,"score":2.934552930939985},{"id":"kayonza_3385","citySlug":"kayonza","name":"Castillo de Kayonza","category":"historia","lat":-1.9580530329506491,"lng":30.524036315267633,"avgVisitMinutes":82,"estimatedCostEur":22,"score":3.8264891076844485},{"id":"kayonza_1977","citySlug":"kayonza","name":"Murallas de Kayonza","category":"historia","lat":-1.9448134251189084,"lng":30.525281399177672,"avgVisitMinutes":65,"estimatedCostEur":21,"score":3.877535357003981},{"id":"kayonza_5508","citySlug":"kayonza","name":"Teatro Municipal","category":"cultura","lat":-1.960252008307655,"lng":30.518121453785525,"avgVisitMinutes":49,"estimatedCostEur":14,"score":4.095074815420017},{"id":"kayonza_1076","citySlug":"kayonza","name":"Mercado Gastronómico","category":"gastronomia","lat":-1.956972997498469,"lng":30.520051251997746,"avgVisitMinutes":59,"estimatedCostEur":5,"score":3.3939916559700554},{"id":"kayonza_4460","citySlug":"kayonza","name":"Mirador de Kayonza","category":"mirador","lat":-1.9509000701312795,"lng":30.51595041784526,"avgVisitMinutes":27,"estimatedCostEur":12,"score":3.5452365667707664},{"id":"kayonza_2709","citySlug":"kayonza","name":"Playa Norte","category":"playa","lat":-1.9496082722445656,"lng":30.522500508252246,"avgVisitMinutes":36,"estimatedCostEur":21,"score":4.881691028918477},{"id":"kayonza_8606","citySlug":"kayonza","name":"Vista Alta de Kayonza","category":"mirador","lat":-1.9486050360091491,"lng":30.514552725624366,"avgVisitMinutes":60,"estimatedCostEur":16,"score":3.094864301483246},{"id":"kayonza_2122","citySlug":"kayonza","name":"Museo Local de Kayonza","category":"historia","lat":-1.946149823652558,"lng":30.520354951400638,"avgVisitMinutes":39,"estimatedCostEur":13,"score":0.7885541216526666},{"id":"macuba_2956","citySlug":"macuba","name":"Paseo Principal","category":"ocio","lat":-2.287258079852622,"lng":29.18599457942257,"avgVisitMinutes":54,"estimatedCostEur":2,"score":2.4963178559015837},{"id":"macuba_4054","citySlug":"macuba","name":"Playa Norte","category":"playa","lat":-2.288154250599929,"lng":29.179013730062834,"avgVisitMinutes":72,"estimatedCostEur":4,"score":4.973019018375785},{"id":"macuba_9628","citySlug":"macuba","name":"Playa Norte","category":"playa","lat":-2.2854131153887227,"lng":29.181443648014966,"avgVisitMinutes":63,"estimatedCostEur":20,"score":1.029114676748109},{"id":"macuba_3959","citySlug":"macuba","name":"Mercado Gastronómico","category":"gastronomia","lat":-2.3021200619279463,"lng":29.195478801176307,"avgVisitMinutes":59,"estimatedCostEur":8,"score":1.5975601175405805},{"id":"macuba_3658","citySlug":"macuba","name":"Museo Cultural de Macuba","category":"cultura","lat":-2.288528477022362,"lng":29.185446830410992,"avgVisitMinutes":79,"estimatedCostEur":5,"score":2.8371857770745397},{"id":"macuba_6624","citySlug":"macuba","name":"Mercado Gastronómico","category":"gastronomia","lat":-2.297795828640242,"lng":29.178759768804937,"avgVisitMinutes":75,"estimatedCostEur":0,"score":3.7518279569469364},{"id":"macuba_9699","citySlug":"macuba","name":"Centro de Arte de Macuba","category":"cultura","lat":-2.28614242461765,"lng":29.191330759427693,"avgVisitMinutes":43,"estimatedCostEur":4,"score":1.1033318997600015},{"id":"macuba_4823","citySlug":"macuba","name":"Museo Cultural de Macuba","category":"cultura","lat":-2.289268576660005,"lng":29.195602889290885,"avgVisitMinutes":75,"estimatedCostEur":21,"score":2.4894257298946054},{"id":"karambi_8503","citySlug":"karambi","name":"Mirador de Karambi","category":"mirador","lat":-2.3177724248648977,"lng":29.24772471307449,"avgVisitMinutes":33,"estimatedCostEur":4,"score":4.53942242474096},{"id":"karambi_6070","citySlug":"karambi","name":"Playa Central","category":"playa","lat":-2.324562407708858,"lng":29.245249025613802,"avgVisitMinutes":83,"estimatedCostEur":5,"score":1.2367055950328307},{"id":"karambi_3726","citySlug":"karambi","name":"Playa Norte","category":"playa","lat":-2.3253912495645985,"lng":29.23818461513607,"avgVisitMinutes":27,"estimatedCostEur":19,"score":4.809681717253698},{"id":"karambi_8352","citySlug":"karambi","name":"Parque Central","category":"ocio","lat":-2.3248866511798854,"lng":29.236198983795788,"avgVisitMinutes":62,"estimatedCostEur":16,"score":1.2411427250616895},{"id":"karambi_5297","citySlug":"karambi","name":"Punto Panorámico","category":"mirador","lat":-2.310498559264317,"lng":29.243684714339324,"avgVisitMinutes":62,"estimatedCostEur":2,"score":1.4652951378145482},{"id":"karambi_9772","citySlug":"karambi","name":"Punto Panorámico","category":"mirador","lat":-2.3123127460497175,"lng":29.25238170092797,"avgVisitMinutes":60,"estimatedCostEur":12,"score":2.143353925062914},{"id":"karambi_3675","citySlug":"karambi","name":"Parque Central","category":"ocio","lat":-2.309749723494126,"lng":29.246997421890924,"avgVisitMinutes":36,"estimatedCostEur":7,"score":2.113336808478854},{"id":"karambi_1449","citySlug":"karambi","name":"Museo Cultural de Karambi","category":"cultura","lat":-2.32646327681244,"lng":29.240719646458018,"avgVisitMinutes":53,"estimatedCostEur":14,"score":1.779329673756574},{"id":"karambi_8825","citySlug":"karambi","name":"Paseo Principal","category":"ocio","lat":-2.324680429457826,"lng":29.238436214613564,"avgVisitMinutes":62,"estimatedCostEur":21,"score":3.4755922248946822},{"id":"karambi_6391","citySlug":"karambi","name":"Restaurante Típico de Karambi","category":"gastronomia","lat":-2.3138306815189713,"lng":29.25218838612134,"avgVisitMinutes":80,"estimatedCostEur":5,"score":2.6830939552965845},{"id":"karambi_7015","citySlug":"karambi","name":"Paseo Principal","category":"ocio","lat":-2.314168091101514,"lng":29.252151800448363,"avgVisitMinutes":42,"estimatedCostEur":18,"score":2.081765510794655},{"id":"kagano_8556","citySlug":"kagano","name":"Paseo Principal","category":"ocio","lat":-2.3398148869083406,"lng":29.082358162618352,"avgVisitMinutes":46,"estimatedCostEur":22,"score":2.753268541404486},{"id":"kagano_6685","citySlug":"kagano","name":"Ruta de Tapas","category":"gastronomia","lat":-2.3385193810755176,"lng":29.098983193522624,"avgVisitMinutes":80,"estimatedCostEur":7,"score":3.2977925202299763},{"id":"kagano_2094","citySlug":"kagano","name":"Vista Alta de Kagano","category":"mirador","lat":-2.3487664154286896,"lng":29.087950421607268,"avgVisitMinutes":43,"estimatedCostEur":5,"score":2.7293102375182263},{"id":"kagano_2115","citySlug":"kagano","name":"Teatro Municipal","category":"cultura","lat":-2.3450758404100522,"lng":29.08411185712486,"avgVisitMinutes":90,"estimatedCostEur":5,"score":1.4616911292562837},{"id":"kagano_7500","citySlug":"kagano","name":"Playa Norte","category":"playa","lat":-2.340045222628848,"lng":29.098428628152277,"avgVisitMinutes":32,"estimatedCostEur":0,"score":2.732057371117028},{"id":"kagano_2049","citySlug":"kagano","name":"Vista Alta de Kagano","category":"mirador","lat":-2.3455247281420912,"lng":29.08527865415563,"avgVisitMinutes":78,"estimatedCostEur":17,"score":3.5492490010052244},{"id":"kagano_2932","citySlug":"kagano","name":"Zona Comercial","category":"ocio","lat":-2.3373003725448456,"lng":29.088364857498043,"avgVisitMinutes":36,"estimatedCostEur":23,"score":3.35253590314572},{"id":"kagano_7861","citySlug":"kagano","name":"Teatro Municipal","category":"cultura","lat":-2.340096903438182,"lng":29.08695918144591,"avgVisitMinutes":43,"estimatedCostEur":9,"score":4.376393737420089},{"id":"kagano_7693","citySlug":"kagano","name":"Parque Central","category":"ocio","lat":-2.351583052610134,"lng":29.081223322280028,"avgVisitMinutes":30,"estimatedCostEur":4,"score":2.3762579292775348},{"id":"nyabitekeli_2428","citySlug":"nyabitekeli","name":"Iglesia de Nyabitekeli","category":"historia","lat":-2.3623938959520836,"lng":29.021808147929004,"avgVisitMinutes":90,"estimatedCostEur":9,"score":3.029822126043281},{"id":"nyabitekeli_2906","citySlug":"nyabitekeli","name":"Punto Panorámico","category":"mirador","lat":-2.34420853680221,"lng":29.030091430068214,"avgVisitMinutes":57,"estimatedCostEur":9,"score":1.2442590815560053},{"id":"nyabitekeli_4863","citySlug":"nyabitekeli","name":"Zona Comercial","category":"ocio","lat":-2.3622561497350656,"lng":29.03530978644792,"avgVisitMinutes":53,"estimatedCostEur":22,"score":3.0969900845930374},{"id":"nyabitekeli_9299","citySlug":"nyabitekeli","name":"Castillo de Nyabitekeli","category":"historia","lat":-2.3567970693405615,"lng":29.031861697180354,"avgVisitMinutes":29,"estimatedCostEur":5,"score":0.7585475615634665},{"id":"nyabitekeli_2976","citySlug":"nyabitekeli","name":"Parque Central","category":"ocio","lat":-2.362457954892985,"lng":29.029751678402953,"avgVisitMinutes":89,"estimatedCostEur":24,"score":0.8479584234337608},{"id":"nyabitekeli_8265","citySlug":"nyabitekeli","name":"Galería de Arte","category":"cultura","lat":-2.34856823744476,"lng":29.037547629715274,"avgVisitMinutes":60,"estimatedCostEur":20,"score":3.337180820264027},{"id":"nyabitekeli_7791","citySlug":"nyabitekeli","name":"Mirador de Nyabitekeli","category":"mirador","lat":-2.35323661624115,"lng":29.029725836528243,"avgVisitMinutes":23,"estimatedCostEur":1,"score":1.5433828623173809},{"id":"nyabitekeli_5371","citySlug":"nyabitekeli","name":"Restaurante Típico de Nyabitekeli","category":"gastronomia","lat":-2.358549227768049,"lng":29.036186792323992,"avgVisitMinutes":78,"estimatedCostEur":1,"score":1.9688621942505933},{"id":"cyato_5712","citySlug":"cyato","name":"Restaurante Típico de Cyato","category":"gastronomia","lat":-2.37869131437626,"lng":29.188845100900867,"avgVisitMinutes":46,"estimatedCostEur":10,"score":3.0661140875819832},{"id":"cyato_7892","citySlug":"cyato","name":"Playa Central","category":"playa","lat":-2.383750102939,"lng":29.1944220261122,"avgVisitMinutes":81,"estimatedCostEur":22,"score":3.704248909109614},{"id":"cyato_5129","citySlug":"cyato","name":"Castillo de Cyato","category":"historia","lat":-2.380362325384184,"lng":29.198442115019784,"avgVisitMinutes":71,"estimatedCostEur":21,"score":3.85963873603902},{"id":"cyato_7137","citySlug":"cyato","name":"Paseo Principal","category":"ocio","lat":-2.3771992103336452,"lng":29.185018412692283,"avgVisitMinutes":71,"estimatedCostEur":11,"score":2.706623245387457},{"id":"cyato_4385","citySlug":"cyato","name":"Centro Histórico","category":"historia","lat":-2.387443682463346,"lng":29.192694512778612,"avgVisitMinutes":73,"estimatedCostEur":24,"score":4.2877834948497275},{"id":"cyato_2791","citySlug":"cyato","name":"Parque Central","category":"ocio","lat":-2.3866275965562544,"lng":29.201485553834743,"avgVisitMinutes":81,"estimatedCostEur":14,"score":1.8737779539972104},{"id":"bushenge_2065","citySlug":"bushenge","name":"Centro de Arte de Bushenge","category":"cultura","lat":-2.451670661907081,"lng":28.975532264631376,"avgVisitMinutes":33,"estimatedCostEur":18,"score":1.764078995377065},{"id":"bushenge_6303","citySlug":"bushenge","name":"Galería de Arte","category":"cultura","lat":-2.4332762477134406,"lng":28.97788027559458,"avgVisitMinutes":38,"estimatedCostEur":2,"score":0.5554502694618808},{"id":"bushenge_2348","citySlug":"bushenge","name":"Ruta de Tapas","category":"gastronomia","lat":-2.4321818156259023,"lng":28.976146102756005,"avgVisitMinutes":56,"estimatedCostEur":9,"score":4.026452205326749},{"id":"bushenge_6934","citySlug":"bushenge","name":"Punto Panorámico","category":"mirador","lat":-2.451092563053851,"lng":28.98740784356896,"avgVisitMinutes":30,"estimatedCostEur":17,"score":1.8818668640065273},{"id":"bushenge_4673","citySlug":"bushenge","name":"Centro de Arte de Bushenge","category":"cultura","lat":-2.4372662903260767,"lng":28.98179940124748,"avgVisitMinutes":74,"estimatedCostEur":17,"score":1.073956014493846},{"id":"bushenge_2233","citySlug":"bushenge","name":"Galería de Arte","category":"cultura","lat":-2.4439442731906547,"lng":28.97698958152953,"avgVisitMinutes":90,"estimatedCostEur":11,"score":1.412405144128409},{"id":"bushenge_3360","citySlug":"bushenge","name":"Playa Central","category":"playa","lat":-2.442846105798784,"lng":28.981691072921834,"avgVisitMinutes":38,"estimatedCostEur":18,"score":1.3977936999563796},{"id":"bushenge_8850","citySlug":"bushenge","name":"Parque Central","category":"ocio","lat":-2.446048039216772,"lng":28.990356819895293,"avgVisitMinutes":79,"estimatedCostEur":19,"score":0.5511389403665079},{"id":"nyanza_6160","citySlug":"nyanza","name":"Vista Alta de Nyanza","category":"mirador","lat":-2.359738740803017,"lng":29.754043004067082,"avgVisitMinutes":49,"estimatedCostEur":6,"score":4.191746114201598},{"id":"nyanza_1143","citySlug":"nyanza","name":"Teatro Municipal","category":"cultura","lat":-2.3584243085117405,"lng":29.746521461949925,"avgVisitMinutes":55,"estimatedCostEur":4,"score":1.8101539927447232},{"id":"nyanza_1626","citySlug":"nyanza","name":"Teatro Municipal","category":"cultura","lat":-2.3571787938728512,"lng":29.758613323044713,"avgVisitMinutes":36,"estimatedCostEur":13,"score":4.79007514573471},{"id":"nyanza_8282","citySlug":"nyanza","name":"Parque Central","category":"ocio","lat":-2.356361647019,"lng":29.74936047277409,"avgVisitMinutes":59,"estimatedCostEur":15,"score":0.5173114991070904},{"id":"nyanza_6472","citySlug":"nyanza","name":"Galería de Arte","category":"cultura","lat":-2.349684690737242,"lng":29.746720925441377,"avgVisitMinutes":52,"estimatedCostEur":7,"score":4.751447030723977},{"id":"nyanza_4831","citySlug":"nyanza","name":"Punto Panorámico","category":"mirador","lat":-2.3478882956161895,"lng":29.74779453691544,"avgVisitMinutes":20,"estimatedCostEur":20,"score":2.288788700890926},{"id":"nyanza_8187","citySlug":"nyanza","name":"Punto Panorámico","category":"mirador","lat":-2.359594991734303,"lng":29.76074297760362,"avgVisitMinutes":52,"estimatedCostEur":15,"score":4.871322114596784},{"id":"nyanza_4631","citySlug":"nyanza","name":"Mirador de Nyanza","category":"mirador","lat":-2.3594263403343096,"lng":29.758780345001487,"avgVisitMinutes":31,"estimatedCostEur":6,"score":4.365898472414967},{"id":"nyanza_1193","citySlug":"nyanza","name":"Zona Comercial","category":"ocio","lat":-2.356140776330864,"lng":29.752963400119405,"avgVisitMinutes":48,"estimatedCostEur":19,"score":2.68263113799482},{"id":"gihombo_9134","citySlug":"gihombo","name":"Playa Central","category":"playa","lat":-2.216988800798259,"lng":29.24286828077065,"avgVisitMinutes":30,"estimatedCostEur":7,"score":2.2806871168475626},{"id":"gihombo_4477","citySlug":"gihombo","name":"Paseo Principal","category":"ocio","lat":-2.2205624409383256,"lng":29.23009753934727,"avgVisitMinutes":37,"estimatedCostEur":4,"score":1.7334360089311256},{"id":"gihombo_5681","citySlug":"gihombo","name":"Punto Panorámico","category":"mirador","lat":-2.2259842803125958,"lng":29.232904723707538,"avgVisitMinutes":43,"estimatedCostEur":7,"score":0.5106525015452852},{"id":"gihombo_4080","citySlug":"gihombo","name":"Museo Cultural de Gihombo","category":"cultura","lat":-2.2239115107189407,"lng":29.236424162838954,"avgVisitMinutes":23,"estimatedCostEur":23,"score":1.2581479065171741},{"id":"gihombo_7309","citySlug":"gihombo","name":"Mirador de Gihombo","category":"mirador","lat":-2.2264880016387982,"lng":29.24165660032411,"avgVisitMinutes":31,"estimatedCostEur":24,"score":1.7303124245183716},{"id":"gihombo_8050","citySlug":"gihombo","name":"Restaurante Típico de Gihombo","category":"gastronomia","lat":-2.2094197397056337,"lng":29.238866362556674,"avgVisitMinutes":83,"estimatedCostEur":11,"score":4.979913809866628},{"id":"gihombo_6230","citySlug":"gihombo","name":"Playa Central","category":"playa","lat":-2.224907355628058,"lng":29.241611048923694,"avgVisitMinutes":61,"estimatedCostEur":16,"score":4.897854534087473},{"id":"gihombo_2636","citySlug":"gihombo","name":"Iglesia de Gihombo","category":"historia","lat":-2.212491653740429,"lng":29.242880802322638,"avgVisitMinutes":35,"estimatedCostEur":15,"score":4.072374841232256},{"id":"gihombo_2726","citySlug":"gihombo","name":"Museo Cultural de Gihombo","category":"cultura","lat":-2.2261256817659008,"lng":29.23381466222313,"avgVisitMinutes":72,"estimatedCostEur":12,"score":0.5677776346855545},{"id":"gihombo_8822","citySlug":"gihombo","name":"Mercado Gastronómico","category":"gastronomia","lat":-2.2241798135078894,"lng":29.22563945204931,"avgVisitMinutes":41,"estimatedCostEur":6,"score":2.2314759169259464},{"id":"gihombo_5215","citySlug":"gihombo","name":"Mirador de Gihombo","category":"mirador","lat":-2.2186819100046997,"lng":29.2428383350324,"avgVisitMinutes":57,"estimatedCostEur":14,"score":2.295841182430993},{"id":"mahembe_2700","citySlug":"mahembe","name":"Punto Panorámico","category":"mirador","lat":-2.231827635614751,"lng":29.29336255897626,"avgVisitMinutes":26,"estimatedCostEur":24,"score":2.470029227916134},{"id":"mahembe_8954","citySlug":"mahembe","name":"Restaurante Típico de Mahembe","category":"gastronomia","lat":-2.2409878791020468,"lng":29.294859841347492,"avgVisitMinutes":68,"estimatedCostEur":4,"score":1.6873216363401204},{"id":"mahembe_4604","citySlug":"mahembe","name":"Parque Central","category":"ocio","lat":-2.2330575219805455,"lng":29.297131211812342,"avgVisitMinutes":52,"estimatedCostEur":25,"score":3.859043331455259},{"id":"mahembe_7904","citySlug":"mahembe","name":"Playa Sur","category":"playa","lat":-2.239982290848347,"lng":29.29992052345316,"avgVisitMinutes":69,"estimatedCostEur":24,"score":4.371619609679325},{"id":"mahembe_5930","citySlug":"mahembe","name":"Murallas de Mahembe","category":"historia","lat":-2.2374827740819074,"lng":29.293496993132035,"avgVisitMinutes":86,"estimatedCostEur":5,"score":4.489606865285539},{"id":"mahembe_8638","citySlug":"mahembe","name":"Museo Local de Mahembe","category":"historia","lat":-2.2362275618903453,"lng":29.287940155980092,"avgVisitMinutes":26,"estimatedCostEur":9,"score":3.8926170581641557},{"id":"mahembe_6307","citySlug":"mahembe","name":"Restaurante Típico de Mahembe","category":"gastronomia","lat":-2.228624482165181,"lng":29.28970049137295,"avgVisitMinutes":83,"estimatedCostEur":21,"score":2.313372025529987},{"id":"mahembe_5876","citySlug":"mahembe","name":"Playa Norte","category":"playa","lat":-2.244780906843782,"lng":29.291556962963956,"avgVisitMinutes":76,"estimatedCostEur":11,"score":4.026180001861226},{"id":"mahembe_8334","citySlug":"mahembe","name":"Playa Sur","category":"playa","lat":-2.247415141501161,"lng":29.290868376257354,"avgVisitMinutes":73,"estimatedCostEur":3,"score":2.6302916425322906},{"id":"mahembe_9451","citySlug":"mahembe","name":"Museo Local de Mahembe","category":"historia","lat":-2.23938596371154,"lng":29.284073452897598,"avgVisitMinutes":86,"estimatedCostEur":12,"score":2.9537951732342704},{"id":"mahembe_8780","citySlug":"mahembe","name":"Centro de Arte de Mahembe","category":"cultura","lat":-2.2357683968398323,"lng":29.302682832377542,"avgVisitMinutes":45,"estimatedCostEur":12,"score":3.632450849845867},{"id":"bugaragara_7525","citySlug":"bugaragara","name":"Mirador de Bugaragara","category":"mirador","lat":-1.2886845760002403,"lng":30.412968725919043,"avgVisitMinutes":82,"estimatedCostEur":24,"score":3.701757512738987},{"id":"bugaragara_8395","citySlug":"bugaragara","name":"Playa Central","category":"playa","lat":-1.3019054385673339,"lng":30.402188271624908,"avgVisitMinutes":88,"estimatedCostEur":16,"score":2.0384428799130685},{"id":"bugaragara_8542","citySlug":"bugaragara","name":"Zona Comercial","category":"ocio","lat":-1.2922373454199474,"lng":30.416006635458096,"avgVisitMinutes":67,"estimatedCostEur":21,"score":4.673786198548732},{"id":"bugaragara_1450","citySlug":"bugaragara","name":"Parque Central","category":"ocio","lat":-1.3028524761719191,"lng":30.410254169175126,"avgVisitMinutes":29,"estimatedCostEur":11,"score":2.4179339965134914},{"id":"bugaragara_4720","citySlug":"bugaragara","name":"Parque Central","category":"ocio","lat":-1.288576608984131,"lng":30.416694703670927,"avgVisitMinutes":28,"estimatedCostEur":18,"score":3.1017760653963626},{"id":"kamuhanda-ruyenzi_5579","citySlug":"kamuhanda-ruyenzi","name":"Ruta de Tapas","category":"gastronomia","lat":-1.965163844414233,"lng":29.980910943482186,"avgVisitMinutes":23,"estimatedCostEur":13,"score":1.7592392121355096},{"id":"kamuhanda-ruyenzi_6222","citySlug":"kamuhanda-ruyenzi","name":"Punto Panorámico","category":"mirador","lat":-1.9711936128063818,"lng":29.98774920079155,"avgVisitMinutes":74,"estimatedCostEur":15,"score":0.7626543701032009},{"id":"kamuhanda-ruyenzi_1343","citySlug":"kamuhanda-ruyenzi","name":"Centro de Arte de Kamuhanda / Ruyenzi","category":"cultura","lat":-1.9671449142500095,"lng":29.992966259173638,"avgVisitMinutes":44,"estimatedCostEur":1,"score":1.2948650235937749},{"id":"kamuhanda-ruyenzi_1563","citySlug":"kamuhanda-ruyenzi","name":"Zona Comercial","category":"ocio","lat":-1.9575303755338591,"lng":29.988550001912525,"avgVisitMinutes":56,"estimatedCostEur":5,"score":3.1928658800719516},{"id":"kamuhanda-ruyenzi_7661","citySlug":"kamuhanda-ruyenzi","name":"Parque Central","category":"ocio","lat":-1.9736579844459934,"lng":29.975198015311193,"avgVisitMinutes":25,"estimatedCostEur":10,"score":1.755418801730388},{"id":"umutara_4627","citySlug":"umutara","name":"Parque Central","category":"ocio","lat":-1.301457813058208,"lng":30.324855423639633,"avgVisitMinutes":29,"estimatedCostEur":3,"score":4.716931241036208},{"id":"umutara_6203","citySlug":"umutara","name":"Playa Norte","category":"playa","lat":-1.2988786639722778,"lng":30.3194890720854,"avgVisitMinutes":46,"estimatedCostEur":13,"score":3.2629254626554993},{"id":"umutara_4707","citySlug":"umutara","name":"Paseo Principal","category":"ocio","lat":-1.2988260922971684,"lng":30.321717729852743,"avgVisitMinutes":60,"estimatedCostEur":19,"score":0.8904964302254428},{"id":"umutara_4485","citySlug":"umutara","name":"Ruta de Tapas","category":"gastronomia","lat":-1.300428513452016,"lng":30.31547362217028,"avgVisitMinutes":83,"estimatedCostEur":4,"score":3.2336250107029865},{"id":"umutara_7473","citySlug":"umutara","name":"Castillo de Umutara","category":"historia","lat":-1.2933442231368142,"lng":30.32584763071381,"avgVisitMinutes":56,"estimatedCostEur":20,"score":3.634478327241016},{"id":"umutara_7092","citySlug":"umutara","name":"Galería de Arte","category":"cultura","lat":-1.3022103275561638,"lng":30.323308965699834,"avgVisitMinutes":30,"estimatedCostEur":6,"score":1.6372964619129293},{"id":"umutara_1586","citySlug":"umutara","name":"Centro Histórico","category":"historia","lat":-1.2908770712082935,"lng":30.321471994652654,"avgVisitMinutes":34,"estimatedCostEur":10,"score":3.975818423720805},{"id":"umutara_9920","citySlug":"umutara","name":"Centro Histórico","category":"historia","lat":-1.290673266284921,"lng":30.31677968235547,"avgVisitMinutes":47,"estimatedCostEur":17,"score":4.727575134996449},{"id":"umutara_5830","citySlug":"umutara","name":"Zona Comercial","category":"ocio","lat":-1.2859850042705823,"lng":30.327308504846457,"avgVisitMinutes":69,"estimatedCostEur":3,"score":2.0692293872563177},{"id":"umutara_2502","citySlug":"umutara","name":"Playa Central","category":"playa","lat":-1.2917674561960697,"lng":30.316492716321015,"avgVisitMinutes":83,"estimatedCostEur":18,"score":3.584982705692828}]}