{"country":"SA","pois":[{"id":"az-zabyah_7808","citySlug":"az-zabyah","name":"Castillo de Az̧ Z̧abyah","category":"historia","lat":17.112615233898353,"lng":42.66855493773199,"avgVisitMinutes":64,"estimatedCostEur":19,"score":3.169772274302262},{"id":"az-zabyah_8883","citySlug":"az-zabyah","name":"Iglesia de Az̧ Z̧abyah","category":"historia","lat":17.114385952227252,"lng":42.66606223941231,"avgVisitMinutes":81,"estimatedCostEur":24,"score":4.23806126181443},{"id":"az-zabyah_1142","citySlug":"az-zabyah","name":"Iglesia de Az̧ Z̧abyah","category":"historia","lat":17.119846321665094,"lng":42.667822709262,"avgVisitMinutes":85,"estimatedCostEur":6,"score":2.711681870693893},{"id":"az-zabyah_2573","citySlug":"az-zabyah","name":"Iglesia de Az̧ Z̧abyah","category":"historia","lat":17.12008980466129,"lng":42.66556669173174,"avgVisitMinutes":58,"estimatedCostEur":9,"score":3.7418935947680243},{"id":"az-zabyah_9877","citySlug":"az-zabyah","name":"Restaurante Típico de Az̧ Z̧abyah","category":"gastronomia","lat":17.113973338235965,"lng":42.65783042303882,"avgVisitMinutes":36,"estimatedCostEur":13,"score":4.287030913356707},{"id":"az-zabyah_4358","citySlug":"az-zabyah","name":"Castillo de Az̧ Z̧abyah","category":"historia","lat":17.10870344634495,"lng":42.669505966200525,"avgVisitMinutes":64,"estimatedCostEur":8,"score":1.9430867739715647},{"id":"yanbu_7713","citySlug":"yanbu","name":"Zona Comercial","category":"ocio","lat":24.08398401401961,"lng":38.060706759520095,"avgVisitMinutes":33,"estimatedCostEur":5,"score":4.820825342590925},{"id":"yanbu_2767","citySlug":"yanbu","name":"Vista Alta de Yanbu","category":"mirador","lat":24.085535354205433,"lng":38.06449560845792,"avgVisitMinutes":72,"estimatedCostEur":12,"score":4.048447606498748},{"id":"yanbu_7505","citySlug":"yanbu","name":"Iglesia de Yanbu","category":"historia","lat":24.08846815280167,"lng":38.057358585630155,"avgVisitMinutes":30,"estimatedCostEur":13,"score":2.517292956678948},{"id":"yanbu_9682","citySlug":"yanbu","name":"Playa Sur","category":"playa","lat":24.079869195882765,"lng":38.05991689217919,"avgVisitMinutes":75,"estimatedCostEur":23,"score":3.4881747067827344},{"id":"yanbu_2018","citySlug":"yanbu","name":"Mirador de Yanbu","category":"mirador","lat":24.07963345397471,"lng":38.07144763051439,"avgVisitMinutes":66,"estimatedCostEur":2,"score":3.426193012420234},{"id":"yanbu_8469","citySlug":"yanbu","name":"Mercado Gastronómico","category":"gastronomia","lat":24.092965047047322,"lng":38.06809480173392,"avgVisitMinutes":55,"estimatedCostEur":10,"score":3.666473450475399},{"id":"yanbu_7503","citySlug":"yanbu","name":"Mirador de Yanbu","category":"mirador","lat":24.090900841533358,"lng":38.05226086273149,"avgVisitMinutes":55,"estimatedCostEur":8,"score":1.154735065222208},{"id":"yanbu_2380","citySlug":"yanbu","name":"Paseo Principal","category":"ocio","lat":24.090222387620315,"lng":38.05849580088553,"avgVisitMinutes":83,"estimatedCostEur":8,"score":0.8910080202555788},{"id":"yanbu_8433","citySlug":"yanbu","name":"Teatro Municipal","category":"cultura","lat":24.093011434691054,"lng":38.067770511561214,"avgVisitMinutes":47,"estimatedCostEur":11,"score":4.360583786482103},{"id":"uqlat-as-suqur_5889","citySlug":"uqlat-as-suqur","name":"Centro de Arte de ‘Uqlat aş Şuqūr","category":"cultura","lat":25.837527438881093,"lng":42.20634395682911,"avgVisitMinutes":56,"estimatedCostEur":16,"score":3.33736052355593},{"id":"uqlat-as-suqur_5821","citySlug":"uqlat-as-suqur","name":"Ruta de Tapas","category":"gastronomia","lat":25.829620669933504,"lng":42.19557805850433,"avgVisitMinutes":36,"estimatedCostEur":22,"score":4.693323532764377},{"id":"uqlat-as-suqur_3763","citySlug":"uqlat-as-suqur","name":"Vista Alta de ‘Uqlat aş Şuqūr","category":"mirador","lat":25.822162635219495,"lng":42.19156476708809,"avgVisitMinutes":86,"estimatedCostEur":17,"score":3.6171447538761683},{"id":"uqlat-as-suqur_8302","citySlug":"uqlat-as-suqur","name":"Galería de Arte","category":"cultura","lat":25.838111954290653,"lng":42.1931534040169,"avgVisitMinutes":50,"estimatedCostEur":15,"score":3.3462971940045327},{"id":"uqlat-as-suqur_5633","citySlug":"uqlat-as-suqur","name":"Restaurante Típico de ‘Uqlat aş Şuqūr","category":"gastronomia","lat":25.838430486571493,"lng":42.20452509550291,"avgVisitMinutes":31,"estimatedCostEur":13,"score":1.0820421769465132},{"id":"uqlat-as-suqur_1188","citySlug":"uqlat-as-suqur","name":"Teatro Municipal","category":"cultura","lat":25.830548313249107,"lng":42.20030727292895,"avgVisitMinutes":30,"estimatedCostEur":4,"score":3.0699557128619555},{"id":"uqlat-as-suqur_4475","citySlug":"uqlat-as-suqur","name":"Iglesia de ‘Uqlat aş Şuqūr","category":"historia","lat":25.83523769509787,"lng":42.19870232907952,"avgVisitMinutes":50,"estimatedCostEur":3,"score":1.4406837920182434},{"id":"uqlat-as-suqur_3734","citySlug":"uqlat-as-suqur","name":"Mirador de ‘Uqlat aş Şuqūr","category":"mirador","lat":25.827509777335635,"lng":42.19947518202406,"avgVisitMinutes":57,"estimatedCostEur":12,"score":2.7814001632778895},{"id":"uqlat-as-suqur_2736","citySlug":"uqlat-as-suqur","name":"Parque Central","category":"ocio","lat":25.83112722444797,"lng":42.21095332004169,"avgVisitMinutes":52,"estimatedCostEur":7,"score":1.4759558386787592},{"id":"uqlat-as-suqur_7948","citySlug":"uqlat-as-suqur","name":"Playa Norte","category":"playa","lat":25.82271948555207,"lng":42.19250718391358,"avgVisitMinutes":86,"estimatedCostEur":11,"score":0.7352789865565245},{"id":"uqlat-as-suqur_3385","citySlug":"uqlat-as-suqur","name":"Ruta de Tapas","category":"gastronomia","lat":25.82850625750618,"lng":42.19534113070398,"avgVisitMinutes":81,"estimatedCostEur":4,"score":2.451171155556007},{"id":"umluj_2724","citySlug":"umluj","name":"Centro Histórico","category":"historia","lat":25.028988925292676,"lng":37.26164978451526,"avgVisitMinutes":57,"estimatedCostEur":17,"score":2.132175731845753},{"id":"umluj_5751","citySlug":"umluj","name":"Mirador de Umluj","category":"mirador","lat":25.01176234715408,"lng":37.27512242522208,"avgVisitMinutes":53,"estimatedCostEur":0,"score":1.2175149204238471},{"id":"umluj_1527","citySlug":"umluj","name":"Vista Alta de Umluj","category":"mirador","lat":25.02317609800822,"lng":37.2587433228983,"avgVisitMinutes":28,"estimatedCostEur":9,"score":1.9387805025826108},{"id":"umluj_3737","citySlug":"umluj","name":"Teatro Municipal","category":"cultura","lat":25.02984065512418,"lng":37.267458339629684,"avgVisitMinutes":90,"estimatedCostEur":11,"score":2.7511689466807447},{"id":"umluj_6811","citySlug":"umluj","name":"Galería de Arte","category":"cultura","lat":25.02848234530479,"lng":37.26584037552688,"avgVisitMinutes":54,"estimatedCostEur":23,"score":2.886920639371757},{"id":"umluj_2921","citySlug":"umluj","name":"Playa Sur","category":"playa","lat":25.025405852488515,"lng":37.26293853441779,"avgVisitMinutes":33,"estimatedCostEur":22,"score":4.563270757006242},{"id":"umluj_5945","citySlug":"umluj","name":"Centro de Arte de Umluj","category":"cultura","lat":25.024966143317936,"lng":37.26126567384023,"avgVisitMinutes":47,"estimatedCostEur":7,"score":2.9491415434910238},{"id":"umluj_4948","citySlug":"umluj","name":"Playa Central","category":"playa","lat":25.02523231938611,"lng":37.271991362521064,"avgVisitMinutes":28,"estimatedCostEur":12,"score":1.6122209019612084},{"id":"umluj_1742","citySlug":"umluj","name":"Centro Histórico","category":"historia","lat":25.020996468743213,"lng":37.26592189695948,"avgVisitMinutes":28,"estimatedCostEur":17,"score":2.30926898781566},{"id":"umluj_3868","citySlug":"umluj","name":"Paseo Principal","category":"ocio","lat":25.022432125419797,"lng":37.270247512915034,"avgVisitMinutes":53,"estimatedCostEur":7,"score":4.87876581256566},{"id":"umluj_7294","citySlug":"umluj","name":"Playa Central","category":"playa","lat":25.02532929960203,"lng":37.27154401209513,"avgVisitMinutes":78,"estimatedCostEur":19,"score":3.771854199983349},{"id":"umm-as-sahik_1956","citySlug":"umm-as-sahik","name":"Ruta de Tapas","category":"gastronomia","lat":26.645346186535004,"lng":49.91014124327053,"avgVisitMinutes":67,"estimatedCostEur":24,"score":0.5533816350223959},{"id":"umm-as-sahik_9200","citySlug":"umm-as-sahik","name":"Playa Central","category":"playa","lat":26.660325284186857,"lng":49.909950082320684,"avgVisitMinutes":77,"estimatedCostEur":15,"score":1.0925756023747204},{"id":"umm-as-sahik_2119","citySlug":"umm-as-sahik","name":"Playa Central","category":"playa","lat":26.64377487506362,"lng":49.90985786657972,"avgVisitMinutes":61,"estimatedCostEur":21,"score":3.025123165910886},{"id":"umm-as-sahik_8585","citySlug":"umm-as-sahik","name":"Playa Central","category":"playa","lat":26.66038393621932,"lng":49.926012908755574,"avgVisitMinutes":61,"estimatedCostEur":17,"score":2.6325121540801275},{"id":"umm-as-sahik_1526","citySlug":"umm-as-sahik","name":"Teatro Municipal","category":"cultura","lat":26.65923789354568,"lng":49.90673423714,"avgVisitMinutes":26,"estimatedCostEur":18,"score":2.748973843602932},{"id":"umm-as-sahik_9660","citySlug":"umm-as-sahik","name":"Centro Histórico","category":"historia","lat":26.658259870060686,"lng":49.9178415114648,"avgVisitMinutes":48,"estimatedCostEur":14,"score":2.405116361467849},{"id":"umm-as-sahik_1486","citySlug":"umm-as-sahik","name":"Mirador de Umm as Sāhik","category":"mirador","lat":26.65992958263564,"lng":49.90817384821192,"avgVisitMinutes":25,"estimatedCostEur":25,"score":1.0318175836257972},{"id":"umm-as-sahik_2848","citySlug":"umm-as-sahik","name":"Centro Histórico","category":"historia","lat":26.658373564426228,"lng":49.9146503832771,"avgVisitMinutes":68,"estimatedCostEur":12,"score":4.655324732879618},{"id":"umm-as-sahik_5186","citySlug":"umm-as-sahik","name":"Centro de Arte de Umm as Sāhik","category":"cultura","lat":26.651204557322835,"lng":49.90786888036977,"avgVisitMinutes":68,"estimatedCostEur":0,"score":4.946255443550733},{"id":"umm-as-sahik_1886","citySlug":"umm-as-sahik","name":"Playa Norte","category":"playa","lat":26.65445331846951,"lng":49.92387801000025,"avgVisitMinutes":86,"estimatedCostEur":11,"score":2.82244479007497},{"id":"umm-as-sahik_3228","citySlug":"umm-as-sahik","name":"Playa Sur","category":"playa","lat":26.65881009657042,"lng":49.91921537001901,"avgVisitMinutes":31,"estimatedCostEur":13,"score":1.0481509321980926},{"id":"umm-as-sahik_6640","citySlug":"umm-as-sahik","name":"Teatro Municipal","category":"cultura","lat":26.64995270881321,"lng":49.924694583070256,"avgVisitMinutes":73,"estimatedCostEur":1,"score":4.220116968804382},{"id":"turaif_2964","citySlug":"turaif","name":"Playa Central","category":"playa","lat":31.66746319037117,"lng":38.66895943296083,"avgVisitMinutes":62,"estimatedCostEur":20,"score":1.9544645135006662},{"id":"turaif_3680","citySlug":"turaif","name":"Museo Local de Turaif","category":"historia","lat":31.664439225071526,"lng":38.66135027018951,"avgVisitMinutes":23,"estimatedCostEur":19,"score":0.6939652705462491},{"id":"turaif_2713","citySlug":"turaif","name":"Vista Alta de Turaif","category":"mirador","lat":31.679851115499435,"lng":38.657062905186905,"avgVisitMinutes":28,"estimatedCostEur":16,"score":1.514593389500317},{"id":"turaif_4303","citySlug":"turaif","name":"Mirador de Turaif","category":"mirador","lat":31.667053264449372,"lng":38.66146815037494,"avgVisitMinutes":85,"estimatedCostEur":12,"score":4.218450354859487},{"id":"turaif_4853","citySlug":"turaif","name":"Playa Central","category":"playa","lat":31.667746440655943,"lng":38.668902947455365,"avgVisitMinutes":26,"estimatedCostEur":10,"score":4.476504919517624},{"id":"turaif_6864","citySlug":"turaif","name":"Playa Central","category":"playa","lat":31.674625293845924,"lng":38.66706902393447,"avgVisitMinutes":20,"estimatedCostEur":5,"score":4.203555781661624},{"id":"turaif_9261","citySlug":"turaif","name":"Galería de Arte","category":"cultura","lat":31.664791870026473,"lng":38.658767270894444,"avgVisitMinutes":52,"estimatedCostEur":7,"score":2.4767884885647495},{"id":"turaif_9606","citySlug":"turaif","name":"Centro de Arte de Turaif","category":"cultura","lat":31.67790057704169,"lng":38.6702894237067,"avgVisitMinutes":29,"estimatedCostEur":11,"score":1.0679589930989741},{"id":"turaif_7643","citySlug":"turaif","name":"Paseo Principal","category":"ocio","lat":31.666530520819464,"lng":38.65983739351693,"avgVisitMinutes":75,"estimatedCostEur":10,"score":3.7492262958184677},{"id":"turaif_9266","citySlug":"turaif","name":"Mercado Gastronómico","category":"gastronomia","lat":31.670172456965034,"lng":38.6590583026242,"avgVisitMinutes":38,"estimatedCostEur":20,"score":4.4147326583653275},{"id":"turaif_2282","citySlug":"turaif","name":"Teatro Municipal","category":"cultura","lat":31.67941706137514,"lng":38.65973056380994,"avgVisitMinutes":23,"estimatedCostEur":8,"score":2.9444833659310987},{"id":"turaif_9485","citySlug":"turaif","name":"Vista Alta de Turaif","category":"mirador","lat":31.677903657625095,"lng":38.67264629928696,"avgVisitMinutes":61,"estimatedCostEur":3,"score":4.928594789627002},{"id":"turayf_9222","citySlug":"turayf","name":"Paseo Principal","category":"ocio","lat":31.678267205499342,"lng":38.65973078089496,"avgVisitMinutes":35,"estimatedCostEur":1,"score":1.5797173073082247},{"id":"turayf_7339","citySlug":"turayf","name":"Museo Cultural de Ţurayf","category":"cultura","lat":31.66647717329551,"lng":38.671743828338464,"avgVisitMinutes":45,"estimatedCostEur":23,"score":2.2164550446858238},{"id":"turayf_9642","citySlug":"turayf","name":"Mirador de Ţurayf","category":"mirador","lat":31.664795706254314,"lng":38.6701787020668,"avgVisitMinutes":87,"estimatedCostEur":7,"score":1.369932310388736},{"id":"turayf_8696","citySlug":"turayf","name":"Ruta de Tapas","category":"gastronomia","lat":31.678215254269716,"lng":38.66974690825524,"avgVisitMinutes":83,"estimatedCostEur":17,"score":2.9309299144735856},{"id":"turayf_5344","citySlug":"turayf","name":"Vista Alta de Ţurayf","category":"mirador","lat":31.67070643276462,"lng":38.67060837294778,"avgVisitMinutes":45,"estimatedCostEur":24,"score":1.0964100696362502},{"id":"turayf_7852","citySlug":"turayf","name":"Playa Central","category":"playa","lat":31.66274036661178,"lng":38.65956111708645,"avgVisitMinutes":72,"estimatedCostEur":8,"score":2.645478775796316},{"id":"turabah_3210","citySlug":"turabah","name":"Paseo Principal","category":"ocio","lat":21.212599894038192,"lng":41.63725912178808,"avgVisitMinutes":77,"estimatedCostEur":9,"score":2.829156907616179},{"id":"turabah_5959","citySlug":"turabah","name":"Playa Central","category":"playa","lat":21.20562427352133,"lng":41.64298017924335,"avgVisitMinutes":56,"estimatedCostEur":17,"score":3.586803037628557},{"id":"turabah_9032","citySlug":"turabah","name":"Mercado Gastronómico","category":"gastronomia","lat":21.210399651471892,"lng":41.6283691324605,"avgVisitMinutes":80,"estimatedCostEur":14,"score":1.9858904884293167},{"id":"turabah_8901","citySlug":"turabah","name":"Mirador de Turabah","category":"mirador","lat":21.209980320711797,"lng":41.63407755237332,"avgVisitMinutes":83,"estimatedCostEur":10,"score":3.8167044883241052},{"id":"turabah_9928","citySlug":"turabah","name":"Restaurante Típico de Turabah","category":"gastronomia","lat":21.2226756330404,"lng":41.631506457889465,"avgVisitMinutes":44,"estimatedCostEur":23,"score":0.648607909128373},{"id":"turabah_7263","citySlug":"turabah","name":"Centro Histórico","category":"historia","lat":21.215046514531313,"lng":41.63054050403014,"avgVisitMinutes":60,"estimatedCostEur":5,"score":2.4417913913137266},{"id":"at-tubi_8601","citySlug":"at-tubi","name":"Mirador de At Tūbī","category":"mirador","lat":26.556846053881664,"lng":49.99203980509456,"avgVisitMinutes":80,"estimatedCostEur":0,"score":2.852281031071562},{"id":"at-tubi_7047","citySlug":"at-tubi","name":"Centro Histórico","category":"historia","lat":26.565651931671024,"lng":49.99798470950556,"avgVisitMinutes":53,"estimatedCostEur":2,"score":2.2276893554654866},{"id":"at-tubi_9533","citySlug":"at-tubi","name":"Mirador de At Tūbī","category":"mirador","lat":26.553687029172444,"lng":49.99504586753187,"avgVisitMinutes":76,"estimatedCostEur":25,"score":2.6534008252250243},{"id":"at-tubi_4722","citySlug":"at-tubi","name":"Mercado Gastronómico","category":"gastronomia","lat":26.55007677740018,"lng":49.98951930275898,"avgVisitMinutes":72,"estimatedCostEur":17,"score":2.9803676948449764},{"id":"at-tubi_3399","citySlug":"at-tubi","name":"Mercado Gastronómico","category":"gastronomia","lat":26.557676051389077,"lng":49.99087058817433,"avgVisitMinutes":24,"estimatedCostEur":9,"score":3.153601631818619},{"id":"at-tubi_5481","citySlug":"at-tubi","name":"Playa Norte","category":"playa","lat":26.553478955080383,"lng":50.00083002220976,"avgVisitMinutes":26,"estimatedCostEur":24,"score":2.2647790658372866},{"id":"at-tubi_9989","citySlug":"at-tubi","name":"Mirador de At Tūbī","category":"mirador","lat":26.558874435237055,"lng":49.99575617387559,"avgVisitMinutes":85,"estimatedCostEur":25,"score":4.720245468783131},{"id":"at-tubi_9389","citySlug":"at-tubi","name":"Vista Alta de At Tūbī","category":"mirador","lat":26.5562325074613,"lng":49.984054949479784,"avgVisitMinutes":69,"estimatedCostEur":13,"score":3.6809981228527446},{"id":"tayma_7131","citySlug":"tayma","name":"Centro de Arte de Taymā’","category":"cultura","lat":27.619773606442138,"lng":38.54206032738045,"avgVisitMinutes":29,"estimatedCostEur":24,"score":3.6926531883660445},{"id":"tayma_8307","citySlug":"tayma","name":"Playa Norte","category":"playa","lat":27.6207537112362,"lng":38.54468369531501,"avgVisitMinutes":49,"estimatedCostEur":20,"score":3.4494409229706857},{"id":"tayma_2115","citySlug":"tayma","name":"Museo Cultural de Taymā’","category":"cultura","lat":27.615129460218427,"lng":38.536628016307155,"avgVisitMinutes":43,"estimatedCostEur":1,"score":2.2677858943091267},{"id":"tayma_6520","citySlug":"tayma","name":"Vista Alta de Taymā’","category":"mirador","lat":27.615605391809147,"lng":38.53864638706209,"avgVisitMinutes":34,"estimatedCostEur":25,"score":1.42010775685407},{"id":"tayma_8533","citySlug":"tayma","name":"Playa Norte","category":"playa","lat":27.626139056708247,"lng":38.53915980827654,"avgVisitMinutes":34,"estimatedCostEur":24,"score":1.9907374531057136},{"id":"tayma_8125","citySlug":"tayma","name":"Zona Comercial","category":"ocio","lat":27.62704170081663,"lng":38.541023349052814,"avgVisitMinutes":41,"estimatedCostEur":2,"score":1.7840017096093836},{"id":"tarut_6788","citySlug":"tarut","name":"Centro de Arte de Tārūt","category":"cultura","lat":26.57639214600075,"lng":50.04703911288119,"avgVisitMinutes":55,"estimatedCostEur":13,"score":1.1414960630109676},{"id":"tarut_8508","citySlug":"tarut","name":"Centro de Arte de Tārūt","category":"cultura","lat":26.566563564191668,"lng":50.0330510890618,"avgVisitMinutes":45,"estimatedCostEur":11,"score":1.0217313036480178},{"id":"tarut_9588","citySlug":"tarut","name":"Teatro Municipal","category":"cultura","lat":26.576623039921653,"lng":50.046662031036135,"avgVisitMinutes":84,"estimatedCostEur":16,"score":3.6692589786824636},{"id":"tarut_3763","citySlug":"tarut","name":"Galería de Arte","category":"cultura","lat":26.582121796204614,"lng":50.03541013865955,"avgVisitMinutes":37,"estimatedCostEur":2,"score":1.3018242753916802},{"id":"tarut_2353","citySlug":"tarut","name":"Vista Alta de Tārūt","category":"mirador","lat":26.56807113483595,"lng":50.04063511599139,"avgVisitMinutes":20,"estimatedCostEur":10,"score":3.5103231213453023},{"id":"tanumah_1190","citySlug":"tanumah","name":"Paseo Principal","category":"ocio","lat":27.103172790785347,"lng":44.12830663536397,"avgVisitMinutes":39,"estimatedCostEur":7,"score":1.457751670747169},{"id":"tanumah_4263","citySlug":"tanumah","name":"Teatro Municipal","category":"cultura","lat":27.09265243784606,"lng":44.14202189636192,"avgVisitMinutes":43,"estimatedCostEur":10,"score":2.7910549042132793},{"id":"tanumah_6201","citySlug":"tanumah","name":"Playa Sur","category":"playa","lat":27.090567917137548,"lng":44.12503288701446,"avgVisitMinutes":56,"estimatedCostEur":10,"score":3.6122816163462836},{"id":"tanumah_6475","citySlug":"tanumah","name":"Mirador de Tanūmah","category":"mirador","lat":27.09139732440705,"lng":44.127365799659195,"avgVisitMinutes":81,"estimatedCostEur":13,"score":0.6751041028808675},{"id":"tanumah_3259","citySlug":"tanumah","name":"Centro Histórico","category":"historia","lat":27.107464053149528,"lng":44.13093063992147,"avgVisitMinutes":49,"estimatedCostEur":1,"score":2.0974413167297445},{"id":"tanumah_4378","citySlug":"tanumah","name":"Playa Norte","category":"playa","lat":27.10330998980337,"lng":44.12990769894811,"avgVisitMinutes":84,"estimatedCostEur":13,"score":0.7299245092062389},{"id":"tanumah_4454","citySlug":"tanumah","name":"Playa Norte","category":"playa","lat":27.099771852392596,"lng":44.13459651721165,"avgVisitMinutes":34,"estimatedCostEur":12,"score":4.271727642082569},{"id":"tanumah_3271","citySlug":"tanumah","name":"Paseo Principal","category":"ocio","lat":27.10737602878927,"lng":44.133067521323106,"avgVisitMinutes":52,"estimatedCostEur":12,"score":3.385885468945937},{"id":"tanumah_3692","citySlug":"tanumah","name":"Punto Panorámico","category":"mirador","lat":27.091135876428012,"lng":44.13243001109063,"avgVisitMinutes":35,"estimatedCostEur":5,"score":4.708323976721391},{"id":"tanumah_8617","citySlug":"tanumah","name":"Playa Norte","category":"playa","lat":27.091801164797744,"lng":44.12521772569198,"avgVisitMinutes":39,"estimatedCostEur":5,"score":4.054010749824348},{"id":"tanumah_2884","citySlug":"tanumah","name":"Restaurante Típico de Tanūmah","category":"gastronomia","lat":27.102685708155725,"lng":44.1336811317348,"avgVisitMinutes":32,"estimatedCostEur":23,"score":4.2191467630699595},{"id":"tanumah_5605","citySlug":"tanumah","name":"Mercado Gastronómico","category":"gastronomia","lat":27.091543393700984,"lng":44.12674166134857,"avgVisitMinutes":89,"estimatedCostEur":24,"score":3.1292964485764125},{"id":"tabuk_8297","citySlug":"tabuk","name":"Punto Panorámico","category":"mirador","lat":28.408246422978614,"lng":36.58137313378476,"avgVisitMinutes":35,"estimatedCostEur":25,"score":3.3231518239007665},{"id":"tabuk_9169","citySlug":"tabuk","name":"Mercado Gastronómico","category":"gastronomia","lat":28.39904240534954,"lng":36.56325198938086,"avgVisitMinutes":64,"estimatedCostEur":20,"score":1.302985748325307},{"id":"tabuk_4325","citySlug":"tabuk","name":"Castillo de Tabuk","category":"historia","lat":28.39235749675278,"lng":36.56600749441169,"avgVisitMinutes":77,"estimatedCostEur":5,"score":2.9396339119676207},{"id":"tabuk_6258","citySlug":"tabuk","name":"Paseo Principal","category":"ocio","lat":28.402514792886514,"lng":36.563492647667914,"avgVisitMinutes":25,"estimatedCostEur":11,"score":1.159251837357994},{"id":"tabuk_6784","citySlug":"tabuk","name":"Centro de Arte de Tabuk","category":"cultura","lat":28.39650683875888,"lng":36.57520248859413,"avgVisitMinutes":72,"estimatedCostEur":21,"score":2.6024220104491906},{"id":"tabuk_6770","citySlug":"tabuk","name":"Playa Norte","category":"playa","lat":28.394283813438637,"lng":36.562045495831256,"avgVisitMinutes":43,"estimatedCostEur":14,"score":1.154203544455269},{"id":"tabuk_9351","citySlug":"tabuk","name":"Castillo de Tabuk","category":"historia","lat":28.403883611055132,"lng":36.57784444687541,"avgVisitMinutes":37,"estimatedCostEur":7,"score":3.079140232443833},{"id":"tubarjal_5285","citySlug":"tubarjal","name":"Paseo Principal","category":"ocio","lat":30.50773171992476,"lng":38.22118020716526,"avgVisitMinutes":51,"estimatedCostEur":18,"score":1.9363400894278935},{"id":"tubarjal_9976","citySlug":"tubarjal","name":"Iglesia de Ţubarjal","category":"historia","lat":30.503249655663552,"lng":38.22043637769527,"avgVisitMinutes":78,"estimatedCostEur":9,"score":4.067384139965344},{"id":"tubarjal_5824","citySlug":"tubarjal","name":"Iglesia de Ţubarjal","category":"historia","lat":30.49325088987633,"lng":38.223975210820406,"avgVisitMinutes":25,"estimatedCostEur":16,"score":2.6636101698846115},{"id":"tubarjal_6963","citySlug":"tubarjal","name":"Playa Sur","category":"playa","lat":30.498822939354586,"lng":38.21121983956015,"avgVisitMinutes":21,"estimatedCostEur":12,"score":0.8518458717258939},{"id":"tubarjal_4784","citySlug":"tubarjal","name":"Teatro Municipal","category":"cultura","lat":30.5040464857534,"lng":38.22549290721806,"avgVisitMinutes":44,"estimatedCostEur":22,"score":4.384212791780742},{"id":"tubarjal_4813","citySlug":"tubarjal","name":"Restaurante Típico de Ţubarjal","category":"gastronomia","lat":30.48994560383449,"lng":38.210246597431045,"avgVisitMinutes":66,"estimatedCostEur":15,"score":1.0281349278057972},{"id":"tubarjal_6022","citySlug":"tubarjal","name":"Iglesia de Ţubarjal","category":"historia","lat":30.506313846118918,"lng":38.22262191406877,"avgVisitMinutes":51,"estimatedCostEur":17,"score":4.367576792989642},{"id":"tubarjal_5149","citySlug":"tubarjal","name":"Parque Central","category":"ocio","lat":30.50133249462886,"lng":38.21079896122692,"avgVisitMinutes":73,"estimatedCostEur":6,"score":4.914080479415653},{"id":"tubarjal_7482","citySlug":"tubarjal","name":"Playa Norte","category":"playa","lat":30.504324342941175,"lng":38.2142966016279,"avgVisitMinutes":47,"estimatedCostEur":10,"score":2.749639593850505},{"id":"tubarjal_7446","citySlug":"tubarjal","name":"Centro de Arte de Ţubarjal","category":"cultura","lat":30.507777894868877,"lng":38.21119271726048,"avgVisitMinutes":89,"estimatedCostEur":11,"score":1.8607068282631993},{"id":"tubarjal_9173","citySlug":"tubarjal","name":"Centro Histórico","category":"historia","lat":30.490426705561934,"lng":38.21016885563826,"avgVisitMinutes":22,"estimatedCostEur":25,"score":1.2326913230792436},{"id":"tubarjal_5120","citySlug":"tubarjal","name":"Mercado Gastronómico","category":"gastronomia","lat":30.503894461392736,"lng":38.20853566933951,"avgVisitMinutes":41,"estimatedCostEur":15,"score":3.4050353721692557},{"id":"tabalah_3124","citySlug":"tabalah","name":"Mercado Gastronómico","category":"gastronomia","lat":19.942962736617535,"lng":42.406724297407685,"avgVisitMinutes":85,"estimatedCostEur":5,"score":4.43126160330323},{"id":"tabalah_8028","citySlug":"tabalah","name":"Parque Central","category":"ocio","lat":19.958511555422824,"lng":42.390620083948676,"avgVisitMinutes":46,"estimatedCostEur":23,"score":4.235671711952635},{"id":"tabalah_3587","citySlug":"tabalah","name":"Playa Norte","category":"playa","lat":19.94810323988026,"lng":42.3992385199753,"avgVisitMinutes":64,"estimatedCostEur":21,"score":4.571824763235979},{"id":"tabalah_3607","citySlug":"tabalah","name":"Castillo de Tabālah","category":"historia","lat":19.948106111723117,"lng":42.40855668756986,"avgVisitMinutes":35,"estimatedCostEur":12,"score":1.149273978072129},{"id":"tabalah_8666","citySlug":"tabalah","name":"Mercado Gastronómico","category":"gastronomia","lat":19.957613456832203,"lng":42.39407764671853,"avgVisitMinutes":89,"estimatedCostEur":0,"score":2.451770865635423},{"id":"tabalah_3713","citySlug":"tabalah","name":"Playa Central","category":"playa","lat":19.952785846060817,"lng":42.39912481864125,"avgVisitMinutes":49,"estimatedCostEur":4,"score":1.0089681196639178},{"id":"tabalah_1942","citySlug":"tabalah","name":"Mirador de Tabālah","category":"mirador","lat":19.940302861961886,"lng":42.40113048477453,"avgVisitMinutes":52,"estimatedCostEur":12,"score":1.2845117731745628},{"id":"tabalah_9247","citySlug":"tabalah","name":"Parque Central","category":"ocio","lat":19.949522495638085,"lng":42.39863902812023,"avgVisitMinutes":24,"estimatedCostEur":9,"score":2.500576970967522},{"id":"tabalah_1697","citySlug":"tabalah","name":"Mirador de Tabālah","category":"mirador","lat":19.940668950771336,"lng":42.40671993517815,"avgVisitMinutes":44,"estimatedCostEur":6,"score":1.8310147111223964},{"id":"tabalah_9227","citySlug":"tabalah","name":"Castillo de Tabālah","category":"historia","lat":19.94515558586852,"lng":42.390058351928936,"avgVisitMinutes":58,"estimatedCostEur":23,"score":3.6216170430645023},{"id":"tabalah_5503","citySlug":"tabalah","name":"Iglesia de Tabālah","category":"historia","lat":19.952671767277472,"lng":42.4001098668208,"avgVisitMinutes":27,"estimatedCostEur":2,"score":4.8584009247395},{"id":"unaizah_2426","citySlug":"unaizah","name":"Vista Alta de Unaizah","category":"mirador","lat":26.09658521760028,"lng":44.009549643128175,"avgVisitMinutes":36,"estimatedCostEur":1,"score":2.1044401155762937},{"id":"unaizah_4090","citySlug":"unaizah","name":"Murallas de Unaizah","category":"historia","lat":26.09665360498818,"lng":44.009637666153466,"avgVisitMinutes":89,"estimatedCostEur":7,"score":4.2412455389389825},{"id":"unaizah_8115","citySlug":"unaizah","name":"Restaurante Típico de Unaizah","category":"gastronomia","lat":26.105785157420158,"lng":44.00998258963885,"avgVisitMinutes":65,"estimatedCostEur":19,"score":1.7555124406721072},{"id":"unaizah_5791","citySlug":"unaizah","name":"Teatro Municipal","category":"cultura","lat":26.097794011759643,"lng":44.008984639715415,"avgVisitMinutes":61,"estimatedCostEur":1,"score":1.352718956712387},{"id":"unaizah_1478","citySlug":"unaizah","name":"Playa Sur","category":"playa","lat":26.10379547620719,"lng":43.99026288845949,"avgVisitMinutes":81,"estimatedCostEur":1,"score":3.4222471911942707},{"id":"unaizah_5016","citySlug":"unaizah","name":"Paseo Principal","category":"ocio","lat":26.103627651219618,"lng":43.997102216084855,"avgVisitMinutes":61,"estimatedCostEur":0,"score":1.5024031788698786},{"id":"unaizah_5656","citySlug":"unaizah","name":"Zona Comercial","category":"ocio","lat":26.10005158491311,"lng":44.00606684637797,"avgVisitMinutes":27,"estimatedCostEur":19,"score":3.3135049488990758},{"id":"unaizah_1044","citySlug":"unaizah","name":"Playa Central","category":"playa","lat":26.102304678811965,"lng":44.007347295285356,"avgVisitMinutes":75,"estimatedCostEur":17,"score":1.2473251323305994},{"id":"unaizah_8589","citySlug":"unaizah","name":"Playa Norte","category":"playa","lat":26.108165017748625,"lng":44.00124458898224,"avgVisitMinutes":72,"estimatedCostEur":18,"score":0.64412559419072},{"id":"unaizah_6848","citySlug":"unaizah","name":"Playa Sur","category":"playa","lat":26.10198308215312,"lng":43.9963236106841,"avgVisitMinutes":27,"estimatedCostEur":11,"score":3.913467778762343},{"id":"unaizah_6620","citySlug":"unaizah","name":"Zona Comercial","category":"ocio","lat":26.093404324745695,"lng":43.99818578459822,"avgVisitMinutes":26,"estimatedCostEur":22,"score":2.3810967856049414},{"id":"sultanah_3558","citySlug":"sultanah","name":"Mercado Gastronómico","category":"gastronomia","lat":24.487465859124146,"lng":39.58921048427195,"avgVisitMinutes":27,"estimatedCostEur":12,"score":1.9051164518495567},{"id":"sultanah_4003","citySlug":"sultanah","name":"Parque Central","category":"ocio","lat":24.486330012233882,"lng":39.581036925081165,"avgVisitMinutes":22,"estimatedCostEur":24,"score":4.764107812565031},{"id":"sultanah_4214","citySlug":"sultanah","name":"Zona Comercial","category":"ocio","lat":24.48437677215106,"lng":39.582610410994505,"avgVisitMinutes":22,"estimatedCostEur":22,"score":3.434354523312564},{"id":"sultanah_5252","citySlug":"sultanah","name":"Ruta de Tapas","category":"gastronomia","lat":24.48971448060777,"lng":39.584258665193225,"avgVisitMinutes":88,"estimatedCostEur":25,"score":2.268168736082936},{"id":"sultanah_9243","citySlug":"sultanah","name":"Mirador de Sulţānah","category":"mirador","lat":24.4898280627615,"lng":39.58322373028707,"avgVisitMinutes":43,"estimatedCostEur":10,"score":3.8663027528219027},{"id":"sultanah_3552","citySlug":"sultanah","name":"Vista Alta de Sulţānah","category":"mirador","lat":24.492477374130964,"lng":39.58051609569996,"avgVisitMinutes":48,"estimatedCostEur":8,"score":1.5658995819832837},{"id":"sultanah_2930","citySlug":"sultanah","name":"Vista Alta de Sulţānah","category":"mirador","lat":24.487070359635165,"lng":39.57951218158764,"avgVisitMinutes":49,"estimatedCostEur":20,"score":4.1821670101705415},{"id":"sultanah_8136","citySlug":"sultanah","name":"Zona Comercial","category":"ocio","lat":24.49855267122634,"lng":39.58627901763851,"avgVisitMinutes":55,"estimatedCostEur":21,"score":3.340606540236638},{"id":"ash-shuqayri_5417","citySlug":"ash-shuqayri","name":"Punto Panorámico","category":"mirador","lat":17.135990931876634,"lng":42.82222684770952,"avgVisitMinutes":30,"estimatedCostEur":2,"score":4.810198025914187},{"id":"ash-shuqayri_4777","citySlug":"ash-shuqayri","name":"Castillo de Ash Shuqayrī","category":"historia","lat":17.123344558940325,"lng":42.83601371784909,"avgVisitMinutes":30,"estimatedCostEur":1,"score":4.138621676056888},{"id":"ash-shuqayri_9113","citySlug":"ash-shuqayri","name":"Mercado Gastronómico","category":"gastronomia","lat":17.13633488085463,"lng":42.835411807849624,"avgVisitMinutes":42,"estimatedCostEur":0,"score":2.6452549188806334},{"id":"ash-shuqayri_2939","citySlug":"ash-shuqayri","name":"Parque Central","category":"ocio","lat":17.121937959217483,"lng":42.830632027438774,"avgVisitMinutes":35,"estimatedCostEur":13,"score":1.6452769603362931},{"id":"ash-shuqayri_6538","citySlug":"ash-shuqayri","name":"Parque Central","category":"ocio","lat":17.132114862120318,"lng":42.81863696130538,"avgVisitMinutes":39,"estimatedCostEur":18,"score":0.7752986913062206},{"id":"ash-shuqayri_6848","citySlug":"ash-shuqayri","name":"Zona Comercial","category":"ocio","lat":17.127905740828727,"lng":42.82705921918489,"avgVisitMinutes":58,"estimatedCostEur":4,"score":1.3570563298786285},{"id":"ash-shuqayri_6726","citySlug":"ash-shuqayri","name":"Vista Alta de Ash Shuqayrī","category":"mirador","lat":17.138781113521723,"lng":42.833912235064794,"avgVisitMinutes":34,"estimatedCostEur":4,"score":2.219654971797216},{"id":"ash-shuqayri_1471","citySlug":"ash-shuqayri","name":"Zona Comercial","category":"ocio","lat":17.12397757952759,"lng":42.829193606256744,"avgVisitMinutes":33,"estimatedCostEur":4,"score":2.5784667592971724},{"id":"ash-shuqayri_3491","citySlug":"ash-shuqayri","name":"Centro Histórico","category":"historia","lat":17.130292295314728,"lng":42.819312432652005,"avgVisitMinutes":84,"estimatedCostEur":19,"score":2.964926652936599},{"id":"ash-shuqayri_3025","citySlug":"ash-shuqayri","name":"Playa Sur","category":"playa","lat":17.139456415337378,"lng":42.83288442848424,"avgVisitMinutes":62,"estimatedCostEur":15,"score":0.5578541149314884},{"id":"ash-shuqayri_9958","citySlug":"ash-shuqayri","name":"Museo Local de Ash Shuqayrī","category":"historia","lat":17.126854248151528,"lng":42.824510433851984,"avgVisitMinutes":30,"estimatedCostEur":16,"score":3.6575646048515162},{"id":"shaqra_8162","citySlug":"shaqra","name":"Mercado Gastronómico","category":"gastronomia","lat":25.24064980365395,"lng":45.2467827313285,"avgVisitMinutes":59,"estimatedCostEur":17,"score":0.7876289796065051},{"id":"shaqra_8071","citySlug":"shaqra","name":"Punto Panorámico","category":"mirador","lat":25.239683438947537,"lng":45.244875228362396,"avgVisitMinutes":57,"estimatedCostEur":22,"score":1.9164558546718886},{"id":"shaqra_9151","citySlug":"shaqra","name":"Castillo de Shaqra","category":"historia","lat":25.238615467579272,"lng":45.245663937752234,"avgVisitMinutes":21,"estimatedCostEur":4,"score":2.011579930878194},{"id":"shaqra_2169","citySlug":"shaqra","name":"Mirador de Shaqra","category":"mirador","lat":25.232337369473708,"lng":45.251745594384914,"avgVisitMinutes":44,"estimatedCostEur":3,"score":1.9759386680732864},{"id":"shaqra_9442","citySlug":"shaqra","name":"Mercado Gastronómico","category":"gastronomia","lat":25.2443782820443,"lng":45.258258597767636,"avgVisitMinutes":81,"estimatedCostEur":3,"score":3.001621527327252},{"id":"shaqra_3508","citySlug":"shaqra","name":"Playa Norte","category":"playa","lat":25.242627961359943,"lng":45.24207939798995,"avgVisitMinutes":32,"estimatedCostEur":12,"score":2.1612598278852637},{"id":"shaqra_7853","citySlug":"shaqra","name":"Iglesia de Shaqra","category":"historia","lat":25.24062313446018,"lng":45.245974050062564,"avgVisitMinutes":26,"estimatedCostEur":19,"score":1.9384717680293222},{"id":"shaqra_2339","citySlug":"shaqra","name":"Vista Alta de Shaqra","category":"mirador","lat":25.239895507442043,"lng":45.25101425690775,"avgVisitMinutes":84,"estimatedCostEur":25,"score":1.9298340124650373},{"id":"shaqra_5421","citySlug":"shaqra","name":"Vista Alta de Shaqra","category":"mirador","lat":25.242596866411965,"lng":45.25522130821361,"avgVisitMinutes":54,"estimatedCostEur":20,"score":3.4591885078102607},{"id":"shaqra_1288","citySlug":"shaqra","name":"Centro Histórico","category":"historia","lat":25.24740681104614,"lng":45.25781338090999,"avgVisitMinutes":43,"estimatedCostEur":13,"score":1.9919723918726036},{"id":"sayhat_4407","citySlug":"sayhat","name":"Playa Sur","category":"playa","lat":26.49164679059569,"lng":50.0478293357249,"avgVisitMinutes":67,"estimatedCostEur":7,"score":4.218393952014087},{"id":"sayhat_1125","citySlug":"sayhat","name":"Parque Central","category":"ocio","lat":26.477778136938444,"lng":50.05088926163249,"avgVisitMinutes":58,"estimatedCostEur":12,"score":2.927321290813897},{"id":"sayhat_5686","citySlug":"sayhat","name":"Paseo Principal","category":"ocio","lat":26.47349324334289,"lng":50.04439400038341,"avgVisitMinutes":30,"estimatedCostEur":12,"score":4.977049068753563},{"id":"sayhat_2795","citySlug":"sayhat","name":"Teatro Municipal","category":"cultura","lat":26.477217334818242,"lng":50.04506648095339,"avgVisitMinutes":59,"estimatedCostEur":8,"score":4.621242866730811},{"id":"sayhat_8160","citySlug":"sayhat","name":"Restaurante Típico de Sayhāt","category":"gastronomia","lat":26.482023159492236,"lng":50.0481520494622,"avgVisitMinutes":47,"estimatedCostEur":3,"score":4.851943539727231},{"id":"sayhat_7273","citySlug":"sayhat","name":"Playa Central","category":"playa","lat":26.478099563040537,"lng":50.0580965157326,"avgVisitMinutes":60,"estimatedCostEur":25,"score":1.3117051303568443},{"id":"sayhat_4837","citySlug":"sayhat","name":"Murallas de Sayhāt","category":"historia","lat":26.48396757148713,"lng":50.04568447742918,"avgVisitMinutes":69,"estimatedCostEur":10,"score":2.0769394525342695},{"id":"sayhat_1032","citySlug":"sayhat","name":"Playa Central","category":"playa","lat":26.486106778140545,"lng":50.04907880495533,"avgVisitMinutes":72,"estimatedCostEur":14,"score":3.837707187124599},{"id":"sayhat_7905","citySlug":"sayhat","name":"Museo Cultural de Sayhāt","category":"cultura","lat":26.487008432943366,"lng":50.047894355688015,"avgVisitMinutes":71,"estimatedCostEur":6,"score":1.231497927856831},{"id":"sayhat_8368","citySlug":"sayhat","name":"Restaurante Típico de Sayhāt","category":"gastronomia","lat":26.48317096964103,"lng":50.04612824606432,"avgVisitMinutes":57,"estimatedCostEur":8,"score":4.709193177698511},{"id":"sayhat_2087","citySlug":"sayhat","name":"Playa Sur","category":"playa","lat":26.48476894817558,"lng":50.043674107081884,"avgVisitMinutes":30,"estimatedCostEur":17,"score":0.9344464994361372},{"id":"samitah_5745","citySlug":"samitah","name":"Ruta de Tapas","category":"gastronomia","lat":16.599812566052982,"lng":42.944599456515704,"avgVisitMinutes":76,"estimatedCostEur":18,"score":3.9908562397516416},{"id":"samitah_6673","citySlug":"samitah","name":"Paseo Principal","category":"ocio","lat":16.603861091940296,"lng":42.951779925256915,"avgVisitMinutes":27,"estimatedCostEur":24,"score":4.852143053526198},{"id":"samitah_1432","citySlug":"samitah","name":"Vista Alta de Şāmitah","category":"mirador","lat":16.602445386626435,"lng":42.93759684555882,"avgVisitMinutes":57,"estimatedCostEur":19,"score":4.001804787159848},{"id":"samitah_9778","citySlug":"samitah","name":"Teatro Municipal","category":"cultura","lat":16.60239983270351,"lng":42.94640333242189,"avgVisitMinutes":60,"estimatedCostEur":7,"score":0.7941706063729985},{"id":"samitah_1584","citySlug":"samitah","name":"Paseo Principal","category":"ocio","lat":16.60129688048755,"lng":42.94942337471222,"avgVisitMinutes":65,"estimatedCostEur":18,"score":1.538156188099485},{"id":"samitah_8996","citySlug":"samitah","name":"Galería de Arte","category":"cultura","lat":16.593825404584454,"lng":42.948450206096496,"avgVisitMinutes":35,"estimatedCostEur":22,"score":1.876790280225758},{"id":"samitah_3173","citySlug":"samitah","name":"Punto Panorámico","category":"mirador","lat":16.59866936792239,"lng":42.93946114715747,"avgVisitMinutes":52,"estimatedCostEur":18,"score":1.0353614871467287},{"id":"samitah_2046","citySlug":"samitah","name":"Centro de Arte de Şāmitah","category":"cultura","lat":16.59071076376996,"lng":42.93461001312782,"avgVisitMinutes":59,"estimatedCostEur":17,"score":4.228983643985653},{"id":"samitah_4697","citySlug":"samitah","name":"Galería de Arte","category":"cultura","lat":16.599076768740783,"lng":42.939934761404885,"avgVisitMinutes":51,"estimatedCostEur":9,"score":2.2628242526974622},{"id":"samitah_8901","citySlug":"samitah","name":"Zona Comercial","category":"ocio","lat":16.59463227660103,"lng":42.95110370599842,"avgVisitMinutes":22,"estimatedCostEur":15,"score":0.7350428394739126},{"id":"sakakah_9886","citySlug":"sakakah","name":"Playa Sur","category":"playa","lat":29.975720853834794,"lng":40.21256452583745,"avgVisitMinutes":43,"estimatedCostEur":21,"score":2.880803742943674},{"id":"sakakah_2880","citySlug":"sakakah","name":"Centro de Arte de Sakakah","category":"cultura","lat":29.973036613807025,"lng":40.21269710106854,"avgVisitMinutes":27,"estimatedCostEur":8,"score":4.261436197783947},{"id":"sakakah_8606","citySlug":"sakakah","name":"Castillo de Sakakah","category":"historia","lat":29.972382257522895,"lng":40.207674244595225,"avgVisitMinutes":43,"estimatedCostEur":0,"score":1.7715532179123734},{"id":"sakakah_3808","citySlug":"sakakah","name":"Ruta de Tapas","category":"gastronomia","lat":29.973627463286352,"lng":40.19865462461173,"avgVisitMinutes":34,"estimatedCostEur":21,"score":1.8681498645457628},{"id":"sakakah_5187","citySlug":"sakakah","name":"Playa Sur","category":"playa","lat":29.973836063917208,"lng":40.21577291770332,"avgVisitMinutes":43,"estimatedCostEur":14,"score":3.8646161963887735},{"id":"sakakah_5657","citySlug":"sakakah","name":"Parque Central","category":"ocio","lat":29.970699556093123,"lng":40.209990447610124,"avgVisitMinutes":46,"estimatedCostEur":17,"score":3.879674969939898},{"id":"sakakah_5983","citySlug":"sakakah","name":"Restaurante Típico de Sakakah","category":"gastronomia","lat":29.965181039488854,"lng":40.211902371586305,"avgVisitMinutes":51,"estimatedCostEur":8,"score":4.65833064495256},{"id":"sakakah_2572","citySlug":"sakakah","name":"Mercado Gastronómico","category":"gastronomia","lat":29.963992912309795,"lng":40.197153940624155,"avgVisitMinutes":43,"estimatedCostEur":12,"score":3.19878743074233},{"id":"sakakah_3865","citySlug":"sakakah","name":"Iglesia de Sakakah","category":"historia","lat":29.97940983421798,"lng":40.20509384493238,"avgVisitMinutes":48,"estimatedCostEur":6,"score":0.6863620998780813},{"id":"sakakah_9103","citySlug":"sakakah","name":"Punto Panorámico","category":"mirador","lat":29.961187475280802,"lng":40.20978634807442,"avgVisitMinutes":43,"estimatedCostEur":9,"score":1.8732772079044642},{"id":"sakakah_6151","citySlug":"sakakah","name":"Paseo Principal","category":"ocio","lat":29.979067290423394,"lng":40.202366512016944,"avgVisitMinutes":50,"estimatedCostEur":17,"score":0.7050171177280221},{"id":"safwa_5271","citySlug":"safwa","name":"Ruta de Tapas","category":"gastronomia","lat":26.646156541050676,"lng":49.953808719608205,"avgVisitMinutes":45,"estimatedCostEur":3,"score":1.3751854232300047},{"id":"safwa_6667","citySlug":"safwa","name":"Vista Alta de Şafwá","category":"mirador","lat":26.647307690597,"lng":49.953300488096396,"avgVisitMinutes":26,"estimatedCostEur":11,"score":4.677995336746535},{"id":"safwa_1555","citySlug":"safwa","name":"Centro Histórico","category":"historia","lat":26.646437139087894,"lng":49.94907386624999,"avgVisitMinutes":23,"estimatedCostEur":17,"score":1.7888254081381798},{"id":"safwa_2621","citySlug":"safwa","name":"Playa Sur","category":"playa","lat":26.648079214971983,"lng":49.95263986403761,"avgVisitMinutes":22,"estimatedCostEur":0,"score":0.9649903667355002},{"id":"safwa_8468","citySlug":"safwa","name":"Parque Central","category":"ocio","lat":26.644823984622466,"lng":49.95950741434239,"avgVisitMinutes":75,"estimatedCostEur":10,"score":3.414210908946137},{"id":"safwa_7600","citySlug":"safwa","name":"Zona Comercial","category":"ocio","lat":26.651761362217158,"lng":49.95262795310579,"avgVisitMinutes":36,"estimatedCostEur":16,"score":1.2915436180888626},{"id":"safwa_9085","citySlug":"safwa","name":"Centro Histórico","category":"historia","lat":26.645524816352527,"lng":49.949657978909535,"avgVisitMinutes":43,"estimatedCostEur":16,"score":4.692020361645547},{"id":"safwa_3910","citySlug":"safwa","name":"Paseo Principal","category":"ocio","lat":26.647898199588568,"lng":49.9577419578855,"avgVisitMinutes":39,"estimatedCostEur":16,"score":3.301876693698354},{"id":"safwa_2103","citySlug":"safwa","name":"Teatro Municipal","category":"cultura","lat":26.643676269208264,"lng":49.96258467238332,"avgVisitMinutes":27,"estimatedCostEur":3,"score":2.4641807226049712},{"id":"sabya_3761","citySlug":"sabya","name":"Vista Alta de Şabyā","category":"mirador","lat":17.149960135026753,"lng":42.61543270462753,"avgVisitMinutes":41,"estimatedCostEur":8,"score":0.8482394039213837},{"id":"sabya_3226","citySlug":"sabya","name":"Paseo Principal","category":"ocio","lat":17.15171193407129,"lng":42.63398541298195,"avgVisitMinutes":32,"estimatedCostEur":25,"score":4.278754598349229},{"id":"sabya_3293","citySlug":"sabya","name":"Teatro Municipal","category":"cultura","lat":17.1573219769074,"lng":42.62469394890054,"avgVisitMinutes":34,"estimatedCostEur":25,"score":2.473315224227119},{"id":"sabya_9700","citySlug":"sabya","name":"Iglesia de Şabyā","category":"historia","lat":17.146865836452157,"lng":42.616245663183676,"avgVisitMinutes":57,"estimatedCostEur":13,"score":0.9134253319251864},{"id":"sabya_9994","citySlug":"sabya","name":"Centro Histórico","category":"historia","lat":17.153323152986765,"lng":42.629420354901335,"avgVisitMinutes":23,"estimatedCostEur":5,"score":4.3000136029091625},{"id":"sabya_7124","citySlug":"sabya","name":"Restaurante Típico de Şabyā","category":"gastronomia","lat":17.158880926059044,"lng":42.62891605696452,"avgVisitMinutes":41,"estimatedCostEur":20,"score":2.8634470814665893},{"id":"sabya_7966","citySlug":"sabya","name":"Paseo Principal","category":"ocio","lat":17.152727774832993,"lng":42.62259180543878,"avgVisitMinutes":80,"estimatedCostEur":19,"score":1.9591137939931502},{"id":"sabya_8004","citySlug":"sabya","name":"Punto Panorámico","category":"mirador","lat":17.14525295034752,"lng":42.63236423016403,"avgVisitMinutes":58,"estimatedCostEur":23,"score":2.574100574205744},{"id":"sabya_5773","citySlug":"sabya","name":"Iglesia de Şabyā","category":"historia","lat":17.145633182692094,"lng":42.63011335297668,"avgVisitMinutes":79,"estimatedCostEur":2,"score":4.857702306735213},{"id":"sabya_7173","citySlug":"sabya","name":"Ruta de Tapas","category":"gastronomia","lat":17.15147095912345,"lng":42.63216463067856,"avgVisitMinutes":71,"estimatedCostEur":7,"score":4.1402687720152445},{"id":"rumah_8375","citySlug":"rumah","name":"Iglesia de Rumāḩ","category":"historia","lat":25.566022770690797,"lng":47.172145748648724,"avgVisitMinutes":42,"estimatedCostEur":17,"score":4.031183143602678},{"id":"rumah_3730","citySlug":"rumah","name":"Zona Comercial","category":"ocio","lat":25.572410955044425,"lng":47.17000524301775,"avgVisitMinutes":20,"estimatedCostEur":1,"score":2.9198464716764843},{"id":"rumah_6290","citySlug":"rumah","name":"Ruta de Tapas","category":"gastronomia","lat":25.566122979342804,"lng":47.167504448211545,"avgVisitMinutes":74,"estimatedCostEur":10,"score":3.0176397685408105},{"id":"rumah_8400","citySlug":"rumah","name":"Parque Central","category":"ocio","lat":25.554878805996353,"lng":47.166087606093676,"avgVisitMinutes":51,"estimatedCostEur":22,"score":2.5932734687052923},{"id":"rumah_4110","citySlug":"rumah","name":"Vista Alta de Rumāḩ","category":"mirador","lat":25.55493678717739,"lng":47.1723243521372,"avgVisitMinutes":43,"estimatedCostEur":2,"score":1.9195285789564822},{"id":"ras-tanura_3635","citySlug":"ras-tanura","name":"Paseo Principal","category":"ocio","lat":26.710521898660947,"lng":50.064445555109444,"avgVisitMinutes":49,"estimatedCostEur":21,"score":3.7416088519362365},{"id":"ras-tanura_9197","citySlug":"ras-tanura","name":"Zona Comercial","category":"ocio","lat":26.70859230970733,"lng":50.06777458139738,"avgVisitMinutes":90,"estimatedCostEur":6,"score":1.6906833069886835},{"id":"ras-tanura_7004","citySlug":"ras-tanura","name":"Playa Norte","category":"playa","lat":26.704919756856768,"lng":50.066532854288866,"avgVisitMinutes":50,"estimatedCostEur":16,"score":4.047032189426099},{"id":"ras-tanura_7585","citySlug":"ras-tanura","name":"Zona Comercial","category":"ocio","lat":26.70511990228137,"lng":50.073638236312114,"avgVisitMinutes":77,"estimatedCostEur":4,"score":2.060004119139961},{"id":"ras-tanura_1969","citySlug":"ras-tanura","name":"Zona Comercial","category":"ocio","lat":26.70528432183044,"lng":50.069423509872514,"avgVisitMinutes":82,"estimatedCostEur":7,"score":4.029823520309378},{"id":"ras-tanura_6591","citySlug":"ras-tanura","name":"Centro de Arte de Ras Tanura","category":"cultura","lat":26.716647612683747,"lng":50.06799617487521,"avgVisitMinutes":90,"estimatedCostEur":10,"score":3.3135878738804023},{"id":"ras-tanura_8366","citySlug":"ras-tanura","name":"Centro de Arte de Ras Tanura","category":"cultura","lat":26.706120922542148,"lng":50.0717796142034,"avgVisitMinutes":61,"estimatedCostEur":8,"score":2.768514615706021},{"id":"ras-tanura_6332","citySlug":"ras-tanura","name":"Centro de Arte de Ras Tanura","category":"cultura","lat":26.697579021957974,"lng":50.05944359469177,"avgVisitMinutes":74,"estimatedCostEur":11,"score":3.5962730780220236},{"id":"rahimah_9168","citySlug":"rahimah","name":"Murallas de Raḩīmah","category":"historia","lat":26.7093988642635,"lng":50.05302158810655,"avgVisitMinutes":76,"estimatedCostEur":1,"score":4.0268380976382465},{"id":"rahimah_5174","citySlug":"rahimah","name":"Vista Alta de Raḩīmah","category":"mirador","lat":26.71100393660336,"lng":50.053427321682925,"avgVisitMinutes":70,"estimatedCostEur":4,"score":2.2812295820847543},{"id":"rahimah_2458","citySlug":"rahimah","name":"Playa Norte","category":"playa","lat":26.70464192224846,"lng":50.05652289088092,"avgVisitMinutes":75,"estimatedCostEur":10,"score":0.5907559095050958},{"id":"rahimah_6075","citySlug":"rahimah","name":"Ruta de Tapas","category":"gastronomia","lat":26.708049056306525,"lng":50.068999917589,"avgVisitMinutes":54,"estimatedCostEur":2,"score":2.411442533784974},{"id":"rahimah_9620","citySlug":"rahimah","name":"Parque Central","category":"ocio","lat":26.700913529221936,"lng":50.06851679690753,"avgVisitMinutes":72,"estimatedCostEur":4,"score":1.6710955319203231},{"id":"rahimah_2101","citySlug":"rahimah","name":"Teatro Municipal","category":"cultura","lat":26.708107816046518,"lng":50.054487741946325,"avgVisitMinutes":27,"estimatedCostEur":12,"score":4.8629536991002364},{"id":"rahimah_4420","citySlug":"rahimah","name":"Zona Comercial","category":"ocio","lat":26.716876628189784,"lng":50.05973257013703,"avgVisitMinutes":87,"estimatedCostEur":20,"score":2.9000172089436496},{"id":"rahimah_7908","citySlug":"rahimah","name":"Museo Local de Raḩīmah","category":"historia","lat":26.705161721812924,"lng":50.07028011985272,"avgVisitMinutes":52,"estimatedCostEur":4,"score":1.3968860031411425},{"id":"rahimah_8446","citySlug":"rahimah","name":"Playa Sur","category":"playa","lat":26.710489306934065,"lng":50.064248551160155,"avgVisitMinutes":85,"estimatedCostEur":19,"score":4.132206866078977},{"id":"rabigh_7273","citySlug":"rabigh","name":"Punto Panorámico","category":"mirador","lat":22.795249266648902,"lng":39.033819658676286,"avgVisitMinutes":89,"estimatedCostEur":22,"score":2.7458376753303817},{"id":"rabigh_3748","citySlug":"rabigh","name":"Playa Central","category":"playa","lat":22.796528047537237,"lng":39.03686820177185,"avgVisitMinutes":33,"estimatedCostEur":5,"score":1.8018169047757804},{"id":"rabigh_8760","citySlug":"rabigh","name":"Playa Sur","category":"playa","lat":22.80766333882907,"lng":39.04217208605118,"avgVisitMinutes":24,"estimatedCostEur":11,"score":2.0473170510139385},{"id":"rabigh_9812","citySlug":"rabigh","name":"Mirador de Rābigh","category":"mirador","lat":22.806741199533747,"lng":39.04244343852581,"avgVisitMinutes":30,"estimatedCostEur":14,"score":2.370134932063338},{"id":"rabigh_9917","citySlug":"rabigh","name":"Ruta de Tapas","category":"gastronomia","lat":22.807229658956583,"lng":39.04292956701442,"avgVisitMinutes":27,"estimatedCostEur":25,"score":2.030732193865547},{"id":"rabigh_2534","citySlug":"rabigh","name":"Iglesia de Rābigh","category":"historia","lat":22.795866014277234,"lng":39.03698590688941,"avgVisitMinutes":74,"estimatedCostEur":24,"score":3.166166105263307},{"id":"rabigh_4015","citySlug":"rabigh","name":"Castillo de Rābigh","category":"historia","lat":22.80269397057998,"lng":39.03334447139415,"avgVisitMinutes":59,"estimatedCostEur":11,"score":0.7739227816493153},{"id":"rabigh_7984","citySlug":"rabigh","name":"Playa Central","category":"playa","lat":22.788967775779085,"lng":39.02620088837392,"avgVisitMinutes":52,"estimatedCostEur":17,"score":2.640761198846929},{"id":"rabigh_6028","citySlug":"rabigh","name":"Parque Central","category":"ocio","lat":22.7897541836203,"lng":39.03005593256185,"avgVisitMinutes":30,"estimatedCostEur":23,"score":2.303658275761681},{"id":"rabigh_5547","citySlug":"rabigh","name":"Zona Comercial","category":"ocio","lat":22.804076440083442,"lng":39.03535631977033,"avgVisitMinutes":89,"estimatedCostEur":5,"score":2.6286978642938874},{"id":"rabigh_2240","citySlug":"rabigh","name":"Playa Sur","category":"playa","lat":22.803825825801724,"lng":39.03624637412817,"avgVisitMinutes":70,"estimatedCostEur":0,"score":3.2784406752922024},{"id":"rabigh_5602","citySlug":"rabigh","name":"Playa Central","category":"playa","lat":22.78991380530897,"lng":39.02638705712453,"avgVisitMinutes":39,"estimatedCostEur":8,"score":3.276086578971265},{"id":"qibah_6076","citySlug":"qibah","name":"Parque Central","category":"ocio","lat":27.405485804692955,"lng":44.336548351783485,"avgVisitMinutes":65,"estimatedCostEur":15,"score":2.705184284811656},{"id":"qibah_2492","citySlug":"qibah","name":"Restaurante Típico de Qibah","category":"gastronomia","lat":27.410892047759802,"lng":44.32929062107478,"avgVisitMinutes":75,"estimatedCostEur":3,"score":3.3023001843471667},{"id":"qibah_1904","citySlug":"qibah","name":"Parque Central","category":"ocio","lat":27.401514823694747,"lng":44.32482994596667,"avgVisitMinutes":71,"estimatedCostEur":8,"score":1.7138165490518336},{"id":"qibah_9735","citySlug":"qibah","name":"Parque Central","category":"ocio","lat":27.400885449805656,"lng":44.32108082145992,"avgVisitMinutes":44,"estimatedCostEur":16,"score":4.037077069338197},{"id":"qibah_4893","citySlug":"qibah","name":"Playa Sur","category":"playa","lat":27.411515252962676,"lng":44.323232839857276,"avgVisitMinutes":60,"estimatedCostEur":19,"score":2.676539085610668},{"id":"qibah_7301","citySlug":"qibah","name":"Playa Central","category":"playa","lat":27.397383657339255,"lng":44.32262218884056,"avgVisitMinutes":40,"estimatedCostEur":15,"score":1.8391144820987755},{"id":"qibah_1954","citySlug":"qibah","name":"Murallas de Qibah","category":"historia","lat":27.406024503875656,"lng":44.32557646161311,"avgVisitMinutes":89,"estimatedCostEur":13,"score":4.948093893277711},{"id":"qibah_5732","citySlug":"qibah","name":"Restaurante Típico de Qibah","category":"gastronomia","lat":27.402063143722327,"lng":44.32730791462939,"avgVisitMinutes":90,"estimatedCostEur":20,"score":1.2482522296667975},{"id":"qibah_4664","citySlug":"qibah","name":"Centro de Arte de Qibah","category":"cultura","lat":27.395453916041376,"lng":44.32369898215082,"avgVisitMinutes":56,"estimatedCostEur":14,"score":3.2869392964405586},{"id":"qibah_7311","citySlug":"qibah","name":"Galería de Arte","category":"cultura","lat":27.40517057611924,"lng":44.325958221846044,"avgVisitMinutes":41,"estimatedCostEur":24,"score":2.7559842505052314},{"id":"qibah_3284","citySlug":"qibah","name":"Playa Sur","category":"playa","lat":27.397027106252406,"lng":44.322090298345096,"avgVisitMinutes":41,"estimatedCostEur":9,"score":2.827624649086647},{"id":"qibah_2714","citySlug":"qibah","name":"Playa Central","category":"playa","lat":27.399096256146915,"lng":44.329037471316816,"avgVisitMinutes":85,"estimatedCostEur":6,"score":2.8344516114827725},{"id":"qalat-bishah_2517","citySlug":"qalat-bishah","name":"Zona Comercial","category":"ocio","lat":20.00003330007586,"lng":42.61193897553257,"avgVisitMinutes":46,"estimatedCostEur":8,"score":1.6622772262459524},{"id":"qalat-bishah_3116","citySlug":"qalat-bishah","name":"Galería de Arte","category":"cultura","lat":19.995783625240396,"lng":42.60642365131399,"avgVisitMinutes":34,"estimatedCostEur":6,"score":2.0885359076676924},{"id":"qalat-bishah_5132","citySlug":"qalat-bishah","name":"Paseo Principal","category":"ocio","lat":20.00858656444576,"lng":42.60733345309522,"avgVisitMinutes":90,"estimatedCostEur":5,"score":4.894438605560107},{"id":"qalat-bishah_6349","citySlug":"qalat-bishah","name":"Iglesia de Qal‘at Bīshah","category":"historia","lat":19.9946532696211,"lng":42.61458231235945,"avgVisitMinutes":79,"estimatedCostEur":21,"score":2.0929422804694817},{"id":"qalat-bishah_8408","citySlug":"qalat-bishah","name":"Murallas de Qal‘at Bīshah","category":"historia","lat":19.99620689529273,"lng":42.6078467627732,"avgVisitMinutes":65,"estimatedCostEur":6,"score":3.457512184426159},{"id":"qalat-bishah_9789","citySlug":"qalat-bishah","name":"Restaurante Típico de Qal‘at Bīshah","category":"gastronomia","lat":20.00750746863769,"lng":42.605961215366,"avgVisitMinutes":36,"estimatedCostEur":23,"score":4.427156128280125},{"id":"qalat-bishah_3741","citySlug":"qalat-bishah","name":"Centro Histórico","category":"historia","lat":19.990850654377816,"lng":42.61327797211664,"avgVisitMinutes":57,"estimatedCostEur":4,"score":4.583830797519841},{"id":"najran_9942","citySlug":"najran","name":"Centro de Arte de Najrān","category":"cultura","lat":17.49922496463249,"lng":44.13651121537387,"avgVisitMinutes":85,"estimatedCostEur":19,"score":4.521608324516579},{"id":"najran_2883","citySlug":"najran","name":"Playa Sur","category":"playa","lat":17.490618536423682,"lng":44.11840013738969,"avgVisitMinutes":77,"estimatedCostEur":11,"score":1.5845667310742173},{"id":"najran_3487","citySlug":"najran","name":"Museo Cultural de Najrān","category":"cultura","lat":17.499842563792637,"lng":44.12445894210964,"avgVisitMinutes":31,"estimatedCostEur":6,"score":4.698192410789258},{"id":"najran_1052","citySlug":"najran","name":"Museo Cultural de Najrān","category":"cultura","lat":17.497836915751453,"lng":44.12292592064596,"avgVisitMinutes":69,"estimatedCostEur":14,"score":2.330226562045641},{"id":"najran_6644","citySlug":"najran","name":"Galería de Arte","category":"cultura","lat":17.5016614353986,"lng":44.121046546990144,"avgVisitMinutes":59,"estimatedCostEur":13,"score":2.9184413102454965},{"id":"najran_3367","citySlug":"najran","name":"Restaurante Típico de Najrān","category":"gastronomia","lat":17.49964298720566,"lng":44.13567737899032,"avgVisitMinutes":68,"estimatedCostEur":19,"score":2.817510550647011},{"id":"najran_2487","citySlug":"najran","name":"Mercado Gastronómico","category":"gastronomia","lat":17.497538309630826,"lng":44.118970474363515,"avgVisitMinutes":66,"estimatedCostEur":25,"score":1.714912695058307},{"id":"najran_8411","citySlug":"najran","name":"Paseo Principal","category":"ocio","lat":17.487966158434745,"lng":44.12451998256057,"avgVisitMinutes":35,"estimatedCostEur":7,"score":3.7745792900360504},{"id":"najran_2689","citySlug":"najran","name":"Galería de Arte","category":"cultura","lat":17.49500666761953,"lng":44.12680722741566,"avgVisitMinutes":46,"estimatedCostEur":21,"score":3.9965671101577924},{"id":"najran_8511","citySlug":"najran","name":"Playa Norte","category":"playa","lat":17.49612129070256,"lng":44.121844358778006,"avgVisitMinutes":78,"estimatedCostEur":20,"score":2.9738348188772483},{"id":"najran_1307","citySlug":"najran","name":"Iglesia de Najrān","category":"historia","lat":17.485846825599154,"lng":44.130762923831654,"avgVisitMinutes":62,"estimatedCostEur":0,"score":4.336480008929912},{"id":"najran_7752","citySlug":"najran","name":"Playa Central","category":"playa","lat":17.4996948719029,"lng":44.133245643649786,"avgVisitMinutes":40,"estimatedCostEur":0,"score":2.4519524125996415},{"id":"mulayjah_6334","citySlug":"mulayjah","name":"Murallas de Mulayjah","category":"historia","lat":27.272472401680098,"lng":48.416876583684214,"avgVisitMinutes":35,"estimatedCostEur":23,"score":2.8934933802577953},{"id":"mulayjah_7973","citySlug":"mulayjah","name":"Mirador de Mulayjah","category":"mirador","lat":27.27724976105563,"lng":48.43199590079429,"avgVisitMinutes":37,"estimatedCostEur":25,"score":1.4696664177322347},{"id":"mulayjah_2668","citySlug":"mulayjah","name":"Murallas de Mulayjah","category":"historia","lat":27.265214642598014,"lng":48.43276194721229,"avgVisitMinutes":86,"estimatedCostEur":21,"score":4.170290107748629},{"id":"mulayjah_5735","citySlug":"mulayjah","name":"Playa Norte","category":"playa","lat":27.279262831752575,"lng":48.420114330677116,"avgVisitMinutes":76,"estimatedCostEur":8,"score":4.912540966941456},{"id":"mulayjah_2704","citySlug":"mulayjah","name":"Vista Alta de Mulayjah","category":"mirador","lat":27.27708060101869,"lng":48.4223408902422,"avgVisitMinutes":45,"estimatedCostEur":11,"score":4.573980497099642},{"id":"mulayjah_1309","citySlug":"mulayjah","name":"Playa Central","category":"playa","lat":27.266719266023244,"lng":48.417683411641214,"avgVisitMinutes":36,"estimatedCostEur":19,"score":1.2540740570992042},{"id":"mulayjah_8696","citySlug":"mulayjah","name":"Galería de Arte","category":"cultura","lat":27.264071890870373,"lng":48.42256723682119,"avgVisitMinutes":88,"estimatedCostEur":21,"score":2.419168567142454},{"id":"misliyah_7057","citySlug":"misliyah","name":"Restaurante Típico de Mislīyah","category":"gastronomia","lat":17.46213806097723,"lng":42.56714036972651,"avgVisitMinutes":66,"estimatedCostEur":4,"score":1.2439870081282836},{"id":"misliyah_7042","citySlug":"misliyah","name":"Punto Panorámico","category":"mirador","lat":17.450694088438066,"lng":42.56677157769086,"avgVisitMinutes":73,"estimatedCostEur":12,"score":4.328994427343678},{"id":"misliyah_6848","citySlug":"misliyah","name":"Ruta de Tapas","category":"gastronomia","lat":17.462164303853516,"lng":42.564163098633,"avgVisitMinutes":89,"estimatedCostEur":8,"score":4.539959627694971},{"id":"misliyah_3594","citySlug":"misliyah","name":"Punto Panorámico","category":"mirador","lat":17.462138350887972,"lng":42.55016028096933,"avgVisitMinutes":88,"estimatedCostEur":5,"score":4.4437967894597215},{"id":"misliyah_5867","citySlug":"misliyah","name":"Punto Panorámico","category":"mirador","lat":17.466771224813698,"lng":42.55322760824251,"avgVisitMinutes":45,"estimatedCostEur":20,"score":3.5776810661538},{"id":"misliyah_2769","citySlug":"misliyah","name":"Parque Central","category":"ocio","lat":17.45903362689085,"lng":42.56317150033891,"avgVisitMinutes":31,"estimatedCostEur":25,"score":4.696503255581738},{"id":"misliyah_8419","citySlug":"misliyah","name":"Castillo de Mislīyah","category":"historia","lat":17.461441065823685,"lng":42.55702583574198,"avgVisitMinutes":55,"estimatedCostEur":14,"score":3.3209284845141105},{"id":"misliyah_4477","citySlug":"misliyah","name":"Teatro Municipal","category":"cultura","lat":17.459644861513386,"lng":42.55443557794739,"avgVisitMinutes":29,"estimatedCostEur":12,"score":4.734101475594553},{"id":"misliyah_4114","citySlug":"misliyah","name":"Parque Central","category":"ocio","lat":17.461891297170666,"lng":42.550936887464616,"avgVisitMinutes":47,"estimatedCostEur":20,"score":2.228889861620961},{"id":"misliyah_7760","citySlug":"misliyah","name":"Restaurante Típico de Mislīyah","category":"gastronomia","lat":17.453056933486614,"lng":42.5513117142869,"avgVisitMinutes":31,"estimatedCostEur":25,"score":1.2178305175646345},{"id":"marat_9467","citySlug":"marat","name":"Paseo Principal","category":"ocio","lat":25.078052325518627,"lng":45.462938217263485,"avgVisitMinutes":84,"estimatedCostEur":2,"score":4.208064921388692},{"id":"marat_9514","citySlug":"marat","name":"Museo Local de Marāt","category":"historia","lat":25.063667744736584,"lng":45.45430432444129,"avgVisitMinutes":72,"estimatedCostEur":25,"score":3.08869994631683},{"id":"marat_2946","citySlug":"marat","name":"Mercado Gastronómico","category":"gastronomia","lat":25.079128579975297,"lng":45.45600257416985,"avgVisitMinutes":41,"estimatedCostEur":23,"score":4.549997426997853},{"id":"marat_6317","citySlug":"marat","name":"Parque Central","category":"ocio","lat":25.07555045185414,"lng":45.449511757703924,"avgVisitMinutes":42,"estimatedCostEur":3,"score":1.9838435819290117},{"id":"marat_2667","citySlug":"marat","name":"Playa Norte","category":"playa","lat":25.066321625611717,"lng":45.451356631231455,"avgVisitMinutes":26,"estimatedCostEur":21,"score":3.5936316615094013},{"id":"marat_1950","citySlug":"marat","name":"Parque Central","category":"ocio","lat":25.062382763664594,"lng":45.45749794864113,"avgVisitMinutes":76,"estimatedCostEur":2,"score":1.0584438789325465},{"id":"marat_7735","citySlug":"marat","name":"Ruta de Tapas","category":"gastronomia","lat":25.068699345427998,"lng":45.45374568718842,"avgVisitMinutes":38,"estimatedCostEur":3,"score":0.7932729854388609},{"id":"marat_1779","citySlug":"marat","name":"Museo Local de Marāt","category":"historia","lat":25.06127851370566,"lng":45.454620585636924,"avgVisitMinutes":62,"estimatedCostEur":7,"score":1.7597303110183324},{"id":"marat_4077","citySlug":"marat","name":"Centro Histórico","category":"historia","lat":25.077196461293326,"lng":45.451272740027285,"avgVisitMinutes":49,"estimatedCostEur":22,"score":4.137772961833294},{"id":"marat_7750","citySlug":"marat","name":"Murallas de Marāt","category":"historia","lat":25.065272733986916,"lng":45.45552769899415,"avgVisitMinutes":31,"estimatedCostEur":20,"score":4.974067914848536},{"id":"makkah_7323","citySlug":"makkah","name":"Museo Cultural de Makkah","category":"cultura","lat":21.429685514884447,"lng":39.83012529252396,"avgVisitMinutes":80,"estimatedCostEur":12,"score":3.6380638685716296},{"id":"makkah_2482","citySlug":"makkah","name":"Vista Alta de Makkah","category":"mirador","lat":21.430492503507395,"lng":39.83081374834251,"avgVisitMinutes":56,"estimatedCostEur":19,"score":4.028204327569927},{"id":"makkah_2386","citySlug":"makkah","name":"Playa Sur","category":"playa","lat":21.433441807894987,"lng":39.82085746224656,"avgVisitMinutes":31,"estimatedCostEur":7,"score":1.1405225937174668},{"id":"makkah_2246","citySlug":"makkah","name":"Teatro Municipal","category":"cultura","lat":21.420321680096258,"lng":39.823704980916354,"avgVisitMinutes":45,"estimatedCostEur":10,"score":2.5302370830135725},{"id":"makkah_6142","citySlug":"makkah","name":"Zona Comercial","category":"ocio","lat":21.423093845207326,"lng":39.83296758668493,"avgVisitMinutes":56,"estimatedCostEur":21,"score":4.977977195132353},{"id":"makkah_5218","citySlug":"makkah","name":"Teatro Municipal","category":"cultura","lat":21.42245846510845,"lng":39.82468832266747,"avgVisitMinutes":75,"estimatedCostEur":6,"score":2.02371988860732},{"id":"makkah_2800","citySlug":"makkah","name":"Galería de Arte","category":"cultura","lat":21.433319832125107,"lng":39.82364218528193,"avgVisitMinutes":37,"estimatedCostEur":1,"score":4.397779811716127},{"id":"makkah_7531","citySlug":"makkah","name":"Restaurante Típico de Makkah","category":"gastronomia","lat":21.42014788972031,"lng":39.83406178891591,"avgVisitMinutes":40,"estimatedCostEur":4,"score":4.164333632592193},{"id":"mahd-adh-dhahab_4931","citySlug":"mahd-adh-dhahab","name":"Museo Local de Mahd adh Dhahab","category":"historia","lat":23.49252374158772,"lng":40.87497699775286,"avgVisitMinutes":77,"estimatedCostEur":23,"score":1.0490286596095475},{"id":"mahd-adh-dhahab_7360","citySlug":"mahd-adh-dhahab","name":"Centro Histórico","category":"historia","lat":23.508033807892858,"lng":40.889877081164926,"avgVisitMinutes":31,"estimatedCostEur":6,"score":3.683150317321747},{"id":"mahd-adh-dhahab_9354","citySlug":"mahd-adh-dhahab","name":"Mercado Gastronómico","category":"gastronomia","lat":23.498149019303273,"lng":40.892576167362336,"avgVisitMinutes":35,"estimatedCostEur":22,"score":2.8589169946477293},{"id":"mahd-adh-dhahab_6524","citySlug":"mahd-adh-dhahab","name":"Ruta de Tapas","category":"gastronomia","lat":23.498487724494577,"lng":40.89311263675202,"avgVisitMinutes":65,"estimatedCostEur":20,"score":1.1685672145479808},{"id":"mahd-adh-dhahab_2892","citySlug":"mahd-adh-dhahab","name":"Galería de Arte","category":"cultura","lat":23.5047284631444,"lng":40.884663219898066,"avgVisitMinutes":69,"estimatedCostEur":5,"score":1.332547118055469},{"id":"mahd-adh-dhahab_2504","citySlug":"mahd-adh-dhahab","name":"Zona Comercial","category":"ocio","lat":23.496467268411244,"lng":40.8813276483478,"avgVisitMinutes":63,"estimatedCostEur":1,"score":0.6216821144165706},{"id":"mahd-adh-dhahab_3603","citySlug":"mahd-adh-dhahab","name":"Vista Alta de Mahd adh Dhahab","category":"mirador","lat":23.505109031864116,"lng":40.882602432647005,"avgVisitMinutes":89,"estimatedCostEur":24,"score":3.371550785347295},{"id":"mahd-adh-dhahab_1636","citySlug":"mahd-adh-dhahab","name":"Mirador de Mahd adh Dhahab","category":"mirador","lat":23.508807383093835,"lng":40.885164609564384,"avgVisitMinutes":67,"estimatedCostEur":16,"score":4.735604866080207},{"id":"mahd-adh-dhahab_9515","citySlug":"mahd-adh-dhahab","name":"Punto Panorámico","category":"mirador","lat":23.49350970056663,"lng":40.88232023275023,"avgVisitMinutes":54,"estimatedCostEur":22,"score":1.8830884410977105},{"id":"mahd-adh-dhahab_6800","citySlug":"mahd-adh-dhahab","name":"Vista Alta de Mahd adh Dhahab","category":"mirador","lat":23.505217970577327,"lng":40.88285106549748,"avgVisitMinutes":44,"estimatedCostEur":2,"score":4.866139670278925},{"id":"mahd-adh-dhahab_9417","citySlug":"mahd-adh-dhahab","name":"Playa Norte","category":"playa","lat":23.50334386646996,"lng":40.88734770571986,"avgVisitMinutes":71,"estimatedCostEur":12,"score":2.183384360991183},{"id":"layla_2427","citySlug":"layla","name":"Ruta de Tapas","category":"gastronomia","lat":22.295087704854787,"lng":46.723714251608236,"avgVisitMinutes":81,"estimatedCostEur":8,"score":2.033288786811971},{"id":"layla_6051","citySlug":"layla","name":"Castillo de Laylá","category":"historia","lat":22.294036676365014,"lng":46.717019292138225,"avgVisitMinutes":81,"estimatedCostEur":25,"score":2.162973374709742},{"id":"layla_8443","citySlug":"layla","name":"Parque Central","category":"ocio","lat":22.29264726498854,"lng":46.71931571992406,"avgVisitMinutes":78,"estimatedCostEur":19,"score":4.269846802404363},{"id":"layla_2151","citySlug":"layla","name":"Galería de Arte","category":"cultura","lat":22.288552193266163,"lng":46.733362085257376,"avgVisitMinutes":86,"estimatedCostEur":16,"score":1.2475566939191771},{"id":"layla_3391","citySlug":"layla","name":"Mercado Gastronómico","category":"gastronomia","lat":22.282986095599867,"lng":46.721168221346424,"avgVisitMinutes":67,"estimatedCostEur":11,"score":2.4354307815067333},{"id":"layla_5401","citySlug":"layla","name":"Centro Histórico","category":"historia","lat":22.28518793097277,"lng":46.718803089644936,"avgVisitMinutes":83,"estimatedCostEur":16,"score":0.6937439308044562},{"id":"layla_4492","citySlug":"layla","name":"Teatro Municipal","category":"cultura","lat":22.295507989620283,"lng":46.72467875830184,"avgVisitMinutes":78,"estimatedCostEur":0,"score":2.863519306737565},{"id":"khulays_5204","citySlug":"khulays","name":"Castillo de Khulayş","category":"historia","lat":22.15654390014976,"lng":39.3202516806393,"avgVisitMinutes":73,"estimatedCostEur":15,"score":2.025507310415401},{"id":"khulays_8803","citySlug":"khulays","name":"Playa Central","category":"playa","lat":22.15266847910046,"lng":39.3176531023009,"avgVisitMinutes":74,"estimatedCostEur":12,"score":4.964349816371424},{"id":"khulays_1359","citySlug":"khulays","name":"Playa Central","category":"playa","lat":22.153814993739577,"lng":39.32043974830815,"avgVisitMinutes":43,"estimatedCostEur":0,"score":2.1436595257888422},{"id":"khulays_8568","citySlug":"khulays","name":"Mirador de Khulayş","category":"mirador","lat":22.146645549980498,"lng":39.31833685280999,"avgVisitMinutes":78,"estimatedCostEur":23,"score":1.959266477188667},{"id":"khulays_2504","citySlug":"khulays","name":"Playa Norte","category":"playa","lat":22.16507951262269,"lng":39.31948908735995,"avgVisitMinutes":68,"estimatedCostEur":19,"score":3.8360166431495175},{"id":"khulays_3231","citySlug":"khulays","name":"Ruta de Tapas","category":"gastronomia","lat":22.146295236619284,"lng":39.32204980034966,"avgVisitMinutes":51,"estimatedCostEur":21,"score":2.29222364119214},{"id":"khulays_7009","citySlug":"khulays","name":"Castillo de Khulayş","category":"historia","lat":22.149768012513587,"lng":39.32151648194216,"avgVisitMinutes":74,"estimatedCostEur":1,"score":3.2793283104626445},{"id":"khulays_5978","citySlug":"khulays","name":"Playa Central","category":"playa","lat":22.150805842539082,"lng":39.31051378883731,"avgVisitMinutes":89,"estimatedCostEur":25,"score":4.032801662127458},{"id":"khulays_5022","citySlug":"khulays","name":"Mirador de Khulayş","category":"mirador","lat":22.146658012816513,"lng":39.3156487545488,"avgVisitMinutes":79,"estimatedCostEur":15,"score":0.7869312240543591},{"id":"khulays_8621","citySlug":"khulays","name":"Parque Central","category":"ocio","lat":22.147074413526482,"lng":39.31782414931484,"avgVisitMinutes":46,"estimatedCostEur":3,"score":2.360682273533622},{"id":"khulays_7356","citySlug":"khulays","name":"Centro de Arte de Khulayş","category":"cultura","lat":22.15749591226283,"lng":39.31469278996793,"avgVisitMinutes":31,"estimatedCostEur":12,"score":2.5970132923155975},{"id":"khulays_2375","citySlug":"khulays","name":"Playa Central","category":"playa","lat":22.148449316019995,"lng":39.32766226612161,"avgVisitMinutes":74,"estimatedCostEur":24,"score":4.728750240276706},{"id":"khamis-mushait_7647","citySlug":"khamis-mushait","name":"Vista Alta de Khamis Mushait","category":"mirador","lat":18.305719249591814,"lng":42.72392811655106,"avgVisitMinutes":41,"estimatedCostEur":20,"score":4.756094460631971},{"id":"khamis-mushait_7130","citySlug":"khamis-mushait","name":"Murallas de Khamis Mushait","category":"historia","lat":18.307195425812765,"lng":42.72875696792701,"avgVisitMinutes":50,"estimatedCostEur":16,"score":2.583641075947756},{"id":"khamis-mushait_2522","citySlug":"khamis-mushait","name":"Mercado Gastronómico","category":"gastronomia","lat":18.292345849132335,"lng":42.73788516161393,"avgVisitMinutes":50,"estimatedCostEur":21,"score":1.5930131002758063},{"id":"khamis-mushait_9163","citySlug":"khamis-mushait","name":"Ruta de Tapas","category":"gastronomia","lat":18.29471821938584,"lng":42.72629310352595,"avgVisitMinutes":56,"estimatedCostEur":8,"score":4.843083540218127},{"id":"khamis-mushait_3420","citySlug":"khamis-mushait","name":"Centro Histórico","category":"historia","lat":18.309629087045018,"lng":42.727491402951436,"avgVisitMinutes":51,"estimatedCostEur":4,"score":1.696139815980263},{"id":"khamis-mushait_9924","citySlug":"khamis-mushait","name":"Galería de Arte","category":"cultura","lat":18.302390545563163,"lng":42.73951695788529,"avgVisitMinutes":27,"estimatedCostEur":1,"score":2.9927134252550553},{"id":"khamis-mushait_9499","citySlug":"khamis-mushait","name":"Ruta de Tapas","category":"gastronomia","lat":18.309996453461018,"lng":42.741773271170615,"avgVisitMinutes":83,"estimatedCostEur":16,"score":2.1642923451580556},{"id":"khamis-mushait_6294","citySlug":"khamis-mushait","name":"Playa Central","category":"playa","lat":18.297914217452707,"lng":42.73292112776338,"avgVisitMinutes":79,"estimatedCostEur":4,"score":1.8589174226947465},{"id":"khamis-mushait_6530","citySlug":"khamis-mushait","name":"Ruta de Tapas","category":"gastronomia","lat":18.30069800829003,"lng":42.73698336161732,"avgVisitMinutes":58,"estimatedCostEur":13,"score":1.6545050257005411},{"id":"khamis-mushait_9349","citySlug":"khamis-mushait","name":"Playa Norte","category":"playa","lat":18.29260740620288,"lng":42.7298949409565,"avgVisitMinutes":31,"estimatedCostEur":24,"score":3.54743429671847},{"id":"julayjilah_3734","citySlug":"julayjilah","name":"Restaurante Típico de Julayjilah","category":"gastronomia","lat":25.49993456062142,"lng":49.602709870812305,"avgVisitMinutes":39,"estimatedCostEur":10,"score":1.2140505442163065},{"id":"julayjilah_3273","citySlug":"julayjilah","name":"Restaurante Típico de Julayjilah","category":"gastronomia","lat":25.505366189980872,"lng":49.59825326427332,"avgVisitMinutes":44,"estimatedCostEur":8,"score":4.7026579101956445},{"id":"julayjilah_2515","citySlug":"julayjilah","name":"Iglesia de Julayjilah","category":"historia","lat":25.498337008337263,"lng":49.59187327959299,"avgVisitMinutes":24,"estimatedCostEur":3,"score":1.8885308118036341},{"id":"julayjilah_9223","citySlug":"julayjilah","name":"Playa Sur","category":"playa","lat":25.49300591033989,"lng":49.601966159553115,"avgVisitMinutes":37,"estimatedCostEur":7,"score":2.1959951187459774},{"id":"julayjilah_1519","citySlug":"julayjilah","name":"Playa Central","category":"playa","lat":25.496862086126296,"lng":49.59228638238932,"avgVisitMinutes":86,"estimatedCostEur":11,"score":4.374955233112281},{"id":"julayjilah_9214","citySlug":"julayjilah","name":"Museo Cultural de Julayjilah","category":"cultura","lat":25.501835503112382,"lng":49.601366514005484,"avgVisitMinutes":58,"estimatedCostEur":23,"score":2.2020499787090246},{"id":"julayjilah_3854","citySlug":"julayjilah","name":"Restaurante Típico de Julayjilah","category":"gastronomia","lat":25.50174862375239,"lng":49.60197910636479,"avgVisitMinutes":27,"estimatedCostEur":6,"score":1.5519719790228117},{"id":"julayjilah_1101","citySlug":"julayjilah","name":"Centro Histórico","category":"historia","lat":25.50027599122293,"lng":49.59135954554443,"avgVisitMinutes":90,"estimatedCostEur":11,"score":2.070958017014682},{"id":"julayjilah_4234","citySlug":"julayjilah","name":"Zona Comercial","category":"ocio","lat":25.49157487580313,"lng":49.603658942975144,"avgVisitMinutes":21,"estimatedCostEur":2,"score":2.160063359053755},{"id":"julayjilah_6420","citySlug":"julayjilah","name":"Murallas de Julayjilah","category":"historia","lat":25.508517284638234,"lng":49.60459357589466,"avgVisitMinutes":86,"estimatedCostEur":19,"score":4.334605333902872},{"id":"julayjilah_7412","citySlug":"julayjilah","name":"Vista Alta de Julayjilah","category":"mirador","lat":25.503919966745386,"lng":49.608196304208896,"avgVisitMinutes":85,"estimatedCostEur":19,"score":1.688470591116611},{"id":"julayjilah_1825","citySlug":"julayjilah","name":"Paseo Principal","category":"ocio","lat":25.496168043036747,"lng":49.59896085226207,"avgVisitMinutes":44,"estimatedCostEur":16,"score":3.90039647665667},{"id":"jizan_3414","citySlug":"jizan","name":"Museo Cultural de Jizan","category":"cultura","lat":16.883172198742702,"lng":42.5471506022029,"avgVisitMinutes":82,"estimatedCostEur":22,"score":3.351875795781453},{"id":"jizan_6117","citySlug":"jizan","name":"Vista Alta de Jizan","category":"mirador","lat":16.88134180756402,"lng":42.55766886327014,"avgVisitMinutes":70,"estimatedCostEur":20,"score":1.2420123899769353},{"id":"jizan_2809","citySlug":"jizan","name":"Galería de Arte","category":"cultura","lat":16.89454823895808,"lng":42.55126976458652,"avgVisitMinutes":36,"estimatedCostEur":17,"score":4.39279251908177},{"id":"jizan_9605","citySlug":"jizan","name":"Mercado Gastronómico","category":"gastronomia","lat":16.89881485661684,"lng":42.54644490626436,"avgVisitMinutes":49,"estimatedCostEur":21,"score":1.3901456093180962},{"id":"jizan_8293","citySlug":"jizan","name":"Centro de Arte de Jizan","category":"cultura","lat":16.884767715600653,"lng":42.56048409922307,"avgVisitMinutes":61,"estimatedCostEur":9,"score":4.42459690836732},{"id":"jizan_5860","citySlug":"jizan","name":"Zona Comercial","category":"ocio","lat":16.893100382634973,"lng":42.54949687902883,"avgVisitMinutes":87,"estimatedCostEur":18,"score":0.7832693917669823},{"id":"jizan_4284","citySlug":"jizan","name":"Teatro Municipal","category":"cultura","lat":16.891957682731853,"lng":42.55975324251697,"avgVisitMinutes":41,"estimatedCostEur":9,"score":2.3427372929297774},{"id":"jizan_9459","citySlug":"jizan","name":"Castillo de Jizan","category":"historia","lat":16.882076127300596,"lng":42.54477829452808,"avgVisitMinutes":26,"estimatedCostEur":5,"score":1.6129122178203825},{"id":"jeddah_1993","citySlug":"jeddah","name":"Restaurante Típico de Jeddah","category":"gastronomia","lat":21.480175351513832,"lng":39.17769114152246,"avgVisitMinutes":57,"estimatedCostEur":2,"score":1.5826855458635198},{"id":"jeddah_5293","citySlug":"jeddah","name":"Galería de Arte","category":"cultura","lat":21.49515422265766,"lng":39.18550601701468,"avgVisitMinutes":29,"estimatedCostEur":17,"score":4.174202277022453},{"id":"jeddah_8741","citySlug":"jeddah","name":"Ruta de Tapas","category":"gastronomia","lat":21.487364236388036,"lng":39.18961444609781,"avgVisitMinutes":52,"estimatedCostEur":15,"score":1.488489918093272},{"id":"jeddah_2725","citySlug":"jeddah","name":"Vista Alta de Jeddah","category":"mirador","lat":21.487801362814327,"lng":39.186257907103105,"avgVisitMinutes":61,"estimatedCostEur":25,"score":0.5787858876328608},{"id":"jeddah_2302","citySlug":"jeddah","name":"Restaurante Típico de Jeddah","category":"gastronomia","lat":21.49910825700772,"lng":39.18521894790948,"avgVisitMinutes":79,"estimatedCostEur":21,"score":1.6184487163115735},{"id":"jeddah_1993","citySlug":"jeddah","name":"Restaurante Típico de Jeddah","category":"gastronomia","lat":21.494191221774685,"lng":39.189610196525734,"avgVisitMinutes":22,"estimatedCostEur":19,"score":4.833211078092928},{"id":"haql_9685","citySlug":"haql","name":"Castillo de Ḩaql","category":"historia","lat":29.28386973909199,"lng":34.951601293230105,"avgVisitMinutes":30,"estimatedCostEur":22,"score":2.819148814797713},{"id":"haql_9081","citySlug":"haql","name":"Punto Panorámico","category":"mirador","lat":29.289755004676245,"lng":34.94763694925065,"avgVisitMinutes":47,"estimatedCostEur":23,"score":0.6590628258760325},{"id":"haql_1272","citySlug":"haql","name":"Museo Cultural de Ḩaql","category":"cultura","lat":29.286097793770224,"lng":34.942004342606225,"avgVisitMinutes":26,"estimatedCostEur":20,"score":1.048298169220514},{"id":"haql_4698","citySlug":"haql","name":"Parque Central","category":"ocio","lat":29.282537852361088,"lng":34.93693026579392,"avgVisitMinutes":44,"estimatedCostEur":17,"score":3.621506075897152},{"id":"haql_4825","citySlug":"haql","name":"Iglesia de Ḩaql","category":"historia","lat":29.293855807853422,"lng":34.952515544142116,"avgVisitMinutes":78,"estimatedCostEur":21,"score":1.8446234240266601},{"id":"haql_7087","citySlug":"haql","name":"Museo Local de Ḩaql","category":"historia","lat":29.291554806542997,"lng":34.93746872244926,"avgVisitMinutes":55,"estimatedCostEur":21,"score":0.9137412796866269},{"id":"haql_5855","citySlug":"haql","name":"Paseo Principal","category":"ocio","lat":29.289865853550317,"lng":34.95454221836351,"avgVisitMinutes":57,"estimatedCostEur":15,"score":2.0754981541562225},{"id":"haql_1983","citySlug":"haql","name":"Paseo Principal","category":"ocio","lat":29.29397645088986,"lng":34.944090729113185,"avgVisitMinutes":43,"estimatedCostEur":9,"score":1.7880840949743908},{"id":"haql_6864","citySlug":"haql","name":"Playa Central","category":"playa","lat":29.290572825521856,"lng":34.94307145144461,"avgVisitMinutes":83,"estimatedCostEur":0,"score":1.6244080734951654},{"id":"haql_4656","citySlug":"haql","name":"Zona Comercial","category":"ocio","lat":29.28234065386678,"lng":34.954290117137745,"avgVisitMinutes":38,"estimatedCostEur":2,"score":1.236743210911029},{"id":"ha-il_3999","citySlug":"ha-il","name":"Restaurante Típico de Ha'il","category":"gastronomia","lat":27.51292055957262,"lng":41.68413129040644,"avgVisitMinutes":24,"estimatedCostEur":7,"score":3.7513324228504854},{"id":"ha-il_8501","citySlug":"ha-il","name":"Mercado Gastronómico","category":"gastronomia","lat":27.51441928200428,"lng":41.68346189410996,"avgVisitMinutes":69,"estimatedCostEur":10,"score":4.007119345854013},{"id":"ha-il_4056","citySlug":"ha-il","name":"Castillo de Ha'il","category":"historia","lat":27.530619937170297,"lng":41.691023749552926,"avgVisitMinutes":44,"estimatedCostEur":24,"score":4.11086611767476},{"id":"ha-il_5098","citySlug":"ha-il","name":"Iglesia de Ha'il","category":"historia","lat":27.526388276846987,"lng":41.68273859600633,"avgVisitMinutes":53,"estimatedCostEur":21,"score":2.1133761808977827},{"id":"ha-il_6834","citySlug":"ha-il","name":"Playa Norte","category":"playa","lat":27.51240638021317,"lng":41.69152749343927,"avgVisitMinutes":43,"estimatedCostEur":11,"score":4.157558076955134},{"id":"ha-il_4450","citySlug":"ha-il","name":"Galería de Arte","category":"cultura","lat":27.528808990816927,"lng":41.698460864754125,"avgVisitMinutes":32,"estimatedCostEur":14,"score":4.7034244154464595},{"id":"ha-il_9366","citySlug":"ha-il","name":"Playa Central","category":"playa","lat":27.519485585417566,"lng":41.69521673142946,"avgVisitMinutes":66,"estimatedCostEur":17,"score":1.341922534926045},{"id":"hafar-al-batin_6132","citySlug":"hafar-al-batin","name":"Restaurante Típico de Hafar Al-Batin","category":"gastronomia","lat":28.438568677643026,"lng":45.977165932541055,"avgVisitMinutes":24,"estimatedCostEur":4,"score":4.515111195528275},{"id":"hafar-al-batin_7595","citySlug":"hafar-al-batin","name":"Playa Central","category":"playa","lat":28.42453649404856,"lng":45.97512624984236,"avgVisitMinutes":43,"estimatedCostEur":9,"score":1.62181737608118},{"id":"hafar-al-batin_6294","citySlug":"hafar-al-batin","name":"Castillo de Hafar Al-Batin","category":"historia","lat":28.425721594995963,"lng":45.963209466964436,"avgVisitMinutes":81,"estimatedCostEur":4,"score":4.920078240410633},{"id":"hafar-al-batin_9690","citySlug":"hafar-al-batin","name":"Murallas de Hafar Al-Batin","category":"historia","lat":28.433476898654934,"lng":45.963707145337985,"avgVisitMinutes":40,"estimatedCostEur":18,"score":2.52736001486489},{"id":"hafar-al-batin_9833","citySlug":"hafar-al-batin","name":"Paseo Principal","category":"ocio","lat":28.442784820228308,"lng":45.97306206900779,"avgVisitMinutes":85,"estimatedCostEur":17,"score":3.734992406343538},{"id":"hafar-al-batin_3736","citySlug":"hafar-al-batin","name":"Mirador de Hafar Al-Batin","category":"mirador","lat":28.431848493137718,"lng":45.9737790954239,"avgVisitMinutes":84,"estimatedCostEur":4,"score":2.0129517645766772},{"id":"hafar-al-batin_8482","citySlug":"hafar-al-batin","name":"Vista Alta de Hafar Al-Batin","category":"mirador","lat":28.42656345406497,"lng":45.962358899514754,"avgVisitMinutes":49,"estimatedCostEur":10,"score":4.100239443385794},{"id":"hafar-al-batin_7506","citySlug":"hafar-al-batin","name":"Castillo de Hafar Al-Batin","category":"historia","lat":28.426067413624704,"lng":45.96903898225042,"avgVisitMinutes":43,"estimatedCostEur":9,"score":1.3894234760969553},{"id":"fayfa_2561","citySlug":"fayfa","name":"Restaurante Típico de Fayfā’","category":"gastronomia","lat":17.27223413405791,"lng":43.12804052441338,"avgVisitMinutes":83,"estimatedCostEur":21,"score":4.130244050239016},{"id":"fayfa_7575","citySlug":"fayfa","name":"Restaurante Típico de Fayfā’","category":"gastronomia","lat":17.286566639240803,"lng":43.13440573419704,"avgVisitMinutes":22,"estimatedCostEur":23,"score":2.683363367424308},{"id":"fayfa_4416","citySlug":"fayfa","name":"Vista Alta de Fayfā’","category":"mirador","lat":17.282182594170607,"lng":43.14150136681722,"avgVisitMinutes":73,"estimatedCostEur":6,"score":2.9264200618816005},{"id":"fayfa_5843","citySlug":"fayfa","name":"Paseo Principal","category":"ocio","lat":17.289370452136865,"lng":43.128838756726914,"avgVisitMinutes":20,"estimatedCostEur":9,"score":1.4359246275404935},{"id":"fayfa_7153","citySlug":"fayfa","name":"Restaurante Típico de Fayfā’","category":"gastronomia","lat":17.281674468056156,"lng":43.1332462755106,"avgVisitMinutes":38,"estimatedCostEur":7,"score":1.307303071103333},{"id":"farasan_4996","citySlug":"farasan","name":"Playa Norte","category":"playa","lat":16.70633725354053,"lng":42.1105137714736,"avgVisitMinutes":82,"estimatedCostEur":19,"score":1.6449539326620652},{"id":"farasan_1403","citySlug":"farasan","name":"Museo Cultural de Farasān","category":"cultura","lat":16.692969962295066,"lng":42.11458101266694,"avgVisitMinutes":29,"estimatedCostEur":19,"score":2.8658030093235562},{"id":"farasan_9960","citySlug":"farasan","name":"Mercado Gastronómico","category":"gastronomia","lat":16.69820984497362,"lng":42.108801369307855,"avgVisitMinutes":61,"estimatedCostEur":13,"score":0.581225108103179},{"id":"farasan_4376","citySlug":"farasan","name":"Restaurante Típico de Farasān","category":"gastronomia","lat":16.69277297038075,"lng":42.12158584334237,"avgVisitMinutes":71,"estimatedCostEur":1,"score":3.9313203047029077},{"id":"farasan_4198","citySlug":"farasan","name":"Playa Sur","category":"playa","lat":16.70621781213037,"lng":42.114908462434364,"avgVisitMinutes":30,"estimatedCostEur":15,"score":1.992804198850862},{"id":"farasan_3339","citySlug":"farasan","name":"Vista Alta de Farasān","category":"mirador","lat":16.70869164617712,"lng":42.12268811516601,"avgVisitMinutes":50,"estimatedCostEur":22,"score":4.472320345390544},{"id":"dukhnah_1931","citySlug":"dukhnah","name":"Vista Alta de Dukhnah","category":"mirador","lat":25.365977862069716,"lng":43.62347762649777,"avgVisitMinutes":48,"estimatedCostEur":4,"score":2.933354163289319},{"id":"dukhnah_9095","citySlug":"dukhnah","name":"Mirador de Dukhnah","category":"mirador","lat":25.361958424956615,"lng":43.62506468420179,"avgVisitMinutes":60,"estimatedCostEur":18,"score":1.1788879146057103},{"id":"dukhnah_7160","citySlug":"dukhnah","name":"Centro Histórico","category":"historia","lat":25.360105601142926,"lng":43.62046738752227,"avgVisitMinutes":47,"estimatedCostEur":14,"score":3.5295555316131644},{"id":"dukhnah_1454","citySlug":"dukhnah","name":"Museo Cultural de Dukhnah","category":"cultura","lat":25.356186549161677,"lng":43.617646970719285,"avgVisitMinutes":29,"estimatedCostEur":7,"score":4.179255767373677},{"id":"dukhnah_2102","citySlug":"dukhnah","name":"Museo Local de Dukhnah","category":"historia","lat":25.362570133163455,"lng":43.623606708310334,"avgVisitMinutes":89,"estimatedCostEur":0,"score":0.5384194061731982},{"id":"dukhnah_1432","citySlug":"dukhnah","name":"Mirador de Dukhnah","category":"mirador","lat":25.354604657275754,"lng":43.624008729447006,"avgVisitMinutes":20,"estimatedCostEur":18,"score":3.633091806844288},{"id":"dukhnah_2565","citySlug":"dukhnah","name":"Parque Central","category":"ocio","lat":25.361039137596592,"lng":43.63167618539866,"avgVisitMinutes":40,"estimatedCostEur":20,"score":2.1418601065634357},{"id":"dukhnah_3233","citySlug":"dukhnah","name":"Iglesia de Dukhnah","category":"historia","lat":25.355832937326984,"lng":43.61630722825293,"avgVisitMinutes":43,"estimatedCostEur":14,"score":3.4998972017788903},{"id":"dukhnah_7879","citySlug":"dukhnah","name":"Iglesia de Dukhnah","category":"historia","lat":25.365981667949455,"lng":43.619108450749884,"avgVisitMinutes":82,"estimatedCostEur":11,"score":4.000566913994133},{"id":"dukhnah_1319","citySlug":"dukhnah","name":"Galería de Arte","category":"cultura","lat":25.35865027281793,"lng":43.630865093801496,"avgVisitMinutes":62,"estimatedCostEur":21,"score":4.6515908859832305},{"id":"dukhnah_3495","citySlug":"dukhnah","name":"Restaurante Típico de Dukhnah","category":"gastronomia","lat":25.36343909602275,"lng":43.61768105430873,"avgVisitMinutes":28,"estimatedCostEur":13,"score":4.816006003821904},{"id":"dukhnah_6733","citySlug":"dukhnah","name":"Parque Central","category":"ocio","lat":25.351271512337302,"lng":43.62840241874258,"avgVisitMinutes":21,"estimatedCostEur":10,"score":4.253568446893039},{"id":"duba_1505","citySlug":"duba","name":"Centro Histórico","category":"historia","lat":27.35323369081866,"lng":35.6978671859154,"avgVisitMinutes":38,"estimatedCostEur":7,"score":1.4221010123226985},{"id":"duba_2539","citySlug":"duba","name":"Centro Histórico","category":"historia","lat":27.345579406738732,"lng":35.688840912017845,"avgVisitMinutes":20,"estimatedCostEur":17,"score":0.7952577671998241},{"id":"duba_3124","citySlug":"duba","name":"Mercado Gastronómico","category":"gastronomia","lat":27.3461261201473,"lng":35.69763278702532,"avgVisitMinutes":58,"estimatedCostEur":15,"score":0.7905692240945602},{"id":"duba_2841","citySlug":"duba","name":"Playa Norte","category":"playa","lat":27.344124015211108,"lng":35.69172867702265,"avgVisitMinutes":68,"estimatedCostEur":6,"score":2.540875080476448},{"id":"duba_9604","citySlug":"duba","name":"Centro Histórico","category":"historia","lat":27.344320534206403,"lng":35.685392556050196,"avgVisitMinutes":22,"estimatedCostEur":9,"score":3.495519805051004},{"id":"duba_2280","citySlug":"duba","name":"Punto Panorámico","category":"mirador","lat":27.3499281363499,"lng":35.69680190904726,"avgVisitMinutes":38,"estimatedCostEur":18,"score":1.4220721012942565},{"id":"duba_3298","citySlug":"duba","name":"Restaurante Típico de Duba","category":"gastronomia","lat":27.34401753267713,"lng":35.69531833098746,"avgVisitMinutes":43,"estimatedCostEur":10,"score":4.779577208222259},{"id":"duba_6283","citySlug":"duba","name":"Iglesia de Duba","category":"historia","lat":27.34473441026892,"lng":35.68762200919069,"avgVisitMinutes":77,"estimatedCostEur":16,"score":1.3014087231186193},{"id":"duba_2721","citySlug":"duba","name":"Playa Central","category":"playa","lat":27.35595926739827,"lng":35.681182439451796,"avgVisitMinutes":57,"estimatedCostEur":23,"score":3.4779572840807704},{"id":"damad_1885","citySlug":"damad","name":"Teatro Municipal","category":"cultura","lat":17.10812340790569,"lng":42.77769525305792,"avgVisitMinutes":49,"estimatedCostEur":21,"score":3.0247624022907686},{"id":"damad_7841","citySlug":"damad","name":"Punto Panorámico","category":"mirador","lat":17.10209742247516,"lng":42.788556119088646,"avgVisitMinutes":89,"estimatedCostEur":22,"score":3.1653439094119746},{"id":"damad_7601","citySlug":"damad","name":"Playa Central","category":"playa","lat":17.102234393001055,"lng":42.787765006768915,"avgVisitMinutes":24,"estimatedCostEur":13,"score":4.110545540142102},{"id":"damad_8629","citySlug":"damad","name":"Punto Panorámico","category":"mirador","lat":17.099224374760112,"lng":42.78610257965013,"avgVisitMinutes":43,"estimatedCostEur":17,"score":3.497018323563249},{"id":"damad_2610","citySlug":"damad","name":"Museo Cultural de Ḑamad","category":"cultura","lat":17.101860765514882,"lng":42.780844397132924,"avgVisitMinutes":78,"estimatedCostEur":7,"score":4.508483410542957},{"id":"damad_2365","citySlug":"damad","name":"Playa Norte","category":"playa","lat":17.09832494983108,"lng":42.790027158234714,"avgVisitMinutes":88,"estimatedCostEur":24,"score":0.7141275657803505},{"id":"damad_2319","citySlug":"damad","name":"Playa Norte","category":"playa","lat":17.111925194331963,"lng":42.77662863339152,"avgVisitMinutes":89,"estimatedCostEur":4,"score":0.9112362856106891},{"id":"damad_2477","citySlug":"damad","name":"Iglesia de Ḑamad","category":"historia","lat":17.09492346187532,"lng":42.78152197882822,"avgVisitMinutes":42,"estimatedCostEur":11,"score":2.2882248125172504},{"id":"damad_8254","citySlug":"damad","name":"Zona Comercial","category":"ocio","lat":17.097581238787242,"lng":42.784833729998915,"avgVisitMinutes":42,"estimatedCostEur":12,"score":1.4059477656699333},{"id":"damad_3890","citySlug":"damad","name":"Murallas de Ḑamad","category":"historia","lat":17.109358547662392,"lng":42.788205804660016,"avgVisitMinutes":64,"estimatedCostEur":6,"score":3.126220771000279},{"id":"damad_9693","citySlug":"damad","name":"Parque Central","category":"ocio","lat":17.097668780719307,"lng":42.77309210003484,"avgVisitMinutes":76,"estimatedCostEur":12,"score":0.8532515906873674},{"id":"damad_7168","citySlug":"damad","name":"Playa Norte","category":"playa","lat":17.09491349508461,"lng":42.77178214329953,"avgVisitMinutes":85,"estimatedCostEur":16,"score":4.835058848491505},{"id":"buraydah_8330","citySlug":"buraydah","name":"Mirador de Buraydah","category":"mirador","lat":26.32975021935861,"lng":43.984512819964046,"avgVisitMinutes":59,"estimatedCostEur":15,"score":4.780455575750508},{"id":"buraydah_5252","citySlug":"buraydah","name":"Mercado Gastronómico","category":"gastronomia","lat":26.32346226645492,"lng":43.97009582345663,"avgVisitMinutes":36,"estimatedCostEur":3,"score":4.061864034068595},{"id":"buraydah_3805","citySlug":"buraydah","name":"Playa Sur","category":"playa","lat":26.329803118051274,"lng":43.98187852502668,"avgVisitMinutes":87,"estimatedCostEur":5,"score":1.7484220275275306},{"id":"buraydah_6779","citySlug":"buraydah","name":"Galería de Arte","category":"cultura","lat":26.31966335080504,"lng":43.98433013760524,"avgVisitMinutes":24,"estimatedCostEur":25,"score":2.4687078205338704},{"id":"buraydah_2936","citySlug":"buraydah","name":"Museo Local de Buraydah","category":"historia","lat":26.3320655630016,"lng":43.97620435437095,"avgVisitMinutes":49,"estimatedCostEur":0,"score":4.076956610007935},{"id":"buraydah_7824","citySlug":"buraydah","name":"Playa Central","category":"playa","lat":26.32223952795685,"lng":43.97244212044944,"avgVisitMinutes":67,"estimatedCostEur":13,"score":2.351287941777888},{"id":"abqaiq_9492","citySlug":"abqaiq","name":"Playa Central","category":"playa","lat":25.927432957977732,"lng":49.67356821667355,"avgVisitMinutes":58,"estimatedCostEur":24,"score":3.45571971341656},{"id":"abqaiq_3249","citySlug":"abqaiq","name":"Ruta de Tapas","category":"gastronomia","lat":25.939775026675843,"lng":49.662582782816806,"avgVisitMinutes":60,"estimatedCostEur":21,"score":2.380537121888863},{"id":"abqaiq_3201","citySlug":"abqaiq","name":"Museo Local de Abqaiq","category":"historia","lat":25.943899397487076,"lng":49.662242246261,"avgVisitMinutes":67,"estimatedCostEur":18,"score":2.1961202517783938},{"id":"abqaiq_4123","citySlug":"abqaiq","name":"Mercado Gastronómico","category":"gastronomia","lat":25.940136454139488,"lng":49.667298032714285,"avgVisitMinutes":78,"estimatedCostEur":24,"score":1.1626330916567356},{"id":"abqaiq_4860","citySlug":"abqaiq","name":"Mirador de Abqaiq","category":"mirador","lat":25.92726057689019,"lng":49.67857901137155,"avgVisitMinutes":80,"estimatedCostEur":8,"score":4.107470054495575},{"id":"abqaiq_1609","citySlug":"abqaiq","name":"Mirador de Abqaiq","category":"mirador","lat":25.92557863471981,"lng":49.673377956028446,"avgVisitMinutes":73,"estimatedCostEur":1,"score":0.741950941205312},{"id":"abqaiq_6303","citySlug":"abqaiq","name":"Teatro Municipal","category":"cultura","lat":25.93580759084581,"lng":49.67425700194679,"avgVisitMinutes":37,"estimatedCostEur":3,"score":2.571887611909078},{"id":"baqa_2387","citySlug":"baqa","name":"Mirador de Baq‘ā’","category":"mirador","lat":27.906539865217535,"lng":42.384905555265945,"avgVisitMinutes":41,"estimatedCostEur":6,"score":2.265587595339582},{"id":"baqa_9535","citySlug":"baqa","name":"Zona Comercial","category":"ocio","lat":27.912016016897507,"lng":42.3936988337754,"avgVisitMinutes":31,"estimatedCostEur":8,"score":3.413544545576986},