{"country":"SD","pois":[{"id":"dongola_7499","citySlug":"dongola","name":"Mercado Gastronómico","category":"gastronomia","lat":19.177279970145335,"lng":30.474821053610277,"avgVisitMinutes":84,"estimatedCostEur":24,"score":1.573032974760151},{"id":"dongola_3868","citySlug":"dongola","name":"Playa Sur","category":"playa","lat":19.17602160771495,"lng":30.475302097648278,"avgVisitMinutes":49,"estimatedCostEur":13,"score":1.7750505373921466},{"id":"dongola_3757","citySlug":"dongola","name":"Mercado Gastronómico","category":"gastronomia","lat":19.189608815334,"lng":30.477551706008715,"avgVisitMinutes":57,"estimatedCostEur":2,"score":1.5157963178095155},{"id":"dongola_8917","citySlug":"dongola","name":"Parque Central","category":"ocio","lat":19.174941059087736,"lng":30.470830201112168,"avgVisitMinutes":47,"estimatedCostEur":0,"score":2.4838584295995645},{"id":"dongola_7838","citySlug":"dongola","name":"Ruta de Tapas","category":"gastronomia","lat":19.17795615883453,"lng":30.48380625125812,"avgVisitMinutes":53,"estimatedCostEur":10,"score":1.7027127925056227},{"id":"dongola_3812","citySlug":"dongola","name":"Mercado Gastronómico","category":"gastronomia","lat":19.183922209060626,"lng":30.47003323235143,"avgVisitMinutes":51,"estimatedCostEur":16,"score":4.543054200061017},{"id":"dongola_7553","citySlug":"dongola","name":"Iglesia de Dongola","category":"historia","lat":19.182023246119368,"lng":30.469125762122847,"avgVisitMinutes":43,"estimatedCostEur":13,"score":2.384733055520968},{"id":"dongola_2348","citySlug":"dongola","name":"Punto Panorámico","category":"mirador","lat":19.178297974946737,"lng":30.469377528815617,"avgVisitMinutes":30,"estimatedCostEur":5,"score":1.9133985107433624},{"id":"dongola_5608","citySlug":"dongola","name":"Paseo Principal","category":"ocio","lat":19.177783958125815,"lng":30.475538536455954,"avgVisitMinutes":38,"estimatedCostEur":6,"score":0.8244040077454204},{"id":"dongola_7980","citySlug":"dongola","name":"Castillo de Dongola","category":"historia","lat":19.18632346581455,"lng":30.474041848724745,"avgVisitMinutes":49,"estimatedCostEur":19,"score":4.425441603703268},{"id":"dongola_2773","citySlug":"dongola","name":"Teatro Municipal","category":"cultura","lat":19.190871392137048,"lng":30.48454957043871,"avgVisitMinutes":49,"estimatedCostEur":6,"score":2.605123167118351},{"id":"dongola_9248","citySlug":"dongola","name":"Murallas de Dongola","category":"historia","lat":19.189531782484917,"lng":30.467391805556467,"avgVisitMinutes":56,"estimatedCostEur":20,"score":3.694709860705201},{"id":"zalinjay_9050","citySlug":"zalinjay","name":"Mercado Gastronómico","category":"gastronomia","lat":12.905306601234846,"lng":23.462702914771,"avgVisitMinutes":35,"estimatedCostEur":16,"score":1.696759976095132},{"id":"zalinjay_6709","citySlug":"zalinjay","name":"Castillo de Zalinjay","category":"historia","lat":12.905750241782894,"lng":23.480411172850726,"avgVisitMinutes":40,"estimatedCostEur":2,"score":3.8992733418709236},{"id":"zalinjay_6547","citySlug":"zalinjay","name":"Mirador de Zalinjay","category":"mirador","lat":12.907118017553504,"lng":23.474933073909884,"avgVisitMinutes":26,"estimatedCostEur":14,"score":2.069588459821906},{"id":"zalinjay_6337","citySlug":"zalinjay","name":"Vista Alta de Zalinjay","category":"mirador","lat":12.917049400086647,"lng":23.46990991011906,"avgVisitMinutes":86,"estimatedCostEur":14,"score":1.1230674568259014},{"id":"zalinjay_2645","citySlug":"zalinjay","name":"Restaurante Típico de Zalinjay","category":"gastronomia","lat":12.90860362729693,"lng":23.471025084464827,"avgVisitMinutes":60,"estimatedCostEur":11,"score":2.281076549663658},{"id":"zalinjay_4511","citySlug":"zalinjay","name":"Paseo Principal","category":"ocio","lat":12.913320220983021,"lng":23.46204177839186,"avgVisitMinutes":72,"estimatedCostEur":22,"score":4.5245721803402255},{"id":"wagar_1610","citySlug":"wagar","name":"Zona Comercial","category":"ocio","lat":16.149313158058174,"lng":36.20034979347884,"avgVisitMinutes":53,"estimatedCostEur":12,"score":1.7647963741096502},{"id":"wagar_4608","citySlug":"wagar","name":"Playa Norte","category":"playa","lat":16.153717344564498,"lng":36.20942199833211,"avgVisitMinutes":32,"estimatedCostEur":8,"score":3.9745484269174605},{"id":"wagar_3380","citySlug":"wagar","name":"Ruta de Tapas","category":"gastronomia","lat":16.15258847314214,"lng":36.193938720288266,"avgVisitMinutes":73,"estimatedCostEur":25,"score":3.5200497968320468},{"id":"wagar_4741","citySlug":"wagar","name":"Playa Norte","category":"playa","lat":16.145320952323875,"lng":36.196209673941254,"avgVisitMinutes":22,"estimatedCostEur":5,"score":3.4303431232925607},{"id":"wagar_9622","citySlug":"wagar","name":"Centro de Arte de Wagar","category":"cultura","lat":16.16070010622846,"lng":36.19697442607286,"avgVisitMinutes":61,"estimatedCostEur":25,"score":4.690995168088473},{"id":"wagar_8626","citySlug":"wagar","name":"Playa Sur","category":"playa","lat":16.15559106274048,"lng":36.205854761459776,"avgVisitMinutes":61,"estimatedCostEur":2,"score":4.661424047621132},{"id":"wagar_2660","citySlug":"wagar","name":"Murallas de Wagar","category":"historia","lat":16.153258293052986,"lng":36.202333786025726,"avgVisitMinutes":75,"estimatedCostEur":1,"score":1.463649513455854},{"id":"wagar_8071","citySlug":"wagar","name":"Playa Norte","category":"playa","lat":16.145327292028668,"lng":36.199565618954736,"avgVisitMinutes":30,"estimatedCostEur":14,"score":1.8067517226076946},{"id":"wagar_8042","citySlug":"wagar","name":"Vista Alta de Wagar","category":"mirador","lat":16.149764215893263,"lng":36.203892974712986,"avgVisitMinutes":73,"estimatedCostEur":22,"score":0.7832149999309466},{"id":"wad-rawah_1118","citySlug":"wad-rawah","name":"Playa Sur","category":"playa","lat":15.156020910778807,"lng":33.14861558781806,"avgVisitMinutes":67,"estimatedCostEur":7,"score":1.2832869366373745},{"id":"wad-rawah_9567","citySlug":"wad-rawah","name":"Vista Alta de Wad Rāwah","category":"mirador","lat":15.160595965915048,"lng":33.14286091210572,"avgVisitMinutes":82,"estimatedCostEur":25,"score":1.0045488281959678},{"id":"wad-rawah_3480","citySlug":"wad-rawah","name":"Ruta de Tapas","category":"gastronomia","lat":15.160751324213754,"lng":33.14816036585216,"avgVisitMinutes":75,"estimatedCostEur":20,"score":4.736187647477039},{"id":"wad-rawah_2273","citySlug":"wad-rawah","name":"Parque Central","category":"ocio","lat":15.165534835572,"lng":33.13497186828255,"avgVisitMinutes":22,"estimatedCostEur":22,"score":4.304655151187774},{"id":"wad-rawah_3506","citySlug":"wad-rawah","name":"Punto Panorámico","category":"mirador","lat":15.153941643116212,"lng":33.141774463303605,"avgVisitMinutes":22,"estimatedCostEur":2,"score":4.342229751403519},{"id":"wad-rawah_8667","citySlug":"wad-rawah","name":"Paseo Principal","category":"ocio","lat":15.1543627699871,"lng":33.14242590332488,"avgVisitMinutes":89,"estimatedCostEur":19,"score":4.583234028886889},{"id":"wad-rawah_1478","citySlug":"wad-rawah","name":"Galería de Arte","category":"cultura","lat":15.156169276658416,"lng":33.14826411535453,"avgVisitMinutes":66,"estimatedCostEur":9,"score":2.625202574886287},{"id":"wad-rawah_3715","citySlug":"wad-rawah","name":"Mercado Gastronómico","category":"gastronomia","lat":15.15141523055754,"lng":33.13087375943553,"avgVisitMinutes":79,"estimatedCostEur":1,"score":0.9251811729578225},{"id":"wad-rawah_9855","citySlug":"wad-rawah","name":"Iglesia de Wad Rāwah","category":"historia","lat":15.151116139426538,"lng":33.142662329636515,"avgVisitMinutes":26,"estimatedCostEur":15,"score":1.510424896922878},{"id":"wad-rawah_6771","citySlug":"wad-rawah","name":"Ruta de Tapas","category":"gastronomia","lat":15.154484250959893,"lng":33.13397867620427,"avgVisitMinutes":50,"estimatedCostEur":3,"score":0.5747119694790261},{"id":"wad-rawah_9098","citySlug":"wad-rawah","name":"Murallas de Wad Rāwah","category":"historia","lat":15.166715386110557,"lng":33.13000287475624,"avgVisitMinutes":35,"estimatedCostEur":5,"score":4.650732842852523},{"id":"wad-medani_8501","citySlug":"wad-medani","name":"Centro de Arte de Wad Medani","category":"cultura","lat":14.40373749035878,"lng":33.51944183163959,"avgVisitMinutes":84,"estimatedCostEur":25,"score":4.212053098896534},{"id":"wad-medani_4704","citySlug":"wad-medani","name":"Galería de Arte","category":"cultura","lat":14.400655621907623,"lng":33.524600967689054,"avgVisitMinutes":50,"estimatedCostEur":14,"score":1.0678766675303735},{"id":"wad-medani_4830","citySlug":"wad-medani","name":"Castillo de Wad Medani","category":"historia","lat":14.405478187074182,"lng":33.5183562103879,"avgVisitMinutes":68,"estimatedCostEur":6,"score":2.8148248397665974},{"id":"wad-medani_3757","citySlug":"wad-medani","name":"Zona Comercial","category":"ocio","lat":14.398992031111652,"lng":33.52184797432007,"avgVisitMinutes":23,"estimatedCostEur":25,"score":4.439322982423988},{"id":"wad-medani_8903","citySlug":"wad-medani","name":"Vista Alta de Wad Medani","category":"mirador","lat":14.397767442064547,"lng":33.52578036158888,"avgVisitMinutes":31,"estimatedCostEur":0,"score":3.1788503153613883},{"id":"wad-medani_2677","citySlug":"wad-medani","name":"Punto Panorámico","category":"mirador","lat":14.396270061969544,"lng":33.51164257947381,"avgVisitMinutes":34,"estimatedCostEur":25,"score":1.2087902903855408},{"id":"wad-medani_5971","citySlug":"wad-medani","name":"Mercado Gastronómico","category":"gastronomia","lat":14.397177084720612,"lng":33.51966093292502,"avgVisitMinutes":27,"estimatedCostEur":15,"score":4.429770449033943},{"id":"wad-medani_6083","citySlug":"wad-medani","name":"Playa Central","category":"playa","lat":14.396026500427999,"lng":33.512205741339734,"avgVisitMinutes":77,"estimatedCostEur":3,"score":1.9544701926045756},{"id":"wadi-halfa_6735","citySlug":"wadi-halfa","name":"Mercado Gastronómico","category":"gastronomia","lat":21.79121160160096,"lng":31.380864430000383,"avgVisitMinutes":64,"estimatedCostEur":7,"score":3.8612403346117015},{"id":"wadi-halfa_2579","citySlug":"wadi-halfa","name":"Ruta de Tapas","category":"gastronomia","lat":21.801570094108502,"lng":31.361604083698808,"avgVisitMinutes":71,"estimatedCostEur":15,"score":1.9378971971102192},{"id":"wadi-halfa_5569","citySlug":"wadi-halfa","name":"Museo Local de Wadi Halfa","category":"historia","lat":21.79893255582707,"lng":31.36132066273845,"avgVisitMinutes":29,"estimatedCostEur":13,"score":3.7753086256568147},{"id":"wadi-halfa_9127","citySlug":"wadi-halfa","name":"Playa Norte","category":"playa","lat":21.79530283117392,"lng":31.37648068610337,"avgVisitMinutes":26,"estimatedCostEur":12,"score":0.7172862061101479},{"id":"wadi-halfa_7045","citySlug":"wadi-halfa","name":"Playa Central","category":"playa","lat":21.790020826427572,"lng":31.363064113480245,"avgVisitMinutes":66,"estimatedCostEur":2,"score":3.7962465895758513},{"id":"wad-az-zaki_1382","citySlug":"wad-az-zaki","name":"Punto Panorámico","category":"mirador","lat":14.458900726190524,"lng":32.208114255760925,"avgVisitMinutes":76,"estimatedCostEur":8,"score":1.3770968604976175},{"id":"wad-az-zaki_4381","citySlug":"wad-az-zaki","name":"Vista Alta de Wad az Zāki","category":"mirador","lat":14.464668350888088,"lng":32.21614510060229,"avgVisitMinutes":54,"estimatedCostEur":10,"score":0.894916830133976},{"id":"wad-az-zaki_1513","citySlug":"wad-az-zaki","name":"Punto Panorámico","category":"mirador","lat":14.453114148538893,"lng":32.21243935986641,"avgVisitMinutes":28,"estimatedCostEur":6,"score":1.4465243459385508},{"id":"wad-az-zaki_1704","citySlug":"wad-az-zaki","name":"Playa Norte","category":"playa","lat":14.459093870890507,"lng":32.196663015011936,"avgVisitMinutes":41,"estimatedCostEur":3,"score":3.842914172982403},{"id":"wad-az-zaki_2421","citySlug":"wad-az-zaki","name":"Murallas de Wad az Zāki","category":"historia","lat":14.468643712518729,"lng":32.20004601854225,"avgVisitMinutes":23,"estimatedCostEur":8,"score":4.711750971311007},{"id":"wad-az-zaki_2059","citySlug":"wad-az-zaki","name":"Restaurante Típico de Wad az Zāki","category":"gastronomia","lat":14.467117112780969,"lng":32.20010636505112,"avgVisitMinutes":55,"estimatedCostEur":9,"score":1.7693874186207887},{"id":"umm-shawkah_5077","citySlug":"umm-shawkah","name":"Ruta de Tapas","category":"gastronomia","lat":13.320789729954068,"lng":33.77085417751396,"avgVisitMinutes":44,"estimatedCostEur":13,"score":4.294748035687563},{"id":"umm-shawkah_7303","citySlug":"umm-shawkah","name":"Vista Alta de Umm Shawkah","category":"mirador","lat":13.309832797416398,"lng":33.76256031141549,"avgVisitMinutes":24,"estimatedCostEur":12,"score":4.0487418860075985},{"id":"umm-shawkah_2954","citySlug":"umm-shawkah","name":"Ruta de Tapas","category":"gastronomia","lat":13.30906152740651,"lng":33.756832306393804,"avgVisitMinutes":30,"estimatedCostEur":21,"score":0.5810779695818655},{"id":"umm-shawkah_7091","citySlug":"umm-shawkah","name":"Playa Sur","category":"playa","lat":13.32133123809453,"lng":33.76095641319424,"avgVisitMinutes":64,"estimatedCostEur":13,"score":4.564643812376891},{"id":"umm-shawkah_7606","citySlug":"umm-shawkah","name":"Playa Norte","category":"playa","lat":13.319374255815433,"lng":33.769479052047075,"avgVisitMinutes":25,"estimatedCostEur":13,"score":3.0435184539945808},{"id":"umm-ruwaba_9334","citySlug":"umm-ruwaba","name":"Playa Central","category":"playa","lat":12.897082674486004,"lng":31.216491533697805,"avgVisitMinutes":48,"estimatedCostEur":2,"score":3.903349691445324},{"id":"umm-ruwaba_7060","citySlug":"umm-ruwaba","name":"Paseo Principal","category":"ocio","lat":12.913045856052332,"lng":31.21416258431388,"avgVisitMinutes":26,"estimatedCostEur":8,"score":2.4071603985126933},{"id":"umm-ruwaba_4514","citySlug":"umm-ruwaba","name":"Playa Norte","category":"playa","lat":12.900258634129909,"lng":31.22297447642069,"avgVisitMinutes":89,"estimatedCostEur":5,"score":1.8958264438630672},{"id":"umm-ruwaba_9445","citySlug":"umm-ruwaba","name":"Zona Comercial","category":"ocio","lat":12.903865348622421,"lng":31.215845459890527,"avgVisitMinutes":39,"estimatedCostEur":25,"score":1.5996432590084577},{"id":"umm-ruwaba_2394","citySlug":"umm-ruwaba","name":"Paseo Principal","category":"ocio","lat":12.906380357680058,"lng":31.224643631561655,"avgVisitMinutes":72,"estimatedCostEur":21,"score":1.2316696923464505},{"id":"umm-ruwaba_8097","citySlug":"umm-ruwaba","name":"Mirador de Umm Ruwaba","category":"mirador","lat":12.90695691880031,"lng":31.212227179087286,"avgVisitMinutes":29,"estimatedCostEur":10,"score":0.8987219860198243},{"id":"umm-ruwaba_5270","citySlug":"umm-ruwaba","name":"Vista Alta de Umm Ruwaba","category":"mirador","lat":12.913177585995394,"lng":31.213283473436892,"avgVisitMinutes":81,"estimatedCostEur":8,"score":1.5003523326463593},{"id":"umm-ruwaba_1378","citySlug":"umm-ruwaba","name":"Mirador de Umm Ruwaba","category":"mirador","lat":12.90638601629957,"lng":31.213425831962027,"avgVisitMinutes":53,"estimatedCostEur":23,"score":4.359295958934856},{"id":"umm-kaddadah_3500","citySlug":"umm-kaddadah","name":"Paseo Principal","category":"ocio","lat":13.596170748923345,"lng":26.688750297134984,"avgVisitMinutes":34,"estimatedCostEur":13,"score":0.6195475171322604},{"id":"umm-kaddadah_4009","citySlug":"umm-kaddadah","name":"Playa Sur","category":"playa","lat":13.607523960965384,"lng":26.686980929491355,"avgVisitMinutes":73,"estimatedCostEur":18,"score":2.7441966562545783},{"id":"umm-kaddadah_5303","citySlug":"umm-kaddadah","name":"Centro de Arte de Umm Kaddadah","category":"cultura","lat":13.604484348904798,"lng":26.678178677705073,"avgVisitMinutes":84,"estimatedCostEur":4,"score":2.411947966618511},{"id":"umm-kaddadah_5480","citySlug":"umm-kaddadah","name":"Galería de Arte","category":"cultura","lat":13.597955047013961,"lng":26.686947035187455,"avgVisitMinutes":41,"estimatedCostEur":13,"score":0.6791220488529752},{"id":"umm-kaddadah_8856","citySlug":"umm-kaddadah","name":"Mirador de Umm Kaddadah","category":"mirador","lat":13.607661247681948,"lng":26.681273274093662,"avgVisitMinutes":52,"estimatedCostEur":7,"score":1.932112928614243},{"id":"umm-kaddadah_9523","citySlug":"umm-kaddadah","name":"Centro Histórico","category":"historia","lat":13.608692680403424,"lng":26.67902089916741,"avgVisitMinutes":37,"estimatedCostEur":3,"score":4.3350582103923685},{"id":"umm-kaddadah_4962","citySlug":"umm-kaddadah","name":"Punto Panorámico","category":"mirador","lat":13.610545223453148,"lng":26.690722909162815,"avgVisitMinutes":55,"estimatedCostEur":22,"score":1.116046505255323},{"id":"umm-kaddadah_3265","citySlug":"umm-kaddadah","name":"Restaurante Típico de Umm Kaddadah","category":"gastronomia","lat":13.609403315921915,"lng":26.69184033409077,"avgVisitMinutes":50,"estimatedCostEur":22,"score":3.8736666538237308},{"id":"umm-kaddadah_8361","citySlug":"umm-kaddadah","name":"Vista Alta de Umm Kaddadah","category":"mirador","lat":13.59602617351435,"lng":26.684680188164545,"avgVisitMinutes":71,"estimatedCostEur":24,"score":0.7492940988453001},{"id":"umm-kaddadah_8054","citySlug":"umm-kaddadah","name":"Ruta de Tapas","category":"gastronomia","lat":13.597073089872167,"lng":26.68320179845903,"avgVisitMinutes":84,"estimatedCostEur":25,"score":0.6200807492969513},{"id":"umm-kaddadah_9610","citySlug":"umm-kaddadah","name":"Playa Sur","category":"playa","lat":13.60462552906042,"lng":26.682688974035173,"avgVisitMinutes":60,"estimatedCostEur":4,"score":0.5030400379531341},{"id":"um-jar-al-gharbiyya_7496","citySlug":"um-jar-al-gharbiyya","name":"Mirador de Um Jar Al Gharbiyya","category":"mirador","lat":13.791353863446512,"lng":32.40173463999884,"avgVisitMinutes":45,"estimatedCostEur":6,"score":2.64560567321289},{"id":"um-jar-al-gharbiyya_2280","citySlug":"um-jar-al-gharbiyya","name":"Paseo Principal","category":"ocio","lat":13.803394858081273,"lng":32.40002912874718,"avgVisitMinutes":62,"estimatedCostEur":18,"score":1.4990706833672611},{"id":"um-jar-al-gharbiyya_4734","citySlug":"um-jar-al-gharbiyya","name":"Punto Panorámico","category":"mirador","lat":13.801450113896852,"lng":32.399098363439094,"avgVisitMinutes":89,"estimatedCostEur":2,"score":2.926150658184485},{"id":"um-jar-al-gharbiyya_9230","citySlug":"um-jar-al-gharbiyya","name":"Iglesia de Um Jar Al Gharbiyya","category":"historia","lat":13.798195109587338,"lng":32.41327755909344,"avgVisitMinutes":28,"estimatedCostEur":20,"score":2.919130617177202},{"id":"um-jar-al-gharbiyya_7404","citySlug":"um-jar-al-gharbiyya","name":"Zona Comercial","category":"ocio","lat":13.792525099874487,"lng":32.413395062430205,"avgVisitMinutes":20,"estimatedCostEur":7,"score":4.769354890390118},{"id":"um-jar-al-gharbiyya_4383","citySlug":"um-jar-al-gharbiyya","name":"Vista Alta de Um Jar Al Gharbiyya","category":"mirador","lat":13.809779262970714,"lng":32.412556227818946,"avgVisitMinutes":61,"estimatedCostEur":14,"score":0.7306580346572353},{"id":"um-jar-al-gharbiyya_6698","citySlug":"um-jar-al-gharbiyya","name":"Murallas de Um Jar Al Gharbiyya","category":"historia","lat":13.796269567444911,"lng":32.41255419321504,"avgVisitMinutes":51,"estimatedCostEur":20,"score":3.6049901805649474},{"id":"um-jar-al-gharbiyya_9764","citySlug":"um-jar-al-gharbiyya","name":"Playa Sur","category":"playa","lat":13.809702168730034,"lng":32.41484016219614,"avgVisitMinutes":81,"estimatedCostEur":24,"score":4.065247686856095},{"id":"um-jar-al-gharbiyya_1676","citySlug":"um-jar-al-gharbiyya","name":"Parque Central","category":"ocio","lat":13.81086848999665,"lng":32.40081689045294,"avgVisitMinutes":49,"estimatedCostEur":4,"score":2.1556948495898642},{"id":"omdurman_5521","citySlug":"omdurman","name":"Centro de Arte de Omdurman","category":"cultura","lat":15.642768630425236,"lng":32.48660392033494,"avgVisitMinutes":25,"estimatedCostEur":0,"score":2.1679497199243967},{"id":"omdurman_3229","citySlug":"omdurman","name":"Centro Histórico","category":"historia","lat":15.649881802097825,"lng":32.47738559005634,"avgVisitMinutes":53,"estimatedCostEur":18,"score":3.775750837225633},{"id":"omdurman_3962","citySlug":"omdurman","name":"Parque Central","category":"ocio","lat":15.643118855257718,"lng":32.47463449562986,"avgVisitMinutes":77,"estimatedCostEur":3,"score":2.091144262070247},{"id":"omdurman_4115","citySlug":"omdurman","name":"Playa Central","category":"playa","lat":15.635226720042004,"lng":32.48431678115361,"avgVisitMinutes":51,"estimatedCostEur":11,"score":2.6111518777827833},{"id":"omdurman_9663","citySlug":"omdurman","name":"Iglesia de Omdurman","category":"historia","lat":15.636049144750753,"lng":32.47509632906911,"avgVisitMinutes":75,"estimatedCostEur":4,"score":2.4912175064611155},{"id":"omdurman_2981","citySlug":"omdurman","name":"Parque Central","category":"ocio","lat":15.636807264789477,"lng":32.478608596939104,"avgVisitMinutes":68,"estimatedCostEur":22,"score":1.3321534219935773},{"id":"omdurman_4847","citySlug":"omdurman","name":"Restaurante Típico de Omdurman","category":"gastronomia","lat":15.637993801354133,"lng":32.48168583967134,"avgVisitMinutes":83,"estimatedCostEur":3,"score":0.9936745356243433},{"id":"omdurman_6924","citySlug":"omdurman","name":"Teatro Municipal","category":"cultura","lat":15.644741718836594,"lng":32.4794521583627,"avgVisitMinutes":87,"estimatedCostEur":5,"score":3.840602112929868},{"id":"omdurman_2055","citySlug":"omdurman","name":"Paseo Principal","category":"ocio","lat":15.653925080984395,"lng":32.47466229221808,"avgVisitMinutes":37,"estimatedCostEur":12,"score":3.817156941067552},{"id":"omdurman_5433","citySlug":"omdurman","name":"Ruta de Tapas","category":"gastronomia","lat":15.637955545896153,"lng":32.47790699272226,"avgVisitMinutes":22,"estimatedCostEur":1,"score":2.9490342571183104},{"id":"omdurman_4801","citySlug":"omdurman","name":"Museo Cultural de Omdurman","category":"cultura","lat":15.640482904142328,"lng":32.47783361016969,"avgVisitMinutes":56,"estimatedCostEur":18,"score":4.143165084546119},{"id":"umm-dafog_2588","citySlug":"umm-dafog","name":"Playa Central","category":"playa","lat":10.471564740881545,"lng":23.314451607281274,"avgVisitMinutes":71,"estimatedCostEur":18,"score":3.475889162790124},{"id":"umm-dafog_9192","citySlug":"umm-dafog","name":"Playa Central","category":"playa","lat":10.461358803420401,"lng":23.31205875787696,"avgVisitMinutes":35,"estimatedCostEur":4,"score":2.245962513811972},{"id":"umm-dafog_1576","citySlug":"umm-dafog","name":"Playa Norte","category":"playa","lat":10.462304050591547,"lng":23.312948583994416,"avgVisitMinutes":88,"estimatedCostEur":23,"score":0.617482695996121},{"id":"umm-dafog_2357","citySlug":"umm-dafog","name":"Centro Histórico","category":"historia","lat":10.46545985849184,"lng":23.310275540196987,"avgVisitMinutes":62,"estimatedCostEur":14,"score":0.7446060724723627},{"id":"umm-dafog_3337","citySlug":"umm-dafog","name":"Murallas de Umm Dafog","category":"historia","lat":10.468358246360786,"lng":23.323337485053322,"avgVisitMinutes":70,"estimatedCostEur":24,"score":0.7966845683319743},{"id":"umm-dafog_8152","citySlug":"umm-dafog","name":"Vista Alta de Umm Dafog","category":"mirador","lat":10.46525018895747,"lng":23.325941282042358,"avgVisitMinutes":72,"estimatedCostEur":16,"score":3.208489599722126},{"id":"umm-dafog_5266","citySlug":"umm-dafog","name":"Centro de Arte de Umm Dafog","category":"cultura","lat":10.470193082811775,"lng":23.31771962833617,"avgVisitMinutes":59,"estimatedCostEur":20,"score":1.5824023371328535},{"id":"tullus_4635","citySlug":"tullus","name":"Vista Alta de Tullus","category":"mirador","lat":11.083204904304354,"lng":24.538493265949203,"avgVisitMinutes":28,"estimatedCostEur":25,"score":4.688589570191838},{"id":"tullus_5383","citySlug":"tullus","name":"Teatro Municipal","category":"cultura","lat":11.100111686470102,"lng":24.532767566261644,"avgVisitMinutes":73,"estimatedCostEur":24,"score":3.3156287662026815},{"id":"tullus_7407","citySlug":"tullus","name":"Centro Histórico","category":"historia","lat":11.09457976197194,"lng":24.53630196806062,"avgVisitMinutes":21,"estimatedCostEur":22,"score":1.8511990795569233},{"id":"tullus_4428","citySlug":"tullus","name":"Centro Histórico","category":"historia","lat":11.09500269510296,"lng":24.534464285803544,"avgVisitMinutes":81,"estimatedCostEur":15,"score":4.327118987403466},{"id":"tullus_7139","citySlug":"tullus","name":"Museo Cultural de Tullus","category":"cultura","lat":11.091865815442786,"lng":24.52218012504701,"avgVisitMinutes":47,"estimatedCostEur":18,"score":1.890059856666972},{"id":"tokar_2300","citySlug":"tokar","name":"Teatro Municipal","category":"cultura","lat":18.41882367655665,"lng":37.73438611531647,"avgVisitMinutes":56,"estimatedCostEur":15,"score":1.7110077557080632},{"id":"tokar_1696","citySlug":"tokar","name":"Zona Comercial","category":"ocio","lat":18.41890490987495,"lng":37.735500629189936,"avgVisitMinutes":74,"estimatedCostEur":10,"score":2.0195841889476576},{"id":"tokar_2349","citySlug":"tokar","name":"Mirador de Tokār","category":"mirador","lat":18.423512294678773,"lng":37.730778443384466,"avgVisitMinutes":37,"estimatedCostEur":3,"score":1.233924765546258},{"id":"tokar_3739","citySlug":"tokar","name":"Mercado Gastronómico","category":"gastronomia","lat":18.43205901286249,"lng":37.733950902102734,"avgVisitMinutes":87,"estimatedCostEur":4,"score":4.153545541909123},{"id":"tokar_7066","citySlug":"tokar","name":"Playa Norte","category":"playa","lat":18.41867650265129,"lng":37.736903608000326,"avgVisitMinutes":82,"estimatedCostEur":4,"score":1.0593814235460077},{"id":"tokar_1975","citySlug":"tokar","name":"Murallas de Tokār","category":"historia","lat":18.43098316278075,"lng":37.73221943655878,"avgVisitMinutes":67,"estimatedCostEur":5,"score":2.9717936993224394},{"id":"tokar_6165","citySlug":"tokar","name":"Museo Cultural de Tokār","category":"cultura","lat":18.421632538198022,"lng":37.73555710528659,"avgVisitMinutes":90,"estimatedCostEur":7,"score":1.9647640430696207},{"id":"tokar_7548","citySlug":"tokar","name":"Museo Cultural de Tokār","category":"cultura","lat":18.43353890601942,"lng":37.732733203222644,"avgVisitMinutes":49,"estimatedCostEur":14,"score":1.597041006318799},{"id":"tokar_1681","citySlug":"tokar","name":"Centro Histórico","category":"historia","lat":18.434895924628588,"lng":37.73750025729572,"avgVisitMinutes":82,"estimatedCostEur":14,"score":3.387309852579319},{"id":"tokar_7412","citySlug":"tokar","name":"Galería de Arte","category":"cultura","lat":18.43273645343573,"lng":37.73183547875202,"avgVisitMinutes":62,"estimatedCostEur":25,"score":0.8621323860974983},{"id":"tokar_2557","citySlug":"tokar","name":"Teatro Municipal","category":"cultura","lat":18.427254984699932,"lng":37.731124621624126,"avgVisitMinutes":21,"estimatedCostEur":9,"score":4.433251980166435},{"id":"tandalti_2268","citySlug":"tandalti","name":"Zona Comercial","category":"ocio","lat":13.025867083511976,"lng":31.875722494987635,"avgVisitMinutes":37,"estimatedCostEur":12,"score":0.7227942580174898},{"id":"tandalti_3152","citySlug":"tandalti","name":"Zona Comercial","category":"ocio","lat":13.013898734419474,"lng":31.86101885769662,"avgVisitMinutes":86,"estimatedCostEur":9,"score":2.790841256851656},{"id":"tandalti_9308","citySlug":"tandalti","name":"Zona Comercial","category":"ocio","lat":13.01478937984625,"lng":31.864176120914692,"avgVisitMinutes":58,"estimatedCostEur":3,"score":1.3747692982395385},{"id":"tandalti_2222","citySlug":"tandalti","name":"Restaurante Típico de Tandaltī","category":"gastronomia","lat":13.006848123069389,"lng":31.87153796853954,"avgVisitMinutes":67,"estimatedCostEur":18,"score":2.197620206185176},{"id":"tandalti_1100","citySlug":"tandalti","name":"Galería de Arte","category":"cultura","lat":13.006978776244551,"lng":31.857118777283834,"avgVisitMinutes":50,"estimatedCostEur":14,"score":4.563586505018161},{"id":"tandalti_4624","citySlug":"tandalti","name":"Teatro Municipal","category":"cultura","lat":13.013933995642423,"lng":31.865886867552913,"avgVisitMinutes":84,"estimatedCostEur":2,"score":1.8409450820577375},{"id":"tandalti_1372","citySlug":"tandalti","name":"Murallas de Tandaltī","category":"historia","lat":13.019929445639434,"lng":31.872075925241774,"avgVisitMinutes":75,"estimatedCostEur":22,"score":4.134244701447484},{"id":"tandalti_4713","citySlug":"tandalti","name":"Restaurante Típico de Tandaltī","category":"gastronomia","lat":13.01946199404946,"lng":31.865613551769027,"avgVisitMinutes":81,"estimatedCostEur":20,"score":4.919945657179616},{"id":"tandalti_8814","citySlug":"tandalti","name":"Restaurante Típico de Tandaltī","category":"gastronomia","lat":13.016062684690793,"lng":31.861411019632165,"avgVisitMinutes":58,"estimatedCostEur":23,"score":0.81024971142901},{"id":"tandalti_1380","citySlug":"tandalti","name":"Museo Cultural de Tandaltī","category":"cultura","lat":13.022449722128176,"lng":31.869171552559827,"avgVisitMinutes":56,"estimatedCostEur":14,"score":1.8690479621283682},{"id":"talodi_7885","citySlug":"talodi","name":"Paseo Principal","category":"ocio","lat":10.629048367043673,"lng":30.38835966540205,"avgVisitMinutes":83,"estimatedCostEur":18,"score":4.772130505664837},{"id":"talodi_2408","citySlug":"talodi","name":"Museo Cultural de Talodi","category":"cultura","lat":10.631435686451443,"lng":30.37547927670233,"avgVisitMinutes":21,"estimatedCostEur":8,"score":4.891820524249441},{"id":"talodi_8979","citySlug":"talodi","name":"Paseo Principal","category":"ocio","lat":10.641408347044486,"lng":30.376110944752394,"avgVisitMinutes":72,"estimatedCostEur":0,"score":3.701029660804203},{"id":"talodi_5707","citySlug":"talodi","name":"Ruta de Tapas","category":"gastronomia","lat":10.625623696944238,"lng":30.38571725222767,"avgVisitMinutes":38,"estimatedCostEur":17,"score":2.502098277376878},{"id":"talodi_2962","citySlug":"talodi","name":"Mercado Gastronómico","category":"gastronomia","lat":10.625231210188277,"lng":30.378700349614828,"avgVisitMinutes":80,"estimatedCostEur":9,"score":3.5938771561917187},{"id":"talodi_5824","citySlug":"talodi","name":"Ruta de Tapas","category":"gastronomia","lat":10.631542468009695,"lng":30.38474651271381,"avgVisitMinutes":25,"estimatedCostEur":7,"score":3.1297583173905745},{"id":"talodi_7678","citySlug":"talodi","name":"Paseo Principal","category":"ocio","lat":10.630668902008086,"lng":30.37534370265351,"avgVisitMinutes":35,"estimatedCostEur":23,"score":0.5405449700055045},{"id":"talodi_1124","citySlug":"talodi","name":"Playa Sur","category":"playa","lat":10.624243055615688,"lng":30.386713233849022,"avgVisitMinutes":24,"estimatedCostEur":20,"score":4.969220026662833},{"id":"talodi_5198","citySlug":"talodi","name":"Paseo Principal","category":"ocio","lat":10.627820319626318,"lng":30.37141275325702,"avgVisitMinutes":20,"estimatedCostEur":20,"score":2.1520539792422495},{"id":"sinkat_7363","citySlug":"sinkat","name":"Centro de Arte de Sinkat","category":"cultura","lat":18.83498489999773,"lng":36.8388085677913,"avgVisitMinutes":50,"estimatedCostEur":12,"score":3.183400410749981},{"id":"sinkat_9972","citySlug":"sinkat","name":"Paseo Principal","category":"ocio","lat":18.831059650810108,"lng":36.83499385418485,"avgVisitMinutes":55,"estimatedCostEur":0,"score":2.7219182490799696},{"id":"sinkat_3493","citySlug":"sinkat","name":"Centro Histórico","category":"historia","lat":18.83789719280705,"lng":36.831304751621055,"avgVisitMinutes":55,"estimatedCostEur":18,"score":2.5198399506279205},{"id":"sinkat_5781","citySlug":"sinkat","name":"Paseo Principal","category":"ocio","lat":18.839502761828488,"lng":36.837571014745265,"avgVisitMinutes":42,"estimatedCostEur":8,"score":1.36878055122956},{"id":"sinkat_4618","citySlug":"sinkat","name":"Iglesia de Sinkat","category":"historia","lat":18.835880410510285,"lng":36.839721158534594,"avgVisitMinutes":74,"estimatedCostEur":25,"score":1.6418210223438634},{"id":"sinkat_6540","citySlug":"sinkat","name":"Centro de Arte de Sinkat","category":"cultura","lat":18.844831631447718,"lng":36.83984891027531,"avgVisitMinutes":47,"estimatedCostEur":3,"score":2.2963247327006697},{"id":"sinkat_1539","citySlug":"sinkat","name":"Museo Local de Sinkat","category":"historia","lat":18.836881629010485,"lng":36.83591080861108,"avgVisitMinutes":30,"estimatedCostEur":23,"score":1.904112243874017},{"id":"sinkat_9479","citySlug":"sinkat","name":"Punto Panorámico","category":"mirador","lat":18.848588883267414,"lng":36.84466535221652,"avgVisitMinutes":71,"estimatedCostEur":21,"score":1.3021794916105764},{"id":"sinkat_2746","citySlug":"sinkat","name":"Museo Cultural de Sinkat","category":"cultura","lat":18.843536901304144,"lng":36.83142423653109,"avgVisitMinutes":65,"estimatedCostEur":8,"score":2.4172437701722376},{"id":"sinkat_8710","citySlug":"sinkat","name":"Punto Panorámico","category":"mirador","lat":18.8408262742113,"lng":36.837716426851934,"avgVisitMinutes":67,"estimatedCostEur":2,"score":4.077031848180342},{"id":"sinkat_9555","citySlug":"sinkat","name":"Parque Central","category":"ocio","lat":18.836747429634162,"lng":36.83993536368591,"avgVisitMinutes":40,"estimatedCostEur":20,"score":2.25801476651243},{"id":"sinkat_5640","citySlug":"sinkat","name":"Punto Panorámico","category":"mirador","lat":18.83560740528393,"lng":36.82719121030994,"avgVisitMinutes":57,"estimatedCostEur":8,"score":1.6166001126860339},{"id":"singa_1367","citySlug":"singa","name":"Museo Cultural de Singa","category":"cultura","lat":13.158232107828924,"lng":33.9378327751662,"avgVisitMinutes":82,"estimatedCostEur":8,"score":4.013892876542038},{"id":"singa_7688","citySlug":"singa","name":"Castillo de Singa","category":"historia","lat":13.145601852937986,"lng":33.92463790222168,"avgVisitMinutes":62,"estimatedCostEur":6,"score":3.3292106805841777},{"id":"singa_4593","citySlug":"singa","name":"Centro Histórico","category":"historia","lat":13.141361929799452,"lng":33.923299108212206,"avgVisitMinutes":58,"estimatedCostEur":16,"score":3.579817123277398},{"id":"singa_9007","citySlug":"singa","name":"Teatro Municipal","category":"cultura","lat":13.150373609906808,"lng":33.92377293955081,"avgVisitMinutes":26,"estimatedCostEur":23,"score":4.9194474388090015},{"id":"singa_2228","citySlug":"singa","name":"Punto Panorámico","category":"mirador","lat":13.155129973752045,"lng":33.92430066324498,"avgVisitMinutes":61,"estimatedCostEur":9,"score":1.7801552518000232},{"id":"shendi_4057","citySlug":"shendi","name":"Vista Alta de Shendi","category":"mirador","lat":16.686232624345077,"lng":33.43315560839144,"avgVisitMinutes":63,"estimatedCostEur":13,"score":1.9655485501217185},{"id":"shendi_3958","citySlug":"shendi","name":"Playa Sur","category":"playa","lat":16.69240158978971,"lng":33.43764251328865,"avgVisitMinutes":43,"estimatedCostEur":1,"score":4.182407276069955},{"id":"shendi_5840","citySlug":"shendi","name":"Museo Local de Shendi","category":"historia","lat":16.685120798815515,"lng":33.42550963378231,"avgVisitMinutes":20,"estimatedCostEur":11,"score":1.2244329208721583},{"id":"shendi_5834","citySlug":"shendi","name":"Restaurante Típico de Shendi","category":"gastronomia","lat":16.683620905266906,"lng":33.43481233360293,"avgVisitMinutes":36,"estimatedCostEur":5,"score":3.689227805483578},{"id":"shendi_2863","citySlug":"shendi","name":"Iglesia de Shendi","category":"historia","lat":16.701154652355054,"lng":33.43935835822684,"avgVisitMinutes":25,"estimatedCostEur":0,"score":2.11042817372372},{"id":"shendi_5458","citySlug":"shendi","name":"Mercado Gastronómico","category":"gastronomia","lat":16.700387797745655,"lng":33.429903673742174,"avgVisitMinutes":46,"estimatedCostEur":8,"score":4.724418011177379},{"id":"shendi_2088","citySlug":"shendi","name":"Playa Norte","category":"playa","lat":16.691827636935066,"lng":33.433974336973435,"avgVisitMinutes":65,"estimatedCostEur":0,"score":1.3936939248522042},{"id":"shendi_4247","citySlug":"shendi","name":"Ruta de Tapas","category":"gastronomia","lat":16.68434793736194,"lng":33.42774082631983,"avgVisitMinutes":56,"estimatedCostEur":11,"score":0.6197402061634774},{"id":"shendi_1883","citySlug":"shendi","name":"Punto Panorámico","category":"mirador","lat":16.696274648694875,"lng":33.443152846228514,"avgVisitMinutes":55,"estimatedCostEur":11,"score":3.318517622690184},{"id":"suakin_8321","citySlug":"suakin","name":"Centro de Arte de Suakin","category":"cultura","lat":19.1138408181252,"lng":37.3347156497148,"avgVisitMinutes":32,"estimatedCostEur":7,"score":3.2919109641465387},{"id":"suakin_2472","citySlug":"suakin","name":"Centro de Arte de Suakin","category":"cultura","lat":19.111929350334357,"lng":37.324417640893635,"avgVisitMinutes":63,"estimatedCostEur":3,"score":2.2815998107149076},{"id":"suakin_6234","citySlug":"suakin","name":"Ruta de Tapas","category":"gastronomia","lat":19.112096422125852,"lng":37.34137197761899,"avgVisitMinutes":84,"estimatedCostEur":16,"score":2.9488588308654187},{"id":"suakin_5161","citySlug":"suakin","name":"Zona Comercial","category":"ocio","lat":19.099332240716823,"lng":37.33733901953742,"avgVisitMinutes":41,"estimatedCostEur":12,"score":2.26188482153829},{"id":"suakin_7311","citySlug":"suakin","name":"Castillo de Suakin","category":"historia","lat":19.113282781903113,"lng":37.32686581471092,"avgVisitMinutes":64,"estimatedCostEur":13,"score":4.488058346451766},{"id":"suakin_3881","citySlug":"suakin","name":"Vista Alta de Suakin","category":"mirador","lat":19.107086379405168,"lng":37.327087629588725,"avgVisitMinutes":70,"estimatedCostEur":17,"score":4.16415868195697},{"id":"suakin_5779","citySlug":"suakin","name":"Centro Histórico","category":"historia","lat":19.10850164137237,"lng":37.33631981350296,"avgVisitMinutes":86,"estimatedCostEur":23,"score":2.0792124513268773},{"id":"suakin_9208","citySlug":"suakin","name":"Museo Local de Suakin","category":"historia","lat":19.105169418165023,"lng":37.337682753934786,"avgVisitMinutes":40,"estimatedCostEur":3,"score":4.043153106198328},{"id":"suakin_1076","citySlug":"suakin","name":"Punto Panorámico","category":"mirador","lat":19.098960260548992,"lng":37.34022039077948,"avgVisitMinutes":75,"estimatedCostEur":23,"score":4.413764695335483},{"id":"suakin_1983","citySlug":"suakin","name":"Paseo Principal","category":"ocio","lat":19.10941673002737,"lng":37.33767523194545,"avgVisitMinutes":44,"estimatedCostEur":24,"score":0.7168673955572944},{"id":"sennar_1471","citySlug":"sennar","name":"Punto Panorámico","category":"mirador","lat":13.572787927800945,"lng":33.5622512373625,"avgVisitMinutes":50,"estimatedCostEur":20,"score":3.2625609614979076},{"id":"sennar_2084","citySlug":"sennar","name":"Teatro Municipal","category":"cultura","lat":13.568406533591315,"lng":33.5651340063111,"avgVisitMinutes":26,"estimatedCostEur":6,"score":3.255790319148024},{"id":"sennar_3325","citySlug":"sennar","name":"Museo Local de Sennar","category":"historia","lat":13.559734995805234,"lng":33.560104073071045,"avgVisitMinutes":60,"estimatedCostEur":19,"score":3.2115184085227533},{"id":"sennar_8316","citySlug":"sennar","name":"Ruta de Tapas","category":"gastronomia","lat":13.574978684652358,"lng":33.56536681436986,"avgVisitMinutes":35,"estimatedCostEur":16,"score":0.9588068084696206},{"id":"sennar_6693","citySlug":"sennar","name":"Murallas de Sennar","category":"historia","lat":13.571639036138247,"lng":33.57465731962013,"avgVisitMinutes":90,"estimatedCostEur":13,"score":4.916394697055821},{"id":"sennar_7210","citySlug":"sennar","name":"Playa Sur","category":"playa","lat":13.566336128657285,"lng":33.56595941286931,"avgVisitMinutes":46,"estimatedCostEur":21,"score":0.9456851955630928},{"id":"sennar_3546","citySlug":"sennar","name":"Museo Local de Sennar","category":"historia","lat":13.571175572245153,"lng":33.56997783389758,"avgVisitMinutes":90,"estimatedCostEur":0,"score":3.366448778726104},{"id":"sennar_1844","citySlug":"sennar","name":"Restaurante Típico de Sennar","category":"gastronomia","lat":13.569889105306148,"lng":33.56075567912802,"avgVisitMinutes":82,"estimatedCostEur":10,"score":1.0192935997716819},{"id":"sennar_3491","citySlug":"sennar","name":"Mercado Gastronómico","category":"gastronomia","lat":13.560386954152353,"lng":33.57232588057047,"avgVisitMinutes":30,"estimatedCostEur":16,"score":1.5411152496974612},{"id":"rufaa_5033","citySlug":"rufaa","name":"Vista Alta de Rufā‘a","category":"mirador","lat":14.754313301407425,"lng":33.36659865212469,"avgVisitMinutes":35,"estimatedCostEur":7,"score":4.519472143758507},{"id":"rufaa_5736","citySlug":"rufaa","name":"Playa Central","category":"playa","lat":14.763802552658827,"lng":33.37513427674758,"avgVisitMinutes":64,"estimatedCostEur":7,"score":2.2228790923788626},{"id":"rufaa_2534","citySlug":"rufaa","name":"Restaurante Típico de Rufā‘a","category":"gastronomia","lat":14.764553635324237,"lng":33.3747585296435,"avgVisitMinutes":41,"estimatedCostEur":22,"score":2.891195313947044},{"id":"rufaa_4972","citySlug":"rufaa","name":"Playa Sur","category":"playa","lat":14.752768670088592,"lng":33.37690731927735,"avgVisitMinutes":52,"estimatedCostEur":22,"score":2.429708668166242},{"id":"rufaa_7156","citySlug":"rufaa","name":"Teatro Municipal","category":"cultura","lat":14.768093110150112,"lng":33.36826453676386,"avgVisitMinutes":77,"estimatedCostEur":22,"score":2.1170949165291413},{"id":"rufaa_6833","citySlug":"rufaa","name":"Restaurante Típico de Rufā‘a","category":"gastronomia","lat":14.763249489315204,"lng":33.360295596467125,"avgVisitMinutes":86,"estimatedCostEur":10,"score":1.3790158799803547},{"id":"rufaa_7846","citySlug":"rufaa","name":"Galería de Arte","category":"cultura","lat":14.761065721465465,"lng":33.36343758735082,"avgVisitMinutes":82,"estimatedCostEur":1,"score":4.442170331908651},{"id":"rufaa_2665","citySlug":"rufaa","name":"Paseo Principal","category":"ocio","lat":14.761073441488831,"lng":33.374611256025474,"avgVisitMinutes":72,"estimatedCostEur":3,"score":0.5039482516259004},{"id":"rufaa_7957","citySlug":"rufaa","name":"Playa Central","category":"playa","lat":14.753975023930176,"lng":33.35956469728363,"avgVisitMinutes":78,"estimatedCostEur":5,"score":0.7170551790281464},{"id":"rufaa_1960","citySlug":"rufaa","name":"Parque Central","category":"ocio","lat":14.76786735341324,"lng":33.36391349954529,"avgVisitMinutes":78,"estimatedCostEur":22,"score":4.2274196825092645},{"id":"rahad-al-bardi_9510","citySlug":"rahad-al-bardi","name":"Punto Panorámico","category":"mirador","lat":11.307847121542792,"lng":23.882707976511025,"avgVisitMinutes":51,"estimatedCostEur":11,"score":3.174712618347719},{"id":"rahad-al-bardi_2616","citySlug":"rahad-al-bardi","name":"Playa Norte","category":"playa","lat":11.298960876634963,"lng":23.887570904351275,"avgVisitMinutes":57,"estimatedCostEur":18,"score":3.4172184876391136},{"id":"rahad-al-bardi_6272","citySlug":"rahad-al-bardi","name":"Ruta de Tapas","category":"gastronomia","lat":11.297485221336787,"lng":23.89201714844099,"avgVisitMinutes":25,"estimatedCostEur":2,"score":4.991848276854697},{"id":"rahad-al-bardi_3778","citySlug":"rahad-al-bardi","name":"Ruta de Tapas","category":"gastronomia","lat":11.291865686664865,"lng":23.880666940723746,"avgVisitMinutes":39,"estimatedCostEur":5,"score":2.5609299344129455},{"id":"rahad-al-bardi_9129","citySlug":"rahad-al-bardi","name":"Punto Panorámico","category":"mirador","lat":11.297605142871243,"lng":23.882739591275936,"avgVisitMinutes":38,"estimatedCostEur":19,"score":0.6163868549203548},{"id":"rabak_2413","citySlug":"rabak","name":"Playa Sur","category":"playa","lat":13.17313542885743,"lng":32.731187829052736,"avgVisitMinutes":61,"estimatedCostEur":14,"score":3.0111045049571272},{"id":"rabak_5135","citySlug":"rabak","name":"Teatro Municipal","category":"cultura","lat":13.185882988892168,"lng":32.73260608625125,"avgVisitMinutes":69,"estimatedCostEur":15,"score":0.7384469816394323},{"id":"rabak_4279","citySlug":"rabak","name":"Teatro Municipal","category":"cultura","lat":13.173182017624796,"lng":32.74981821086433,"avgVisitMinutes":52,"estimatedCostEur":5,"score":3.327601187859762},{"id":"rabak_9796","citySlug":"rabak","name":"Vista Alta de Rabak","category":"mirador","lat":13.17197464967747,"lng":32.73148670883519,"avgVisitMinutes":74,"estimatedCostEur":14,"score":4.488416492501016},{"id":"rabak_6116","citySlug":"rabak","name":"Museo Local de Rabak","category":"historia","lat":13.187913516115206,"lng":32.747444490617916,"avgVisitMinutes":73,"estimatedCostEur":22,"score":4.329629664377757},{"id":"rabak_5414","citySlug":"rabak","name":"Punto Panorámico","category":"mirador","lat":13.185501717301653,"lng":32.74155388904236,"avgVisitMinutes":37,"estimatedCostEur":15,"score":4.4110617197810535},{"id":"rabak_4040","citySlug":"rabak","name":"Vista Alta de Rabak","category":"mirador","lat":13.182127161751342,"lng":32.73771518448325,"avgVisitMinutes":89,"estimatedCostEur":12,"score":3.2861280291003347},{"id":"nyala_5449","citySlug":"nyala","name":"Vista Alta de Nyala","category":"mirador","lat":12.039866436691723,"lng":24.87992937530543,"avgVisitMinutes":84,"estimatedCostEur":10,"score":1.140218495044758},{"id":"nyala_9247","citySlug":"nyala","name":"Zona Comercial","category":"ocio","lat":12.057873901626786,"lng":24.88143412769318,"avgVisitMinutes":36,"estimatedCostEur":19,"score":3.2816693915872057},{"id":"nyala_6187","citySlug":"nyala","name":"Museo Local de Nyala","category":"historia","lat":12.058449136062421,"lng":24.88675384274253,"avgVisitMinutes":69,"estimatedCostEur":18,"score":1.8868255462323296},{"id":"nyala_8052","citySlug":"nyala","name":"Galería de Arte","category":"cultura","lat":12.047526416690888,"lng":24.879695492186215,"avgVisitMinutes":69,"estimatedCostEur":17,"score":2.1820214679672763},{"id":"nyala_6837","citySlug":"nyala","name":"Centro Histórico","category":"historia","lat":12.05378528817938,"lng":24.883617681920104,"avgVisitMinutes":39,"estimatedCostEur":18,"score":2.2516098020241166},{"id":"nyala_6761","citySlug":"nyala","name":"Playa Central","category":"playa","lat":12.042875053600232,"lng":24.875527952169385,"avgVisitMinutes":33,"estimatedCostEur":21,"score":1.7177836186974589},{"id":"nyala_9600","citySlug":"nyala","name":"Zona Comercial","category":"ocio","lat":12.041350587670383,"lng":24.873765218361388,"avgVisitMinutes":87,"estimatedCostEur":1,"score":1.0562748477421318},{"id":"nyala_8870","citySlug":"nyala","name":"Centro Histórico","category":"historia","lat":12.039589419024017,"lng":24.871874161501847,"avgVisitMinutes":23,"estimatedCostEur":19,"score":0.5987417382208522},{"id":"nyala_3264","citySlug":"nyala","name":"Zona Comercial","category":"ocio","lat":12.046153057317792,"lng":24.87500007811105,"avgVisitMinutes":56,"estimatedCostEur":3,"score":2.1159840876526452},{"id":"mellit_5634","citySlug":"mellit","name":"Restaurante Típico de Mellit","category":"gastronomia","lat":14.139390138283344,"lng":25.55850803803816,"avgVisitMinutes":20,"estimatedCostEur":0,"score":4.324081830638152},{"id":"mellit_5300","citySlug":"mellit","name":"Castillo de Mellit","category":"historia","lat":14.13368082406739,"lng":25.555155493485938,"avgVisitMinutes":58,"estimatedCostEur":12,"score":3.7315910553763256},{"id":"mellit_8036","citySlug":"mellit","name":"Paseo Principal","category":"ocio","lat":14.142132559519133,"lng":25.557606562937156,"avgVisitMinutes":49,"estimatedCostEur":23,"score":0.9383940528420978},{"id":"mellit_1986","citySlug":"mellit","name":"Murallas de Mellit","category":"historia","lat":14.13050765788358,"lng":25.555541355031597,"avgVisitMinutes":26,"estimatedCostEur":0,"score":0.8860344245486529},{"id":"mellit_3015","citySlug":"mellit","name":"Ruta de Tapas","category":"gastronomia","lat":14.12990500891509,"lng":25.54921481400564,"avgVisitMinutes":26,"estimatedCostEur":2,"score":4.934686514438615},{"id":"mellit_2458","citySlug":"mellit","name":"Playa Sur","category":"playa","lat":14.139735692673137,"lng":25.55014148717525,"avgVisitMinutes":71,"estimatedCostEur":16,"score":1.7058695892149003},{"id":"mellit_3392","citySlug":"mellit","name":"Museo Local de Mellit","category":"historia","lat":14.133328447022997,"lng":25.542450993076052,"avgVisitMinutes":78,"estimatedCostEur":10,"score":2.0840974992952153},{"id":"merowe_9027","citySlug":"merowe","name":"Playa Norte","category":"playa","lat":18.470974142934715,"lng":31.81454127775843,"avgVisitMinutes":36,"estimatedCostEur":22,"score":3.839861432973067},{"id":"merowe_7893","citySlug":"merowe","name":"Mercado Gastronómico","category":"gastronomia","lat":18.472645640710468,"lng":31.80601110448436,"avgVisitMinutes":89,"estimatedCostEur":15,"score":0.5407188145606447},{"id":"merowe_3574","citySlug":"merowe","name":"Parque Central","category":"ocio","lat":18.474802956148462,"lng":31.80253200410662,"avgVisitMinutes":89,"estimatedCostEur":22,"score":2.3944245836899745},{"id":"merowe_9687","citySlug":"merowe","name":"Paseo Principal","category":"ocio","lat":18.476522542081746,"lng":31.812466884999825,"avgVisitMinutes":25,"estimatedCostEur":15,"score":4.556203620943953},{"id":"merowe_4597","citySlug":"merowe","name":"Teatro Municipal","category":"cultura","lat":18.466162591362114,"lng":31.81125486562752,"avgVisitMinutes":55,"estimatedCostEur":12,"score":0.509295864884429},{"id":"merowe_6261","citySlug":"merowe","name":"Parque Central","category":"ocio","lat":18.46412860801136,"lng":31.803238627606433,"avgVisitMinutes":31,"estimatedCostEur":21,"score":4.373734571358068},{"id":"merowe_1039","citySlug":"merowe","name":"Playa Norte","category":"playa","lat":18.46229400267113,"lng":31.810488906123627,"avgVisitMinutes":30,"estimatedCostEur":18,"score":2.1765079578575603},{"id":"merowe_2228","citySlug":"merowe","name":"Mirador de Merowe","category":"mirador","lat":18.47890191301174,"lng":31.80224192878523,"avgVisitMinutes":33,"estimatedCostEur":18,"score":1.4717733070440076},{"id":"merowe_1620","citySlug":"merowe","name":"Castillo de Merowe","category":"historia","lat":18.475297267779453,"lng":31.81803613529054,"avgVisitMinutes":27,"estimatedCostEur":0,"score":3.048083467858132},{"id":"merowe_3960","citySlug":"merowe","name":"Galería de Arte","category":"cultura","lat":18.475445675451507,"lng":31.81792415339937,"avgVisitMinutes":34,"estimatedCostEur":11,"score":4.884490395505142},{"id":"merowe_9936","citySlug":"merowe","name":"Galería de Arte","category":"cultura","lat":18.462829184295014,"lng":31.81408756624505,"avgVisitMinutes":74,"estimatedCostEur":13,"score":2.1943986621878033},{"id":"merowe_3377","citySlug":"merowe","name":"Centro de Arte de Merowe","category":"cultura","lat":18.46044975614868,"lng":31.804136746017065,"avgVisitMinutes":46,"estimatedCostEur":9,"score":3.930002247913488},{"id":"marabba_1704","citySlug":"marabba","name":"Centro Histórico","category":"historia","lat":12.359314654022333,"lng":32.18295904983461,"avgVisitMinutes":90,"estimatedCostEur":0,"score":1.5615207157047732},{"id":"marabba_8508","citySlug":"marabba","name":"Playa Central","category":"playa","lat":12.359391107463257,"lng":32.17624104163704,"avgVisitMinutes":29,"estimatedCostEur":15,"score":3.009797585661358},{"id":"marabba_8045","citySlug":"marabba","name":"Vista Alta de Marabba","category":"mirador","lat":12.342130816705765,"lng":32.181757879122465,"avgVisitMinutes":77,"estimatedCostEur":2,"score":2.360227059547573},{"id":"marabba_6848","citySlug":"marabba","name":"Playa Sur","category":"playa","lat":12.34719587834117,"lng":32.19311609500846,"avgVisitMinutes":55,"estimatedCostEur":23,"score":1.6093528468648712},{"id":"marabba_8120","citySlug":"marabba","name":"Playa Central","category":"playa","lat":12.34470815294485,"lng":32.17396275467102,"avgVisitMinutes":63,"estimatedCostEur":13,"score":4.475511472104111},{"id":"marabba_9918","citySlug":"marabba","name":"Ruta de Tapas","category":"gastronomia","lat":12.347964589319686,"lng":32.19122932670253,"avgVisitMinutes":86,"estimatedCostEur":3,"score":3.7583384057961102},{"id":"marabba_1153","citySlug":"marabba","name":"Mercado Gastronómico","category":"gastronomia","lat":12.351566028529742,"lng":32.173858840338994,"avgVisitMinutes":84,"estimatedCostEur":23,"score":2.954247392833154},{"id":"marabba_9420","citySlug":"marabba","name":"Ruta de Tapas","category":"gastronomia","lat":12.358771392065591,"lng":32.18735862776661,"avgVisitMinutes":74,"estimatedCostEur":21,"score":0.6931109282690358},{"id":"marabba_2902","citySlug":"marabba","name":"Teatro Municipal","category":"cultura","lat":12.354911666497602,"lng":32.17737402456385,"avgVisitMinutes":78,"estimatedCostEur":24,"score":1.8488081055319325},{"id":"maiurno_3303","citySlug":"maiurno","name":"Zona Comercial","category":"ocio","lat":13.410819534604974,"lng":33.66841325855002,"avgVisitMinutes":32,"estimatedCostEur":4,"score":2.4276297889008354},{"id":"maiurno_1810","citySlug":"maiurno","name":"Ruta de Tapas","category":"gastronomia","lat":13.4130638480722,"lng":33.66465341445075,"avgVisitMinutes":65,"estimatedCostEur":8,"score":3.385450900581517},{"id":"maiurno_9075","citySlug":"maiurno","name":"Mercado Gastronómico","category":"gastronomia","lat":13.423900918698378,"lng":33.66000387704122,"avgVisitMinutes":73,"estimatedCostEur":25,"score":0.5204426948437966},{"id":"maiurno_6245","citySlug":"maiurno","name":"Mirador de Maiurno","category":"mirador","lat":13.409568811930368,"lng":33.66096022006318,"avgVisitMinutes":77,"estimatedCostEur":19,"score":4.252772589017313},{"id":"maiurno_5848","citySlug":"maiurno","name":"Museo Local de Maiurno","category":"historia","lat":13.410398889411468,"lng":33.67094448650555,"avgVisitMinutes":21,"estimatedCostEur":15,"score":4.985077076243215},{"id":"maiurno_1333","citySlug":"maiurno","name":"Playa Central","category":"playa","lat":13.407337811892184,"lng":33.658113714072904,"avgVisitMinutes":55,"estimatedCostEur":10,"score":4.396761174216396},{"id":"maiurno_8585","citySlug":"maiurno","name":"Playa Norte","category":"playa","lat":13.420296355540794,"lng":33.65843508730852,"avgVisitMinutes":22,"estimatedCostEur":25,"score":2.8070577268003962},{"id":"maiurno_4763","citySlug":"maiurno","name":"Playa Central","category":"playa","lat":13.419237782053763,"lng":33.65880766969237,"avgVisitMinutes":39,"estimatedCostEur":24,"score":0.5013943822329341},{"id":"maiurno_6739","citySlug":"maiurno","name":"Playa Sur","category":"playa","lat":13.4130996782396,"lng":33.6750778117455,"avgVisitMinutes":76,"estimatedCostEur":20,"score":4.943472338106444},{"id":"kutum_3890","citySlug":"kutum","name":"Centro de Arte de Kutum","category":"cultura","lat":14.200474363590747,"lng":24.66536457858594,"avgVisitMinutes":20,"estimatedCostEur":18,"score":1.278204874786761},{"id":"kutum_2384","citySlug":"kutum","name":"Galería de Arte","category":"cultura","lat":14.195197810046238,"lng":24.660582990050166,"avgVisitMinutes":32,"estimatedCostEur":19,"score":0.7806915287738014},{"id":"kutum_3548","citySlug":"kutum","name":"Teatro Municipal","category":"cultura","lat":14.196354725480804,"lng":24.676645248325578,"avgVisitMinutes":34,"estimatedCostEur":0,"score":0.5720361124906574},{"id":"kutum_2712","citySlug":"kutum","name":"Murallas de Kutum","category":"historia","lat":14.203833547428568,"lng":24.663220596768713,"avgVisitMinutes":41,"estimatedCostEur":18,"score":3.510296873666773},{"id":"kutum_6884","citySlug":"kutum","name":"Playa Sur","category":"playa","lat":14.196639880654851,"lng":24.66957105748522,"avgVisitMinutes":55,"estimatedCostEur":2,"score":0.687613027982264},{"id":"kutum_3324","citySlug":"kutum","name":"Centro de Arte de Kutum","category":"cultura","lat":14.197882061399124,"lng":24.657380340673438,"avgVisitMinutes":48,"estimatedCostEur":3,"score":2.3311325692464844},{"id":"kosti_3065","citySlug":"kosti","name":"Castillo de Kosti","category":"historia","lat":13.171618880659835,"lng":32.65987804240256,"avgVisitMinutes":70,"estimatedCostEur":24,"score":2.197512517767202},{"id":"kosti_1401","citySlug":"kosti","name":"Mercado Gastronómico","category":"gastronomia","lat":13.16281294766522,"lng":32.66115710559567,"avgVisitMinutes":86,"estimatedCostEur":22,"score":2.428448730779489},{"id":"kosti_8952","citySlug":"kosti","name":"Museo Local de Kosti","category":"historia","lat":13.163634729426162,"lng":32.668596062669714,"avgVisitMinutes":48,"estimatedCostEur":11,"score":1.794408401732466},{"id":"kosti_8905","citySlug":"kosti","name":"Iglesia de Kosti","category":"historia","lat":13.164835571617449,"lng":32.66136143908191,"avgVisitMinutes":50,"estimatedCostEur":25,"score":4.104002759038983},{"id":"kosti_2923","citySlug":"kosti","name":"Restaurante Típico de Kosti","category":"gastronomia","lat":13.161476994746542,"lng":32.65789146590789,"avgVisitMinutes":55,"estimatedCostEur":8,"score":3.803342018342328},{"id":"kosti_5622","citySlug":"kosti","name":"Playa Sur","category":"playa","lat":13.15419928133981,"lng":32.661008137635754,"avgVisitMinutes":42,"estimatedCostEur":23,"score":3.058901060415306},{"id":"kosti_7678","citySlug":"kosti","name":"Playa Norte","category":"playa","lat":13.154147475509877,"lng":32.65594492801229,"avgVisitMinutes":39,"estimatedCostEur":18,"score":3.06338579758085},{"id":"kosti_7113","citySlug":"kosti","name":"Playa Norte","category":"playa","lat":13.159263747352389,"lng":32.655250162843835,"avgVisitMinutes":45,"estimatedCostEur":17,"score":2.6926631255416615},{"id":"kosti_3935","citySlug":"kosti","name":"Playa Central","category":"playa","lat":13.166511829410426,"lng":32.6589905051634,"avgVisitMinutes":52,"estimatedCostEur":16,"score":1.6339460187784447},{"id":"kosti_1623","citySlug":"kosti","name":"Teatro Municipal","category":"cultura","lat":13.171762107441822,"lng":32.66188653456523,"avgVisitMinutes":49,"estimatedCostEur":9,"score":0.7898567872025579},{"id":"kurmuk_2853","citySlug":"kurmuk","name":"Restaurante Típico de Kurmuk","category":"gastronomia","lat":10.552302302199921,"lng":34.28129417459892,"avgVisitMinutes":75,"estimatedCostEur":5,"score":3.0365958566862683},{"id":"kurmuk_3029","citySlug":"kurmuk","name":"Playa Sur","category":"playa","lat":10.549982097468584,"lng":34.282119492190446,"avgVisitMinutes":76,"estimatedCostEur":18,"score":2.1490973503112762},{"id":"kurmuk_9741","citySlug":"kurmuk","name":"Paseo Principal","category":"ocio","lat":10.54945629970667,"lng":34.287182672858044,"avgVisitMinutes":31,"estimatedCostEur":10,"score":2.0297751359432636},{"id":"kurmuk_1949","citySlug":"kurmuk","name":"Galería de Arte","category":"cultura","lat":10.552712068711049,"lng":34.28154194441306,"avgVisitMinutes":29,"estimatedCostEur":14,"score":3.4042653158519425},{"id":"kurmuk_9983","citySlug":"kurmuk","name":"Iglesia de Kurmuk","category":"historia","lat":10.55348815380357,"lng":34.29003774030275,"avgVisitMinutes":53,"estimatedCostEur":9,"score":1.8893374527684978},{"id":"kurmuk_3625","citySlug":"kurmuk","name":"Restaurante Típico de Kurmuk","category":"gastronomia","lat":10.56082284697241,"lng":34.291214270832334,"avgVisitMinutes":53,"estimatedCostEur":1,"score":1.3229225312352368},{"id":"kurmuk_7724","citySlug":"kurmuk","name":"Murallas de Kurmuk","category":"historia","lat":10.55442747564559,"lng":34.29281363480662,"avgVisitMinutes":25,"estimatedCostEur":18,"score":4.05730591459065},{"id":"kurmuk_9569","citySlug":"kurmuk","name":"Playa Central","category":"playa","lat":10.56406385465756,"lng":34.27729884664029,"avgVisitMinutes":86,"estimatedCostEur":22,"score":1.31524589441957},{"id":"kurmuk_4886","citySlug":"kurmuk","name":"Mirador de Kurmuk","category":"mirador","lat":10.55879488532939,"lng":34.288951481650024,"avgVisitMinutes":56,"estimatedCostEur":9,"score":4.823894226857642},{"id":"kurmuk_6953","citySlug":"kurmuk","name":"Playa Norte","category":"playa","lat":10.553543524700503,"lng":34.291848369164164,"avgVisitMinutes":41,"estimatedCostEur":22,"score":1.3245964741298226},{"id":"kuraymah_9713","citySlug":"kuraymah","name":"Paseo Principal","category":"ocio","lat":18.54950446539764,"lng":31.846138297669135,"avgVisitMinutes":79,"estimatedCostEur":22,"score":1.836119747577148},{"id":"kuraymah_6009","citySlug":"kuraymah","name":"Playa Sur","category":"playa","lat":18.543896725343824,"lng":31.856180662073967,"avgVisitMinutes":41,"estimatedCostEur":21,"score":4.937119267972815},{"id":"kuraymah_8417","citySlug":"kuraymah","name":"Museo Local de Kuraymah","category":"historia","lat":18.552845608798627,"lng":31.84287402421852,"avgVisitMinutes":67,"estimatedCostEur":8,"score":4.952819834718935},{"id":"kuraymah_6196","citySlug":"kuraymah","name":"Punto Panorámico","category":"mirador","lat":18.556949251360138,"lng":31.850897421695198,"avgVisitMinutes":31,"estimatedCostEur":24,"score":2.1747614072476673},{"id":"kuraymah_9331","citySlug":"kuraymah","name":"Iglesia de Kuraymah","category":"historia","lat":18.556083309726777,"lng":31.85631527512996,"avgVisitMinutes":27,"estimatedCostEur":15,"score":2.077433930412516},{"id":"kuraymah_9268","citySlug":"kuraymah","name":"Parque Central","category":"ocio","lat":18.555941840589313,"lng":31.847086488943116,"avgVisitMinutes":69,"estimatedCostEur":3,"score":4.672290266179885},{"id":"kuraymah_9489","citySlug":"kuraymah","name":"Vista Alta de Kuraymah","category":"mirador","lat":18.541497891963946,"lng":31.84747294105742,"avgVisitMinutes":78,"estimatedCostEur":21,"score":3.871336609020783},{"id":"kuraymah_2571","citySlug":"kuraymah","name":"Castillo de Kuraymah","category":"historia","lat":18.555170379103934,"lng":31.84262215738706,"avgVisitMinutes":32,"estimatedCostEur":9,"score":3.6348769865346937},{"id":"kuraymah_8459","citySlug":"kuraymah","name":"Vista Alta de Kuraymah","category":"mirador","lat":18.55484979436977,"lng":31.85046077824136,"avgVisitMinutes":67,"estimatedCostEur":12,"score":4.858733332217946},{"id":"kuraymah_1040","citySlug":"kuraymah","name":"Ruta de Tapas","category":"gastronomia","lat":18.549534735132184,"lng":31.847280033412527,"avgVisitMinutes":87,"estimatedCostEur":4,"score":4.8143000212419205},{"id":"kuraymah_5823","citySlug":"kuraymah","name":"Museo Local de Kuraymah","category":"historia","lat":18.54475454520531,"lng":31.854940180360217,"avgVisitMinutes":54,"estimatedCostEur":4,"score":4.424621090190121},{"id":"kuraymah_8074","citySlug":"kuraymah","name":"Mirador de Kuraymah","category":"mirador","lat":18.546465497716966,"lng":31.851495793569637,"avgVisitMinutes":48,"estimatedCostEur":12,"score":1.715391910489159},{"id":"kinana_8529","citySlug":"kinana","name":"Parque Central","category":"ocio","lat":14.031537022001563,"lng":33.17365083926298,"avgVisitMinutes":21,"estimatedCostEur":24,"score":2.1273496597612347},{"id":"kinana_6670","citySlug":"kinana","name":"Paseo Principal","category":"ocio","lat":14.02917637251291,"lng":33.16808821473199,"avgVisitMinutes":76,"estimatedCostEur":2,"score":1.8830863269946543},{"id":"kinana_6258","citySlug":"kinana","name":"Ruta de Tapas","category":"gastronomia","lat":14.045513146614798,"lng":33.1640629707638,"avgVisitMinutes":55,"estimatedCostEur":17,"score":3.055140627366395},{"id":"kinana_5819","citySlug":"kinana","name":"Playa Central","category":"playa","lat":14.03797204577232,"lng":33.18050629304283,"avgVisitMinutes":68,"estimatedCostEur":24,"score":2.040733887474154},{"id":"kinana_6229","citySlug":"kinana","name":"Playa Sur","category":"playa","lat":14.027086645377707,"lng":33.171681669201895,"avgVisitMinutes":81,"estimatedCostEur":4,"score":3.318964255009686},{"id":"kinana_7586","citySlug":"kinana","name":"Mirador de Kināna","category":"mirador","lat":14.045949360359439,"lng":33.1623411892067,"avgVisitMinutes":48,"estimatedCostEur":9,"score":2.9289802791890582},{"id":"kinana_4050","citySlug":"kinana","name":"Parque Central","category":"ocio","lat":14.040909232963172,"lng":33.16659997734092,"avgVisitMinutes":32,"estimatedCostEur":11,"score":4.075421655584746},{"id":"kinana_9315","citySlug":"kinana","name":"Murallas de Kināna","category":"historia","lat":14.042613962333085,"lng":33.16878973855729,"avgVisitMinutes":48,"estimatedCostEur":1,"score":2.5575659129815227},{"id":"kinana_4358","citySlug":"kinana","name":"Vista Alta de Kināna","category":"mirador","lat":14.03996126557714,"lng":33.164356413291316,"avgVisitMinutes":77,"estimatedCostEur":18,"score":2.0207880151156417},{"id":"kinana_1703","citySlug":"kinana","name":"Parque Central","category":"ocio","lat":14.026594189925449,"lng":33.17509883331169,"avgVisitMinutes":44,"estimatedCostEur":24,"score":4.270771821817126},{"id":"kinana_3132","citySlug":"kinana","name":"Murallas de Kināna","category":"historia","lat":14.026855913244203,"lng":33.171400984366755,"avgVisitMinutes":23,"estimatedCostEur":13,"score":3.504584358908612},{"id":"kinana_5085","citySlug":"kinana","name":"Teatro Municipal","category":"cultura","lat":14.02946945634761,"lng":33.16196741783584,"avgVisitMinutes":44,"estimatedCostEur":0,"score":0.7810149708854681},{"id":"khashm-al-qirbah_5221","citySlug":"khashm-al-qirbah","name":"Mercado Gastronómico","category":"gastronomia","lat":14.971335439617029,"lng":35.909926549856436,"avgVisitMinutes":30,"estimatedCostEur":4,"score":1.7281367100853284},{"id":"khashm-al-qirbah_7439","citySlug":"khashm-al-qirbah","name":"Mercado Gastronómico","category":"gastronomia","lat":14.958143873296468,"lng":35.91926528386581,"avgVisitMinutes":42,"estimatedCostEur":24,"score":4.095249117626953},{"id":"khashm-al-qirbah_8494","citySlug":"khashm-al-qirbah","name":"Playa Norte","category":"playa","lat":14.96102972115016,"lng":35.914852707538415,"avgVisitMinutes":64,"estimatedCostEur":12,"score":1.3985599955173251},{"id":"khashm-al-qirbah_9200","citySlug":"khashm-al-qirbah","name":"Playa Sur","category":"playa","lat":14.967504066237584,"lng":35.914390405179425,"avgVisitMinutes":67,"estimatedCostEur":24,"score":4.448383870426223},{"id":"khashm-al-qirbah_2273","citySlug":"khashm-al-qirbah","name":"Playa Norte","category":"playa","lat":14.966649727299737,"lng":35.9118567104541,"avgVisitMinutes":22,"estimatedCostEur":5,"score":3.979934442159988},{"id":"khashm-al-qirbah_6003","citySlug":"khashm-al-qirbah","name":"Vista Alta de Khashm al Qirbah","category":"mirador","lat":14.960728586144727,"lng":35.92124305781891,"avgVisitMinutes":33,"estimatedCostEur":7,"score":2.281425813682106},{"id":"khashm-al-qirbah_5219","citySlug":"khashm-al-qirbah","name":"Restaurante Típico de Khashm al Qirbah","category":"gastronomia","lat":14.968736703983682,"lng":35.91352799457997,"avgVisitMinutes":54,"estimatedCostEur":12,"score":0.9886585185245711},{"id":"kassala_8262","citySlug":"kassala","name":"Museo Cultural de Kassala","category":"cultura","lat":15.449963267067906,"lng":36.39006948599924,"avgVisitMinutes":60,"estimatedCostEur":11,"score":2.549054964069397},{"id":"kassala_6386","citySlug":"kassala","name":"Mercado Gastronómico","category":"gastronomia","lat":15.448292062937448,"lng":36.399889654217944,"avgVisitMinutes":70,"estimatedCostEur":7,"score":3.8148558841071605},{"id":"kassala_6932","citySlug":"kassala","name":"Restaurante Típico de Kassala","category":"gastronomia","lat":15.443141311942023,"lng":36.40330423064624,"avgVisitMinutes":77,"estimatedCostEur":22,"score":0.8993716942894407},{"id":"kassala_9420","citySlug":"kassala","name":"Vista Alta de Kassala","category":"mirador","lat":15.444730017634107,"lng":36.39421605618118,"avgVisitMinutes":55,"estimatedCostEur":12,"score":0.9199048997987518},{"id":"kassala_8824","citySlug":"kassala","name":"Playa Central","category":"playa","lat":15.452821521663884,"lng":36.39327085688721,"avgVisitMinutes":42,"estimatedCostEur":17,"score":1.224013367625168},{"id":"kassala_3051","citySlug":"kassala","name":"Galería de Arte","category":"cultura","lat":15.460468883540127,"lng":36.39993653141454,"avgVisitMinutes":70,"estimatedCostEur":10,"score":0.9016999505412276},{"id":"kassala_8009","citySlug":"kassala","name":"Iglesia de Kassala","category":"historia","lat":15.456948003977592,"lng":36.40561397548425,"avgVisitMinutes":84,"estimatedCostEur":21,"score":0.7481807439431198},{"id":"kassala_5495","citySlug":"kassala","name":"Mirador de Kassala","category":"mirador","lat":15.443946485865164,"lng":36.40918212486067,"avgVisitMinutes":47,"estimatedCostEur":25,"score":1.3931238592926487},{"id":"kas_9554","citySlug":"kas","name":"Parque Central","category":"ocio","lat":12.503867718632433,"lng":24.27597822889392,"avgVisitMinutes":67,"estimatedCostEur":11,"score":3.232533405182232},{"id":"kas_6956","citySlug":"kas","name":"Galería de Arte","category":"cultura","lat":12.517916771400632,"lng":24.278021254977965,"avgVisitMinutes":90,"estimatedCostEur":20,"score":0.9982252772093041},{"id":"kas_8602","citySlug":"kas","name":"Castillo de Kas","category":"historia","lat":12.516952337407444,"lng":24.278646862674414,"avgVisitMinutes":81,"estimatedCostEur":7,"score":2.833882932063762},{"id":"kas_7459","citySlug":"kas","name":"Punto Panorámico","category":"mirador","lat":12.512436646314349,"lng":24.281291317709137,"avgVisitMinutes":66,"estimatedCostEur":15,"score":4.8055109713155515},{"id":"kas_1651","citySlug":"kas","name":"Mercado Gastronómico","category":"gastronomia","lat":12.514862842285625,"lng":24.290183702909253,"avgVisitMinutes":83,"estimatedCostEur":19,"score":4.608957110067334},{"id":"kas_5065","citySlug":"kas","name":"Restaurante Típico de Kas","category":"gastronomia","lat":12.51596676390389,"lng":24.285360316228502,"avgVisitMinutes":41,"estimatedCostEur":25,"score":2.946517541193801},{"id":"kas_7702","citySlug":"kas","name":"Galería de Arte","category":"cultura","lat":12.512915308311527,"lng":24.279957709576802,"avgVisitMinutes":72,"estimatedCostEur":21,"score":0.6222331511926242},{"id":"kas_4854","citySlug":"kas","name":"Vista Alta de Kas","category":"mirador","lat":12.514643966538918,"lng":24.294386132691365,"avgVisitMinutes":74,"estimatedCostEur":7,"score":0.9509936363936211},{"id":"kas_2722","citySlug":"kas","name":"Vista Alta de Kas","category":"mirador","lat":12.511132830367476,"lng":24.282810906353145,"avgVisitMinutes":22,"estimatedCostEur":15,"score":4.309371062986978},{"id":"kas_2954","citySlug":"kas","name":"Galería de Arte","category":"cultura","lat":12.509106269225306,"lng":24.288269694198476,"avgVisitMinutes":51,"estimatedCostEur":8,"score":2.6006885800737316},{"id":"kas_8736","citySlug":"kas","name":"Ruta de Tapas","category":"gastronomia","lat":12.511562003045043,"lng":24.279219412008075,"avgVisitMinutes":42,"estimatedCostEur":7,"score":4.933903418000226},{"id":"karmah-an-nuzul_8105","citySlug":"karmah-an-nuzul","name":"Playa Central","category":"playa","lat":19.640225674896442,"lng":30.41868073054035,"avgVisitMinutes":28,"estimatedCostEur":2,"score":3.45375532867656},{"id":"karmah-an-nuzul_7804","citySlug":"karmah-an-nuzul","name":"Playa Norte","category":"playa","lat":19.62373745446505,"lng":30.426610769975976,"avgVisitMinutes":80,"estimatedCostEur":13,"score":4.576157330493964},{"id":"karmah-an-nuzul_8863","citySlug":"karmah-an-nuzul","name":"Ruta de Tapas","category":"gastronomia","lat":19.64253789555613,"lng":30.40722651127523,"avgVisitMinutes":20,"estimatedCostEur":18,"score":1.8508372188977902},{"id":"karmah-an-nuzul_3755","citySlug":"karmah-an-nuzul","name":"Museo Cultural de Karmah an Nuzul","category":"cultura","lat":19.625473982023607,"lng":30.415229998962932,"avgVisitMinutes":68,"estimatedCostEur":12,"score":0.6140982616493602},{"id":"karmah-an-nuzul_8473","citySlug":"karmah-an-nuzul","name":"Centro Histórico","category":"historia","lat":19.639401890511824,"lng":30.407546018610265,"avgVisitMinutes":54,"estimatedCostEur":14,"score":3.9187995918757013},{"id":"karmah-an-nuzul_2636","citySlug":"karmah-an-nuzul","name":"Vista Alta de Karmah an Nuzul","category":"mirador","lat":19.62901393753547,"lng":30.41811687962923,"avgVisitMinutes":76,"estimatedCostEur":0,"score":2.2647333775192258},{"id":"karmah-an-nuzul_2637","citySlug":"karmah-an-nuzul","name":"Teatro Municipal","category":"cultura","lat":19.638255378499373,"lng":30.420409105871883,"avgVisitMinutes":47,"estimatedCostEur":7,"score":1.2720760670987135},{"id":"karmah-an-nuzul_6045","citySlug":"karmah-an-nuzul","name":"Playa Central","category":"playa","lat":19.642172817584918,"lng":30.423941805754136,"avgVisitMinutes":72,"estimatedCostEur":10,"score":4.1777951464505385},{"id":"karmah-an-nuzul_1636","citySlug":"karmah-an-nuzul","name":"Playa Norte","category":"playa","lat":19.63239545280551,"lng":30.42149908213149,"avgVisitMinutes":40,"estimatedCostEur":11,"score":1.7473425062959138},{"id":"karmah-an-nuzul_7904","citySlug":"karmah-an-nuzul","name":"Mercado Gastronómico","category":"gastronomia","lat":19.630213716204697,"lng":30.42363787243522,"avgVisitMinutes":46,"estimatedCostEur":10,"score":0.6313551428677758},{"id":"karmah-an-nuzul_5235","citySlug":"karmah-an-nuzul","name":"Mirador de Karmah an Nuzul","category":"mirador","lat":19.637505541992393,"lng":30.41231610706646,"avgVisitMinutes":35,"estimatedCostEur":21,"score":2.64882640751009},{"id":"karmah-an-nuzul_6412","citySlug":"karmah-an-nuzul","name":"Restaurante Típico de Karmah an Nuzul","category":"gastronomia","lat":19.631209882012964,"lng":30.418355714766744,"avgVisitMinutes":67,"estimatedCostEur":25,"score":2.0393923172055635},{"id":"kadugli_6468","citySlug":"kadugli","name":"Ruta de Tapas","category":"gastronomia","lat":11.013399211900369,"lng":29.717568187622046,"avgVisitMinutes":48,"estimatedCostEur":18,"score":0.7641840302482568},{"id":"kadugli_8394","citySlug":"kadugli","name":"Paseo Principal","category":"ocio","lat":11.005871010111637,"lng":29.718900600461517,"avgVisitMinutes":84,"estimatedCostEur":11,"score":2.7922242403684465},{"id":"kadugli_9447","citySlug":"kadugli","name":"Teatro Municipal","category":"cultura","lat":11.006932047488238,"lng":29.723914947668977,"avgVisitMinutes":60,"estimatedCostEur":8,"score":2.7640872592014953},{"id":"kadugli_5719","citySlug":"kadugli","name":"Ruta de Tapas","category":"gastronomia","lat":11.00595453748875,"lng":29.71963181695274,"avgVisitMinutes":62,"estimatedCostEur":23,"score":2.833976772095472},{"id":"kadugli_4223","citySlug":"kadugli","name":"Punto Panorámico","category":"mirador","lat":11.003671725660768,"lng":29.72649799537223,"avgVisitMinutes":59,"estimatedCostEur":13,"score":3.9530667864886775},{"id":"kadugli_7402","citySlug":"kadugli","name":"Paseo Principal","category":"ocio","lat":11.01690876239263,"lng":29.70930657243466,"avgVisitMinutes":81,"estimatedCostEur":14,"score":1.4081000436234912},{"id":"kadugli_4138","citySlug":"kadugli","name":"Zona Comercial","category":"ocio","lat":11.009904075106546,"lng":29.722398732967886,"avgVisitMinutes":52,"estimatedCostEur":4,"score":4.6967451701677465},{"id":"kadugli_8130","citySlug":"kadugli","name":"Iglesia de Kadugli","category":"historia","lat":11.006785475514885,"lng":29.719174638640954,"avgVisitMinutes":71,"estimatedCostEur":25,"score":1.9577357589893414},{"id":"kadugli_1453","citySlug":"kadugli","name":"Mercado Gastronómico","category":"gastronomia","lat":11.015390978439957,"lng":29.720044965832237,"avgVisitMinutes":65,"estimatedCostEur":2,"score":0.5925652843682423},{"id":"kadugli_8886","citySlug":"kadugli","name":"Ruta de Tapas","category":"gastronomia","lat":11.020086312419258,"lng":29.716821219059046,"avgVisitMinutes":64,"estimatedCostEur":12,"score":2.002387250080567},{"id":"kadugli_6476","citySlug":"kadugli","name":"Murallas de Kadugli","category":"historia","lat":11.017199941588824,"lng":29.722227610303598,"avgVisitMinutes":46,"estimatedCostEur":18,"score":2.920081619174301},{"id":"kabkabiyah_3332","citySlug":"kabkabiyah","name":"Mercado Gastronómico","category":"gastronomia","lat":13.652040681977233,"lng":24.07443725213721,"avgVisitMinutes":38,"estimatedCostEur":5,"score":2.7356917267481116},{"id":"kabkabiyah_4157","citySlug":"kabkabiyah","name":"Museo Cultural de Kabkābīyah","category":"cultura","lat":13.645169494455736,"lng":24.074082216982067,"avgVisitMinutes":55,"estimatedCostEur":13,"score":3.630830918302182},{"id":"kabkabiyah_9310","citySlug":"kabkabiyah","name":"Galería de Arte","category":"cultura","lat":13.64384532511968,"lng":24.08903614482875,"avgVisitMinutes":51,"estimatedCostEur":24,"score":3.7061743236995324},{"id":"kabkabiyah_1016","citySlug":"kabkabiyah","name":"Iglesia de Kabkābīyah","category":"historia","lat":13.652948743709691,"lng":24.07667262800348,"avgVisitMinutes":71,"estimatedCostEur":22,"score":0.6526076063998695},{"id":"kabkabiyah_5505","citySlug":"kabkabiyah","name":"Vista Alta de Kabkābīyah","category":"mirador","lat":13.651668311799613,"lng":24.075942471267528,"avgVisitMinutes":65,"estimatedCostEur":12,"score":2.487191102762126},{"id":"jubayt_5685","citySlug":"jubayt","name":"Zona Comercial","category":"ocio","lat":18.94351160160498,"lng":36.84150287453513,"avgVisitMinutes":32,"estimatedCostEur":0,"score":3.3852659059912136},{"id":"jubayt_4919","citySlug":"jubayt","name":"Playa Central","category":"playa","lat":18.956380152894553,"lng":36.823632599219465,"avgVisitMinutes":35,"estimatedCostEur":15,"score":1.2933683012754296},{"id":"jubayt_1861","citySlug":"jubayt","name":"Castillo de Jubayt","category":"historia","lat":18.944835610658515,"lng":36.83394229884152,"avgVisitMinutes":70,"estimatedCostEur":13,"score":0.6585599855589928},{"id":"jubayt_3349","citySlug":"jubayt","name":"Mercado Gastronómico","category":"gastronomia","lat":18.948311665537776,"lng":36.84303489871326,"avgVisitMinutes":66,"estimatedCostEur":23,"score":4.257707995005486},{"id":"jubayt_7773","citySlug":"jubayt","name":"Paseo Principal","category":"ocio","lat":18.956101164517467,"lng":36.82666309311235,"avgVisitMinutes":49,"estimatedCostEur":18,"score":2.2653232008251023},{"id":"jubayt_4888","citySlug":"jubayt","name":"Teatro Municipal","category":"cultura","lat":18.953389764883884,"lng":36.83646237384017,"avgVisitMinutes":45,"estimatedCostEur":1,"score":4.196704982346409},{"id":"jubayt_3862","citySlug":"jubayt","name":"Mirador de Jubayt","category":"mirador","lat":18.944378358424533,"lng":36.82872660793764,"avgVisitMinutes":59,"estimatedCostEur":19,"score":3.00041571315055},{"id":"new-halfa_9647","citySlug":"new-halfa","name":"Playa Central","category":"playa","lat":15.333520382028656,"lng":35.60059955811365,"avgVisitMinutes":41,"estimatedCostEur":19,"score":2.754849655963465},{"id":"new-halfa_2391","citySlug":"new-halfa","name":"Museo Local de New Halfa","category":"historia","lat":15.330454406650267,"lng":35.60717322357249,"avgVisitMinutes":52,"estimatedCostEur":1,"score":1.2164796953931498},{"id":"new-halfa_7121","citySlug":"new-halfa","name":"Playa Central","category":"playa","lat":15.324733374408241,"lng":35.599324492827954,"avgVisitMinutes":34,"estimatedCostEur":1,"score":4.264049799211359},{"id":"new-halfa_6112","citySlug":"new-halfa","name":"Zona Comercial","category":"ocio","lat":15.328176251998316,"lng":35.60049256653716,"avgVisitMinutes":52,"estimatedCostEur":2,"score":2.0711458769774307},{"id":"new-halfa_4306","citySlug":"new-halfa","name":"Playa Sur","category":"playa","lat":15.321993821146568,"lng":35.59074775070497,"avgVisitMinutes":45,"estimatedCostEur":12,"score":4.503073284294174},{"id":"new-halfa_8068","citySlug":"new-halfa","name":"Centro Histórico","category":"historia","lat":15.330473071325292,"lng":35.589581017404726,"avgVisitMinutes":77,"estimatedCostEur":1,"score":2.225489068022374},{"id":"new-halfa_4146","citySlug":"new-halfa","name":"Playa Norte","category":"playa","lat":15.336532230627329,"lng":35.598819027830636,"avgVisitMinutes":84,"estimatedCostEur":11,"score":4.374936337358472},{"id":"new-halfa_5989","citySlug":"new-halfa","name":"Zona Comercial","category":"ocio","lat":15.320419715863043,"lng":35.60029182647502,"avgVisitMinutes":75,"estimatedCostEur":15,"score":3.6961519625096373},{"id":"new-halfa_1304","citySlug":"new-halfa","name":"Parque Central","category":"ocio","lat":15.330451783758296,"lng":35.59206469284472,"avgVisitMinutes":58,"estimatedCostEur":20,"score":3.261772274742651},{"id":"new-halfa_4172","citySlug":"new-halfa","name":"Punto Panorámico","category":"mirador","lat":15.332110995332998,"lng":35.595273931384895,"avgVisitMinutes":59,"estimatedCostEur":3,"score":2.5898870838817265},{"id":"ghubaysh_4114","citySlug":"ghubaysh","name":"Restaurante Típico de Ghubaysh","category":"gastronomia","lat":12.158205178419774,"lng":27.349986795855205,"avgVisitMinutes":47,"estimatedCostEur":22,"score":1.4828375778807672},{"id":"ghubaysh_6685","citySlug":"ghubaysh","name":"Teatro Municipal","category":"cultura","lat":12.148617117391973,"lng":27.358303389248366,"avgVisitMinutes":65,"estimatedCostEur":17,"score":4.767245154009795},{"id":"ghubaysh_5141","citySlug":"ghubaysh","name":"Restaurante Típico de Ghubaysh","category":"gastronomia","lat":12.146199807142875,"lng":27.35692208630162,"avgVisitMinutes":69,"estimatedCostEur":15,"score":4.424005736175793},{"id":"ghubaysh_9853","citySlug":"ghubaysh","name":"Museo Cultural de Ghubaysh","category":"cultura","lat":12.149229055901978,"lng":27.345888439860037,"avgVisitMinutes":54,"estimatedCostEur":24,"score":3.4188089071503183},{"id":"ghubaysh_8900","citySlug":"ghubaysh","name":"Zona Comercial","category":"ocio","lat":12.145865169320178,"lng":27.356544913137018,"avgVisitMinutes":46,"estimatedCostEur":15,"score":4.890379945548577},{"id":"ghubaysh_5029","citySlug":"ghubaysh","name":"Restaurante Típico de Ghubaysh","category":"gastronomia","lat":12.14391930445797,"lng":27.342296445398425,"avgVisitMinutes":90,"estimatedCostEur":6,"score":0.5022357466016062},{"id":"ghubaysh_2839","citySlug":"ghubaysh","name":"Galería de Arte","category":"cultura","lat":12.149648732022326,"lng":27.344048973280056,"avgVisitMinutes":89,"estimatedCostEur":6,"score":4.987123082661475},{"id":"ghubaysh_7343","citySlug":"ghubaysh","name":"Centro de Arte de Ghubaysh","category":"cultura","lat":12.157602275795668,"lng":27.34726592550246,"avgVisitMinutes":58,"estimatedCostEur":15,"score":2.2206065519648646},{"id":"gebeit_8543","citySlug":"gebeit","name":"Vista Alta de Gebeit","category":"mirador","lat":21.059577043500465,"lng":36.31820386837692,"avgVisitMinutes":68,"estimatedCostEur":7,"score":2.7602688417152264},{"id":"gebeit_6441","citySlug":"gebeit","name":"Paseo Principal","category":"ocio","lat":21.072139654356473,"lng":36.32200261671955,"avgVisitMinutes":71,"estimatedCostEur":23,"score":4.47261934241903},{"id":"gebeit_8128","citySlug":"gebeit","name":"Playa Central","category":"playa","lat":21.07311086958732,"lng":36.30917830501894,"avgVisitMinutes":64,"estimatedCostEur":20,"score":3.744727055052721},{"id":"gebeit_1553","citySlug":"gebeit","name":"Restaurante Típico de Gebeit","category":"gastronomia","lat":21.07478661233719,"lng":36.319623353113336,"avgVisitMinutes":65,"estimatedCostEur":1,"score":4.864746614272766},{"id":"gebeit_6112","citySlug":"gebeit","name":"Iglesia de Gebeit","category":"historia","lat":21.0609804576915,"lng":36.312806111394345,"avgVisitMinutes":82,"estimatedCostEur":3,"score":4.469365129209295},{"id":"gebeit_1741","citySlug":"gebeit","name":"Vista Alta de Gebeit","category":"mirador","lat":21.07650948314287,"lng":36.31618599968771,"avgVisitMinutes":87,"estimatedCostEur":9,"score":2.3244381796457185},{"id":"gebeit_6182","citySlug":"gebeit","name":"Mercado Gastronómico","category":"gastronomia","lat":21.06205725418371,"lng":36.310338025161776,"avgVisitMinutes":58,"estimatedCostEur":10,"score":4.412480484890102},{"id":"gebeit_2563","citySlug":"gebeit","name":"Playa Norte","category":"playa","lat":21.071524196551117,"lng":36.309964279750325,"avgVisitMinutes":63,"estimatedCostEur":1,"score":0.9609043240473271},{"id":"gebeit_6743","citySlug":"gebeit","name":"Restaurante Típico de Gebeit","category":"gastronomia","lat":21.075704926284693,"lng":36.32077691661876,"avgVisitMinutes":72,"estimatedCostEur":4,"score":2.800075452637952},{"id":"gebeit_7249","citySlug":"gebeit","name":"Punto Panorámico","category":"mirador","lat":21.06346995583416,"lng":36.32223243986723,"avgVisitMinutes":62,"estimatedCostEur":0,"score":3.7088888213799653},{"id":"jalqani_8525","citySlug":"jalqani","name":"Restaurante Típico de Jalqani","category":"gastronomia","lat":12.447168829054101,"lng":34.215128769814804,"avgVisitMinutes":54,"estimatedCostEur":12,"score":1.9016869837589387},{"id":"jalqani_1031","citySlug":"jalqani","name":"Centro de Arte de Jalqani","category":"cultura","lat":12.448469036426967,"lng":34.22310412604052,"avgVisitMinutes":67,"estimatedCostEur":1,"score":2.612152960928991},{"id":"jalqani_4901","citySlug":"jalqani","name":"Teatro Municipal","category":"cultura","lat":12.44394502756794,"lng":34.21866902408822,"avgVisitMinutes":50,"estimatedCostEur":16,"score":2.826317263992935},{"id":"jalqani_4307","citySlug":"jalqani","name":"Mercado Gastronómico","category":"gastronomia","lat":12.441659666092548,"lng":34.22471226300796,"avgVisitMinutes":34,"estimatedCostEur":22,"score":2.374719419552811},{"id":"jalqani_4605","citySlug":"jalqani","name":"Iglesia de Jalqani","category":"historia","lat":12.457957116063673,"lng":34.21372524528358,"avgVisitMinutes":44,"estimatedCostEur":19,"score":2.6504967130221533},{"id":"jalqani_2616","citySlug":"jalqani","name":"Murallas de Jalqani","category":"historia","lat":12.454382746948582,"lng":34.21296198643105,"avgVisitMinutes":60,"estimatedCostEur":13,"score":1.6738345328304867},{"id":"jalqani_6036","citySlug":"jalqani","name":"Ruta de Tapas","category":"gastronomia","lat":12.440603498357307,"lng":34.21327286718228,"avgVisitMinutes":41,"estimatedCostEur":16,"score":1.156784991206148},{"id":"jalqani_7815","citySlug":"jalqani","name":"Centro Histórico","category":"historia","lat":12.454453747598283,"lng":34.22012254686537,"avgVisitMinutes":88,"estimatedCostEur":10,"score":1.6629020948184812},{"id":"jalqani_2710","citySlug":"jalqani","name":"Museo Local de Jalqani","category":"historia","lat":12.444752608463686,"lng":34.2096495393886,"avgVisitMinutes":32,"estimatedCostEur":19,"score":1.5699493568534526},{"id":"doka_3967","citySlug":"doka","name":"Ruta de Tapas","category":"gastronomia","lat":13.521615160901131,"lng":35.77389127954579,"avgVisitMinutes":48,"estimatedCostEur":19,"score":3.2543111126152753},{"id":"doka_5408","citySlug":"doka","name":"Parque Central","category":"ocio","lat":13.510430827651705,"lng":35.760067651724285,"avgVisitMinutes":71,"estimatedCostEur":3,"score":2.637010175387775},{"id":"doka_9299","citySlug":"doka","name":"Restaurante Típico de Doka","category":"gastronomia","lat":13.517246105135621,"lng":35.77109783825659,"avgVisitMinutes":20,"estimatedCostEur":9,"score":3.649125646711899},{"id":"doka_8758","citySlug":"doka","name":"Ruta de Tapas","category":"gastronomia","lat":13.52329217495013,"lng":35.77002331777856,"avgVisitMinutes":77,"estimatedCostEur":7,"score":1.521142614061204},{"id":"doka_3578","citySlug":"doka","name":"Playa Central","category":"playa","lat":13.523601326364743,"lng":35.76822784108424,"avgVisitMinutes":29,"estimatedCostEur":25,"score":1.5131372913742704},{"id":"dilling_1958","citySlug":"dilling","name":"Paseo Principal","category":"ocio","lat":12.051480846705642,"lng":29.65816394846153,"avgVisitMinutes":59,"estimatedCostEur":16,"score":1.4915977006289163},{"id":"dilling_3036","citySlug":"dilling","name":"Mirador de Dilling","category":"mirador","lat":12.058654738883867,"lng":29.649359301414155,"avgVisitMinutes":70,"estimatedCostEur":13,"score":3.548788846425773},{"id":"dilling_6577","citySlug":"dilling","name":"Castillo de Dilling","category":"historia","lat":12.040385054888922,"lng":29.657460955489473,"avgVisitMinutes":58,"estimatedCostEur":14,"score":4.187324597326941},{"id":"dilling_7997","citySlug":"dilling","name":"Mercado Gastronómico","category":"gastronomia","lat":12.056641127107351,"lng":29.655837605162862,"avgVisitMinutes":31,"estimatedCostEur":2,"score":2.4377523080284296},{"id":"dilling_4611","citySlug":"dilling","name":"Mercado Gastronómico","category":"gastronomia","lat":12.058968782101902,"lng":29.647417167326907,"avgVisitMinutes":54,"estimatedCostEur":21,"score":1.8686786813861245},{"id":"dilling_8535","citySlug":"dilling","name":"Playa Sur","category":"playa","lat":12.047528844475181,"lng":29.642723542503315,"avgVisitMinutes":22,"estimatedCostEur":11,"score":2.4272244690707794},{"id":"dilling_5154","citySlug":"dilling","name":"Parque Central","category":"ocio","lat":12.041736064663306,"lng":29.657055409988228,"avgVisitMinutes":69,"estimatedCostEur":22,"score":1.5792921898429018},{"id":"dilling_6219","citySlug":"dilling","name":"Castillo de Dilling","category":"historia","lat":12.055751679853312,"lng":29.643963467419645,"avgVisitMinutes":37,"estimatedCostEur":4,"score":1.754634261647697},{"id":"dilling_7798","citySlug":"dilling","name":"Galería de Arte","category":"cultura","lat":12.04883929208171,"lng":29.659548621546318,"avgVisitMinutes":52,"estimatedCostEur":25,"score":1.5536856449352232},{"id":"port-sudan_7893","citySlug":"port-sudan","name":"Playa Sur","category":"playa","lat":19.624986644635683,"lng":37.22350261569841,"avgVisitMinutes":59,"estimatedCostEur":0,"score":2.007065238375019},{"id":"port-sudan_3029","citySlug":"port-sudan","name":"Zona Comercial","category":"ocio","lat":19.622699296206953,"lng":37.211981238861775,"avgVisitMinutes":82,"estimatedCostEur":23,"score":4.2422496633278035},{"id":"port-sudan_5546","citySlug":"port-sudan","name":"Playa Sur","category":"playa","lat":19.613819584656767,"lng":37.21987046402356,"avgVisitMinutes":55,"estimatedCostEur":14,"score":3.4308106134868726},{"id":"port-sudan_8472","citySlug":"port-sudan","name":"Mercado Gastronómico","category":"gastronomia","lat":19.622202531260267,"lng":37.22187803733739,"avgVisitMinutes":33,"estimatedCostEur":18,"score":2.4256700271085285},{"id":"port-sudan_4084","citySlug":"port-sudan","name":"Mercado Gastronómico","category":"gastronomia","lat":19.615148964687354,"lng":37.21093117890478,"avgVisitMinutes":60,"estimatedCostEur":11,"score":3.161729008155487},{"id":"port-sudan_2085","citySlug":"port-sudan","name":"Paseo Principal","category":"ocio","lat":19.62367406799561,"lng":37.21624587640644,"avgVisitMinutes":31,"estimatedCostEur":8,"score":3.2786181732686437},{"id":"port-sudan_1644","citySlug":"port-sudan","name":"Parque Central","category":"ocio","lat":19.625788703955944,"lng":37.22243486348278,"avgVisitMinutes":50,"estimatedCostEur":18,"score":3.956009971942782},{"id":"port-sudan_7499","citySlug":"port-sudan","name":"Playa Central","category":"playa","lat":19.624723168699795,"lng":37.220834788406776,"avgVisitMinutes":50,"estimatedCostEur":16,"score":3.683447810278757},{"id":"port-sudan_1507","citySlug":"port-sudan","name":"Mirador de Port Sudan","category":"mirador","lat":19.613279974184504,"lng":37.21955588568801,"avgVisitMinutes":87,"estimatedCostEur":14,"score":3.958104950790732},{"id":"port-sudan_3046","citySlug":"port-sudan","name":"Murallas de Port Sudan","category":"historia","lat":19.61726841556768,"lng":37.218741960944485,"avgVisitMinutes":66,"estimatedCostEur":10,"score":2.791955804100253},{"id":"port-sudan_1630","citySlug":"port-sudan","name":"Paseo Principal","category":"ocio","lat":19.61098934201444,"lng":37.21725810008729,"avgVisitMinutes":22,"estimatedCostEur":8,"score":1.0711667298307344},{"id":"buram_3274","citySlug":"buram","name":"Zona Comercial","category":"ocio","lat":10.855924450429152,"lng":25.163873086568337,"avgVisitMinutes":83,"estimatedCostEur":16,"score":2.3900971261966752},{"id":"buram_8943","citySlug":"buram","name":"Mercado Gastronómico","category":"gastronomia","lat":10.852234040625751,"lng":25.15864117195507,"avgVisitMinutes":59,"estimatedCostEur":4,"score":3.821654944526207},{"id":"buram_4138","citySlug":"buram","name":"Teatro Municipal","category":"cultura","lat":10.860279591548961,"lng":25.15372331689365,"avgVisitMinutes":87,"estimatedCostEur":1,"score":4.071327542506031},{"id":"buram_8472","citySlug":"buram","name":"Paseo Principal","category":"ocio","lat":10.849551606949086,"lng":25.161017317105138,"avgVisitMinutes":49,"estimatedCostEur":12,"score":3.348317752757715},{"id":"buram_7909","citySlug":"buram","name":"Vista Alta de Burām","category":"mirador","lat":10.84938432539001,"lng":25.15430667044611,"avgVisitMinutes":83,"estimatedCostEur":0,"score":4.789389755958725},{"id":"berber_5165","citySlug":"berber","name":"Teatro Municipal","category":"cultura","lat":18.024131487872715,"lng":33.98652990979126,"avgVisitMinutes":82,"estimatedCostEur":12,"score":2.686552482360002},{"id":"berber_8064","citySlug":"berber","name":"Museo Local de Berber","category":"historia","lat":18.012604996815437,"lng":33.989943402097815,"avgVisitMinutes":85,"estimatedCostEur":9,"score":4.882514123147932},{"id":"berber_3158","citySlug":"berber","name":"Castillo de Berber","category":"historia","lat":18.021546864372525,"lng":33.979705104135306,"avgVisitMinutes":26,"estimatedCostEur":21,"score":1.0406359538588765},{"id":"berber_5633","citySlug":"berber","name":"Centro de Arte de Berber","category":"cultura","lat":18.01916819555032,"lng":33.98811939737311,"avgVisitMinutes":37,"estimatedCostEur":19,"score":4.900840849913124},{"id":"berber_7273","citySlug":"berber","name":"Galería de Arte","category":"cultura","lat":18.030736273364973,"lng":33.983369776402625,"avgVisitMinutes":87,"estimatedCostEur":18,"score":3.2551274282741556},{"id":"berber_7954","citySlug":"berber","name":"Centro Histórico","category":"historia","lat":18.026239130963475,"lng":33.97807941117538,"avgVisitMinutes":72,"estimatedCostEur":8,"score":3.112551103364725},{"id":"berber_3422","citySlug":"berber","name":"Museo Local de Berber","category":"historia","lat":18.01941808151057,"lng":33.991301021595774,"avgVisitMinutes":30,"estimatedCostEur":14,"score":1.4865305898841488},{"id":"berber_9616","citySlug":"berber","name":"Mercado Gastronómico","category":"gastronomia","lat":18.02341168877268,"lng":33.982661161451624,"avgVisitMinutes":34,"estimatedCostEur":17,"score":1.31989557513722},{"id":"berber_7566","citySlug":"berber","name":"Punto Panorámico","category":"mirador","lat":18.024548835122566,"lng":33.97896038368116,"avgVisitMinutes":42,"estimatedCostEur":3,"score":3.9590793998001},{"id":"berber_6633","citySlug":"berber","name":"Paseo Principal","category":"ocio","lat":18.017702821370577,"lng":33.985399053550154,"avgVisitMinutes":32,"estimatedCostEur":25,"score":1.0531395690613004},{"id":"barah_3654","citySlug":"barah","name":"Castillo de Bārah","category":"historia","lat":13.699496017548498,"lng":30.372785164939824,"avgVisitMinutes":88,"estimatedCostEur":0,"score":2.5138668551246175},{"id":"barah_8314","citySlug":"barah","name":"Punto Panorámico","category":"mirador","lat":13.709899312856054,"lng":30.37548804475759,"avgVisitMinutes":82,"estimatedCostEur":10,"score":4.628922112215374},{"id":"barah_8448","citySlug":"barah","name":"Punto Panorámico","category":"mirador","lat":13.706019176759204,"lng":30.37442485406869,"avgVisitMinutes":30,"estimatedCostEur":14,"score":4.0879640728952635},{"id":"barah_1214","citySlug":"barah","name":"Playa Central","category":"playa","lat":13.69080657939459,"lng":30.358141065837973,"avgVisitMinutes":81,"estimatedCostEur":19,"score":1.4329040393912116},{"id":"barah_1101","citySlug":"barah","name":"Paseo Principal","category":"ocio","lat":13.694953175615343,"lng":30.363539469972196,"avgVisitMinutes":50,"estimatedCostEur":19,"score":2.375787826880048},{"id":"barah_4378","citySlug":"barah","name":"Ruta de Tapas","category":"gastronomia","lat":13.698407663406039,"lng":30.358517494744365,"avgVisitMinutes":62,"estimatedCostEur":8,"score":4.829578157227517},{"id":"babanusah_1113","citySlug":"babanusah","name":"Playa Norte","category":"playa","lat":11.338150315969958,"lng":27.804375842829863,"avgVisitMinutes":89,"estimatedCostEur":13,"score":1.024937184748333},{"id":"babanusah_4967","citySlug":"babanusah","name":"Mercado Gastronómico","category":"gastronomia","lat":11.323375289349624,"lng":27.802542551835444,"avgVisitMinutes":51,"estimatedCostEur":11,"score":4.497988170187754},{"id":"babanusah_3008","citySlug":"babanusah","name":"Paseo Principal","category":"ocio","lat":11.338622615966093,"lng":27.804320548791985,"avgVisitMinutes":47,"estimatedCostEur":25,"score":3.820368570876224},{"id":"babanusah_1256","citySlug":"babanusah","name":"Punto Panorámico","category":"mirador","lat":11.329197143204976,"lng":27.791589264700015,"avgVisitMinutes":80,"estimatedCostEur":11,"score":4.064224219853749},{"id":"babanusah_6681","citySlug":"babanusah","name":"Iglesia de Babanūsah","category":"historia","lat":11.342473931905007,"lng":27.807187285722925,"avgVisitMinutes":54,"estimatedCostEur":9,"score":0.631350949601521},{"id":"babanusah_3222","citySlug":"babanusah","name":"Paseo Principal","category":"ocio","lat":11.339839249022974,"lng":27.80619912905363,"avgVisitMinutes":43,"estimatedCostEur":21,"score":2.821280920544464},{"id":"babanusah_1731","citySlug":"babanusah","name":"Castillo de Babanūsah","category":"historia","lat":11.327353712222399,"lng":27.7913396001241,"avgVisitMinutes":61,"estimatedCostEur":19,"score":4.474874749941389},{"id":"babanusah_9081","citySlug":"babanusah","name":"Playa Central","category":"playa","lat":11.328814685883795,"lng":27.791076930390496,"avgVisitMinutes":24,"estimatedCostEur":10,"score":2.7489739755429765},{"id":"babanusah_9937","citySlug":"babanusah","name":"Paseo Principal","category":"ocio","lat":11.329887773904975,"lng":27.792183663291237,"avgVisitMinutes":78,"estimatedCostEur":18,"score":2.7894271041712506},{"id":"babanusah_3407","citySlug":"babanusah","name":"Paseo Principal","category":"ocio","lat":11.335317928589616,"lng":27.805963297653307,"avgVisitMinutes":74,"estimatedCostEur":10,"score":2.1439989891335944},{"id":"atbara_3060","citySlug":"atbara","name":"Restaurante Típico de Atbara","category":"gastronomia","lat":17.702095160776803,"lng":33.98868109516224,"avgVisitMinutes":87,"estimatedCostEur":18,"score":4.319254740266973},{"id":"atbara_2326","citySlug":"atbara","name":"Mercado Gastronómico","category":"gastronomia","lat":17.69526006889693,"lng":33.97802868932547,"avgVisitMinutes":84,"estimatedCostEur":3,"score":1.5034369342139644},{"id":"atbara_3662","citySlug":"atbara","name":"Mercado Gastronómico","category":"gastronomia","lat":17.69368736040983,"lng":33.9854590374272,"avgVisitMinutes":29,"estimatedCostEur":11,"score":3.4249017115173603},{"id":"atbara_9082","citySlug":"atbara","name":"Restaurante Típico de Atbara","category":"gastronomia","lat":17.709007117750083,"lng":33.99046209914846,"avgVisitMinutes":58,"estimatedCostEur":0,"score":4.246271224731462},{"id":"atbara_7436","citySlug":"atbara","name":"Restaurante Típico de Atbara","category":"gastronomia","lat":17.70226148142731,"lng":33.989510502648585,"avgVisitMinutes":36,"estimatedCostEur":7,"score":0.8018235409354527},{"id":"atbara_6835","citySlug":"atbara","name":"Playa Norte","category":"playa","lat":17.708078100143418,"lng":33.99575064647033,"avgVisitMinutes":23,"estimatedCostEur":23,"score":2.2387845201539207},{"id":"atbara_2200","citySlug":"atbara","name":"Parque Central","category":"ocio","lat":17.708166026220507,"lng":33.99600751898631,"avgVisitMinutes":33,"estimatedCostEur":8,"score":3.791629217988968},{"id":"atbara_2214","citySlug":"atbara","name":"Centro Histórico","category":"historia","lat":17.708692432559495,"lng":33.98515304437364,"avgVisitMinutes":75,"estimatedCostEur":25,"score":1.716044725322814},{"id":"atbara_5749","citySlug":"atbara","name":"Paseo Principal","category":"ocio","lat":17.699981859358545,"lng":33.976880685372,"avgVisitMinutes":73,"estimatedCostEur":8,"score":0.7324463824718594},{"id":"atbara_7247","citySlug":"atbara","name":"Playa Sur","category":"playa","lat":17.70980243848028,"lng":33.97765139961687,"avgVisitMinutes":27,"estimatedCostEur":9,"score":0.8603749121785171},{"id":"as-suki_2434","citySlug":"as-suki","name":"Parque Central","category":"ocio","lat":13.322102410591247,"lng":33.89248837512034,"avgVisitMinutes":89,"estimatedCostEur":8,"score":1.6998563715024035},{"id":"as-suki_9551","citySlug":"as-suki","name":"Punto Panorámico","category":"mirador","lat":13.318923228116056,"lng":33.889992017206104,"avgVisitMinutes":38,"estimatedCostEur":10,"score":2.115141973819353},{"id":"as-suki_3106","citySlug":"as-suki","name":"Galería de Arte","category":"cultura","lat":13.319247212131119,"lng":33.8839080909786,"avgVisitMinutes":21,"estimatedCostEur":1,"score":4.774930966933215},