{"country":"SG","pois":[{"id":"tanjong-pagar_8411","citySlug":"tanjong-pagar","name":"Playa Sur","category":"playa","lat":1.2799191977903646,"lng":103.83643722399711,"avgVisitMinutes":46,"estimatedCostEur":13,"score":1.4409344639711315},{"id":"tanjong-pagar_2855","citySlug":"tanjong-pagar","name":"Ruta de Tapas","category":"gastronomia","lat":1.2881987563563935,"lng":103.84070131063778,"avgVisitMinutes":41,"estimatedCostEur":1,"score":1.5259070525984684},{"id":"tanjong-pagar_3099","citySlug":"tanjong-pagar","name":"Vista Alta de Tanjong Pagar","category":"mirador","lat":1.2837983742996453,"lng":103.83378796360212,"avgVisitMinutes":73,"estimatedCostEur":8,"score":0.7730305342087803},{"id":"tanjong-pagar_7365","citySlug":"tanjong-pagar","name":"Vista Alta de Tanjong Pagar","category":"mirador","lat":1.2829452347817907,"lng":103.83958345395928,"avgVisitMinutes":85,"estimatedCostEur":7,"score":3.4382873982055857},{"id":"tanjong-pagar_7255","citySlug":"tanjong-pagar","name":"Teatro Municipal","category":"cultura","lat":1.2750864992076654,"lng":103.83016307845416,"avgVisitMinutes":53,"estimatedCostEur":1,"score":1.4702031508859523},{"id":"tanjong-pagar_4650","citySlug":"tanjong-pagar","name":"Playa Sur","category":"playa","lat":1.2808294596714214,"lng":103.83047643488673,"avgVisitMinutes":25,"estimatedCostEur":3,"score":4.639613753417187},{"id":"tanjong-pagar_7499","citySlug":"tanjong-pagar","name":"Ruta de Tapas","category":"gastronomia","lat":1.2769897899207785,"lng":103.82721436391918,"avgVisitMinutes":41,"estimatedCostEur":9,"score":1.0629834766325765},{"id":"tanjong-pagar_9887","citySlug":"tanjong-pagar","name":"Playa Sur","category":"playa","lat":1.279292325787813,"lng":103.84104781272258,"avgVisitMinutes":40,"estimatedCostEur":3,"score":3.335702491500007},{"id":"tanjong-pagar_4322","citySlug":"tanjong-pagar","name":"Centro Histórico","category":"historia","lat":1.2831121863853907,"lng":103.83161371201942,"avgVisitMinutes":23,"estimatedCostEur":10,"score":2.5647470128902654},{"id":"tanjong-pagar_5928","citySlug":"tanjong-pagar","name":"Museo Cultural de Tanjong Pagar","category":"cultura","lat":1.2791323151229423,"lng":103.82358112623133,"avgVisitMinutes":75,"estimatedCostEur":23,"score":3.103146418741879},{"id":"yio-chu-kang_5977","citySlug":"yio-chu-kang","name":"Playa Sur","category":"playa","lat":1.394506057545856,"lng":103.85183424166723,"avgVisitMinutes":62,"estimatedCostEur":22,"score":2.0168418559325474},{"id":"yio-chu-kang_3831","citySlug":"yio-chu-kang","name":"Paseo Principal","category":"ocio","lat":1.3993567450807942,"lng":103.8587897965877,"avgVisitMinutes":32,"estimatedCostEur":21,"score":3.832360593110269},{"id":"yio-chu-kang_3678","citySlug":"yio-chu-kang","name":"Centro Histórico","category":"historia","lat":1.3964586861708304,"lng":103.85887896075802,"avgVisitMinutes":86,"estimatedCostEur":18,"score":4.298557903475876},{"id":"yio-chu-kang_3782","citySlug":"yio-chu-kang","name":"Vista Alta de Yio Chu Kang","category":"mirador","lat":1.3901682298656133,"lng":103.85038433231024,"avgVisitMinutes":56,"estimatedCostEur":10,"score":0.5832480379707218},{"id":"yio-chu-kang_5110","citySlug":"yio-chu-kang","name":"Zona Comercial","category":"ocio","lat":1.3893901577918928,"lng":103.85241714908804,"avgVisitMinutes":86,"estimatedCostEur":23,"score":4.32539391269774},{"id":"yew-tee_9691","citySlug":"yew-tee","name":"Playa Sur","category":"playa","lat":1.393608352840846,"lng":103.75596124041894,"avgVisitMinutes":66,"estimatedCostEur":20,"score":4.967942055286646},{"id":"yew-tee_8299","citySlug":"yew-tee","name":"Centro de Arte de Yew Tee","category":"cultura","lat":1.4027003499003883,"lng":103.75192062957854,"avgVisitMinutes":37,"estimatedCostEur":19,"score":4.420511484996657},{"id":"yew-tee_9738","citySlug":"yew-tee","name":"Zona Comercial","category":"ocio","lat":1.3919745244198187,"lng":103.73986485157411,"avgVisitMinutes":23,"estimatedCostEur":23,"score":3.5152025093987556},{"id":"yew-tee_9555","citySlug":"yew-tee","name":"Museo Local de Yew Tee","category":"historia","lat":1.3886376910261065,"lng":103.74362195805762,"avgVisitMinutes":52,"estimatedCostEur":18,"score":3.4497581018326087},{"id":"yew-tee_4537","citySlug":"yew-tee","name":"Playa Sur","category":"playa","lat":1.3875809726524604,"lng":103.75119452946404,"avgVisitMinutes":35,"estimatedCostEur":15,"score":1.6832845065099193},{"id":"yew-tee_3243","citySlug":"yew-tee","name":"Murallas de Yew Tee","category":"historia","lat":1.389720054484637,"lng":103.74863828399187,"avgVisitMinutes":79,"estimatedCostEur":15,"score":0.6616624396088484},{"id":"yew-tee_4073","citySlug":"yew-tee","name":"Playa Sur","category":"playa","lat":1.4011361695378832,"lng":103.74688710087784,"avgVisitMinutes":54,"estimatedCostEur":25,"score":1.5055190374967136},{"id":"yew-tee_7043","citySlug":"yew-tee","name":"Iglesia de Yew Tee","category":"historia","lat":1.3887858187674125,"lng":103.75253465409844,"avgVisitMinutes":53,"estimatedCostEur":6,"score":4.086560297752191},{"id":"yew-tee_1943","citySlug":"yew-tee","name":"Zona Comercial","category":"ocio","lat":1.396771980998245,"lng":103.74965167906339,"avgVisitMinutes":63,"estimatedCostEur":13,"score":4.28458192577213},{"id":"yew-tee_9195","citySlug":"yew-tee","name":"Castillo de Yew Tee","category":"historia","lat":1.3986672994416804,"lng":103.74273128958541,"avgVisitMinutes":56,"estimatedCostEur":9,"score":1.4849812957527486},{"id":"west-coast-village_6884","citySlug":"west-coast-village","name":"Museo Local de West Coast Village","category":"historia","lat":1.3076047735498266,"lng":103.75648767134736,"avgVisitMinutes":86,"estimatedCostEur":22,"score":4.346374152769802},{"id":"west-coast-village_4302","citySlug":"west-coast-village","name":"Playa Central","category":"playa","lat":1.3215756877839244,"lng":103.74043475852287,"avgVisitMinutes":71,"estimatedCostEur":2,"score":0.8153710017540299},{"id":"west-coast-village_6400","citySlug":"west-coast-village","name":"Galería de Arte","category":"cultura","lat":1.313908847888992,"lng":103.74820544474512,"avgVisitMinutes":81,"estimatedCostEur":7,"score":3.9708205258051996},{"id":"west-coast-village_1031","citySlug":"west-coast-village","name":"Parque Central","category":"ocio","lat":1.3192568198068004,"lng":103.75917667108386,"avgVisitMinutes":25,"estimatedCostEur":21,"score":0.6794841550041095},{"id":"west-coast-village_3032","citySlug":"west-coast-village","name":"Vista Alta de West Coast Village","category":"mirador","lat":1.3242637957157402,"lng":103.74567327789732,"avgVisitMinutes":83,"estimatedCostEur":10,"score":2.244773911500839},{"id":"west-coast-village_4650","citySlug":"west-coast-village","name":"Playa Sur","category":"playa","lat":1.3265921572808737,"lng":103.74602775691481,"avgVisitMinutes":51,"estimatedCostEur":25,"score":3.53074491828954},{"id":"west-coast-village_9439","citySlug":"west-coast-village","name":"Castillo de West Coast Village","category":"historia","lat":1.3254886805665298,"lng":103.74050779827435,"avgVisitMinutes":36,"estimatedCostEur":13,"score":4.6209169060670785},{"id":"west-coast-village_8613","citySlug":"west-coast-village","name":"Murallas de West Coast Village","category":"historia","lat":1.32078013854992,"lng":103.7580313192747,"avgVisitMinutes":80,"estimatedCostEur":8,"score":1.2360981218066753},{"id":"west-coast-village_2996","citySlug":"west-coast-village","name":"Playa Sur","category":"playa","lat":1.3156684527897455,"lng":103.75238667048558,"avgVisitMinutes":46,"estimatedCostEur":23,"score":3.741298549430291},{"id":"ulu-bedok_4955","citySlug":"ulu-bedok","name":"Paseo Principal","category":"ocio","lat":1.3426631323164135,"lng":103.92406810274855,"avgVisitMinutes":58,"estimatedCostEur":21,"score":2.151735556588454},{"id":"ulu-bedok_7528","citySlug":"ulu-bedok","name":"Parque Central","category":"ocio","lat":1.3261778427232336,"lng":103.92664774794608,"avgVisitMinutes":22,"estimatedCostEur":2,"score":1.3630412916108032},{"id":"ulu-bedok_6872","citySlug":"ulu-bedok","name":"Playa Norte","category":"playa","lat":1.3387463473417334,"lng":103.93303416706725,"avgVisitMinutes":84,"estimatedCostEur":6,"score":2.3619974979373053},{"id":"ulu-bedok_3036","citySlug":"ulu-bedok","name":"Murallas de Ulu Bedok","category":"historia","lat":1.3300994552464274,"lng":103.93752694836742,"avgVisitMinutes":81,"estimatedCostEur":8,"score":2.81651525537517},{"id":"ulu-bedok_5646","citySlug":"ulu-bedok","name":"Ruta de Tapas","category":"gastronomia","lat":1.3324207625835316,"lng":103.94269969312776,"avgVisitMinutes":90,"estimatedCostEur":20,"score":2.1205538726485402},{"id":"ulu-bedok_1371","citySlug":"ulu-bedok","name":"Murallas de Ulu Bedok","category":"historia","lat":1.3400348706148748,"lng":103.93182870791325,"avgVisitMinutes":71,"estimatedCostEur":12,"score":1.1418737858374743},{"id":"ulu-bedok_4491","citySlug":"ulu-bedok","name":"Museo Cultural de Ulu Bedok","category":"cultura","lat":1.3277844985103373,"lng":103.92489713548821,"avgVisitMinutes":50,"estimatedCostEur":3,"score":4.2592715666599235},{"id":"ulu-bedok_8294","citySlug":"ulu-bedok","name":"Centro de Arte de Ulu Bedok","category":"cultura","lat":1.3277875105916899,"lng":103.93815858051765,"avgVisitMinutes":89,"estimatedCostEur":14,"score":4.823742781138168},{"id":"ulu-bedok_7825","citySlug":"ulu-bedok","name":"Playa Norte","category":"playa","lat":1.3261882939403422,"lng":103.92446847900105,"avgVisitMinutes":66,"estimatedCostEur":6,"score":1.185369331425445},{"id":"ulu-bedok_3873","citySlug":"ulu-bedok","name":"Playa Norte","category":"playa","lat":1.326077208980206,"lng":103.93286481834832,"avgVisitMinutes":77,"estimatedCostEur":24,"score":3.3165885635017145},{"id":"sungai-simpang_8664","citySlug":"sungai-simpang","name":"Museo Local de Sungai Simpang","category":"historia","lat":1.4377036845571887,"lng":103.82042467328242,"avgVisitMinutes":25,"estimatedCostEur":12,"score":3.0404186719309867},{"id":"sungai-simpang_8032","citySlug":"sungai-simpang","name":"Vista Alta de Sungai Simpang","category":"mirador","lat":1.4317599183502263,"lng":103.83190627998385,"avgVisitMinutes":89,"estimatedCostEur":12,"score":3.4134218640640204},{"id":"sungai-simpang_4583","citySlug":"sungai-simpang","name":"Ruta de Tapas","category":"gastronomia","lat":1.4427296120698228,"lng":103.82421851534224,"avgVisitMinutes":52,"estimatedCostEur":0,"score":0.706254983989898},{"id":"sungai-simpang_3321","citySlug":"sungai-simpang","name":"Museo Local de Sungai Simpang","category":"historia","lat":1.4302751795271655,"lng":103.8356491106188,"avgVisitMinutes":39,"estimatedCostEur":0,"score":3.728458700045634},{"id":"sungai-simpang_5645","citySlug":"sungai-simpang","name":"Punto Panorámico","category":"mirador","lat":1.4362600467364317,"lng":103.8280155613242,"avgVisitMinutes":50,"estimatedCostEur":23,"score":3.668341162970286},{"id":"sungai-simpang_9905","citySlug":"sungai-simpang","name":"Museo Local de Sungai Simpang","category":"historia","lat":1.4411682020895928,"lng":103.82677846736361,"avgVisitMinutes":35,"estimatedCostEur":4,"score":2.374582217216238},{"id":"sungai-simpang_3441","citySlug":"sungai-simpang","name":"Museo Local de Sungai Simpang","category":"historia","lat":1.4304537890574094,"lng":103.8274550008604,"avgVisitMinutes":48,"estimatedCostEur":0,"score":4.329646726447523},{"id":"sungai-simpang_5515","citySlug":"sungai-simpang","name":"Restaurante Típico de Sungai Simpang","category":"gastronomia","lat":1.4302479281147704,"lng":103.83628967896944,"avgVisitMinutes":44,"estimatedCostEur":4,"score":4.868744010452597},{"id":"singapore_4400","citySlug":"singapore","name":"Castillo de Singapore","category":"historia","lat":1.2883704954425295,"lng":103.84306748033052,"avgVisitMinutes":26,"estimatedCostEur":18,"score":2.363800823963293},{"id":"singapore_4040","citySlug":"singapore","name":"Mercado Gastronómico","category":"gastronomia","lat":1.2906168135703673,"lng":103.84333903081993,"avgVisitMinutes":32,"estimatedCostEur":5,"score":1.0391766790285057},{"id":"singapore_5007","citySlug":"singapore","name":"Parque Central","category":"ocio","lat":1.2934155479336982,"lng":103.84331378466898,"avgVisitMinutes":42,"estimatedCostEur":6,"score":2.051073114884998},{"id":"singapore_4947","citySlug":"singapore","name":"Restaurante Típico de Singapore","category":"gastronomia","lat":1.2993027167212137,"lng":103.85526430715989,"avgVisitMinutes":50,"estimatedCostEur":17,"score":3.6953180993012666},{"id":"singapore_3469","citySlug":"singapore","name":"Museo Cultural de Singapore","category":"cultura","lat":1.298586766057078,"lng":103.84536913059469,"avgVisitMinutes":75,"estimatedCostEur":17,"score":4.133748306449892},{"id":"sembawang-estate_9274","citySlug":"sembawang-estate","name":"Museo Cultural de Sembawang Estate","category":"cultura","lat":1.4490119110078508,"lng":103.83330525114327,"avgVisitMinutes":35,"estimatedCostEur":17,"score":1.1992849981255997},{"id":"sembawang-estate_1395","citySlug":"sembawang-estate","name":"Mercado Gastronómico","category":"gastronomia","lat":1.4547617394521208,"lng":103.82190855063305,"avgVisitMinutes":84,"estimatedCostEur":10,"score":1.3236386378422096},{"id":"sembawang-estate_8788","citySlug":"sembawang-estate","name":"Playa Central","category":"playa","lat":1.4545190379251698,"lng":103.82335206135791,"avgVisitMinutes":26,"estimatedCostEur":4,"score":3.3558820838670465},{"id":"sembawang-estate_8012","citySlug":"sembawang-estate","name":"Vista Alta de Sembawang Estate","category":"mirador","lat":1.4450008901899642,"lng":103.83259298340828,"avgVisitMinutes":58,"estimatedCostEur":16,"score":4.510709923776354},{"id":"sembawang-estate_3508","citySlug":"sembawang-estate","name":"Paseo Principal","category":"ocio","lat":1.447057611483702,"lng":103.83110391381176,"avgVisitMinutes":41,"estimatedCostEur":24,"score":2.157202091532352},{"id":"sembawang-estate_3485","citySlug":"sembawang-estate","name":"Murallas de Sembawang Estate","category":"historia","lat":1.4511066068800618,"lng":103.82209926758819,"avgVisitMinutes":73,"estimatedCostEur":9,"score":2.294514543469323},{"id":"sembawang-estate_9885","citySlug":"sembawang-estate","name":"Playa Norte","category":"playa","lat":1.4436511394524942,"lng":103.83447844570749,"avgVisitMinutes":73,"estimatedCostEur":17,"score":1.6236446053212825},{"id":"seletar_5477","citySlug":"seletar","name":"Parque Central","category":"ocio","lat":1.412306748166594,"lng":103.87982090138077,"avgVisitMinutes":48,"estimatedCostEur":7,"score":2.9306475283707174},{"id":"seletar_4221","citySlug":"seletar","name":"Ruta de Tapas","category":"gastronomia","lat":1.4079725521813036,"lng":103.87911409943136,"avgVisitMinutes":71,"estimatedCostEur":17,"score":2.18555548551251},{"id":"seletar_2860","citySlug":"seletar","name":"Playa Norte","category":"playa","lat":1.4164560193666291,"lng":103.86933762606458,"avgVisitMinutes":37,"estimatedCostEur":8,"score":4.2331785884013815},{"id":"seletar_8450","citySlug":"seletar","name":"Mirador de Seletar","category":"mirador","lat":1.40523319351256,"lng":103.86426803369496,"avgVisitMinutes":77,"estimatedCostEur":3,"score":1.4941214829351366},{"id":"seletar_4346","citySlug":"seletar","name":"Vista Alta de Seletar","category":"mirador","lat":1.4016204024293106,"lng":103.88102607596915,"avgVisitMinutes":67,"estimatedCostEur":14,"score":1.104567825635744},{"id":"seletar_2600","citySlug":"seletar","name":"Restaurante Típico de Seletar","category":"gastronomia","lat":1.4097396787998557,"lng":103.86422535269605,"avgVisitMinutes":21,"estimatedCostEur":8,"score":1.1692105089051852},{"id":"seletar_6334","citySlug":"seletar","name":"Centro Histórico","category":"historia","lat":1.4135071830295924,"lng":103.87635622777644,"avgVisitMinutes":38,"estimatedCostEur":8,"score":3.0525808477339003},{"id":"punggol_8049","citySlug":"punggol","name":"Museo Local de Punggol","category":"historia","lat":1.4158639320178164,"lng":103.91210943659193,"avgVisitMinutes":54,"estimatedCostEur":2,"score":2.218695118784053},{"id":"punggol_6719","citySlug":"punggol","name":"Playa Central","category":"playa","lat":1.4152197613462905,"lng":103.90854350507556,"avgVisitMinutes":57,"estimatedCostEur":2,"score":2.8268161788243105},{"id":"punggol_2689","citySlug":"punggol","name":"Centro de Arte de Punggol","category":"cultura","lat":1.411319729313519,"lng":103.91117177555235,"avgVisitMinutes":74,"estimatedCostEur":15,"score":4.007989694653251},{"id":"punggol_1880","citySlug":"punggol","name":"Zona Comercial","category":"ocio","lat":1.4116227733995077,"lng":103.9039662805731,"avgVisitMinutes":89,"estimatedCostEur":25,"score":4.87004718124293},{"id":"punggol_1403","citySlug":"punggol","name":"Vista Alta de Punggol","category":"mirador","lat":1.4120874221509674,"lng":103.91669693144807,"avgVisitMinutes":27,"estimatedCostEur":10,"score":1.6584685277244415},{"id":"punggol_9237","citySlug":"punggol","name":"Restaurante Típico de Punggol","category":"gastronomia","lat":1.4191012432115417,"lng":103.90281813796595,"avgVisitMinutes":43,"estimatedCostEur":15,"score":3.429250690415295},{"id":"punggol_6612","citySlug":"punggol","name":"Galería de Arte","category":"cultura","lat":1.4148859507734335,"lng":103.91363928780783,"avgVisitMinutes":60,"estimatedCostEur":21,"score":2.7617074101730643},{"id":"punggol_3178","citySlug":"punggol","name":"Ruta de Tapas","category":"gastronomia","lat":1.4131975102521175,"lng":103.91137470886518,"avgVisitMinutes":41,"estimatedCostEur":0,"score":2.307391681364308},{"id":"punggol_6197","citySlug":"punggol","name":"Zona Comercial","category":"ocio","lat":1.421759969585336,"lng":103.90395238699755,"avgVisitMinutes":24,"estimatedCostEur":25,"score":1.3404283834743813},{"id":"punggol_8599","citySlug":"punggol","name":"Paseo Principal","category":"ocio","lat":1.4077956130371416,"lng":103.9128695500491,"avgVisitMinutes":74,"estimatedCostEur":12,"score":1.1430018444465728},{"id":"punggol_8890","citySlug":"punggol","name":"Iglesia de Punggol","category":"historia","lat":1.407475385576485,"lng":103.91595245741671,"avgVisitMinutes":29,"estimatedCostEur":6,"score":3.2139022122904133},{"id":"punggol_9590","citySlug":"punggol","name":"Castillo de Punggol","category":"historia","lat":1.4199149729471974,"lng":103.91531536295656,"avgVisitMinutes":83,"estimatedCostEur":21,"score":3.435784198609896},{"id":"matilda-estate_5953","citySlug":"matilda-estate","name":"Murallas de Matilda Estate","category":"historia","lat":1.3896423145599357,"lng":103.90509098534204,"avgVisitMinutes":23,"estimatedCostEur":3,"score":1.4556293298597112},{"id":"matilda-estate_8050","citySlug":"matilda-estate","name":"Restaurante Típico de Matilda Estate","category":"gastronomia","lat":1.3964865105255106,"lng":103.90716650875278,"avgVisitMinutes":71,"estimatedCostEur":18,"score":3.3110534093957735},{"id":"matilda-estate_3574","citySlug":"matilda-estate","name":"Zona Comercial","category":"ocio","lat":1.4023091288261178,"lng":103.90984755546505,"avgVisitMinutes":81,"estimatedCostEur":22,"score":1.0752756901318399},{"id":"matilda-estate_8453","citySlug":"matilda-estate","name":"Parque Central","category":"ocio","lat":1.4015161122682254,"lng":103.89569554022763,"avgVisitMinutes":25,"estimatedCostEur":9,"score":2.580318495426294},{"id":"matilda-estate_8759","citySlug":"matilda-estate","name":"Castillo de Matilda Estate","category":"historia","lat":1.409237238358497,"lng":103.91158375651534,"avgVisitMinutes":61,"estimatedCostEur":14,"score":0.6137467216962094},{"id":"matilda-estate_8820","citySlug":"matilda-estate","name":"Playa Central","category":"playa","lat":1.4028617157257242,"lng":103.90377778776804,"avgVisitMinutes":21,"estimatedCostEur":11,"score":4.26750239776321},{"id":"matilda-estate_5714","citySlug":"matilda-estate","name":"Playa Sur","category":"playa","lat":1.3913072152189714,"lng":103.90564400882772,"avgVisitMinutes":53,"estimatedCostEur":21,"score":0.9430018464832293},{"id":"matilda-estate_4859","citySlug":"matilda-estate","name":"Zona Comercial","category":"ocio","lat":1.3922860413799414,"lng":103.89404795789251,"avgVisitMinutes":76,"estimatedCostEur":22,"score":1.7489457560669681},{"id":"matilda-estate_3461","citySlug":"matilda-estate","name":"Museo Cultural de Matilda Estate","category":"cultura","lat":1.390495717663237,"lng":103.90473783651638,"avgVisitMinutes":79,"estimatedCostEur":8,"score":2.4218462191760115},{"id":"matilda-estate_3194","citySlug":"matilda-estate","name":"Mirador de Matilda Estate","category":"mirador","lat":1.402913124687371,"lng":103.90950094466571,"avgVisitMinutes":88,"estimatedCostEur":3,"score":3.326104418501001},{"id":"matilda-estate_1545","citySlug":"matilda-estate","name":"Restaurante Típico de Matilda Estate","category":"gastronomia","lat":1.3990262463333418,"lng":103.8997829978505,"avgVisitMinutes":40,"estimatedCostEur":13,"score":3.4423676346959273},{"id":"matilda-estate_5819","citySlug":"matilda-estate","name":"Centro de Arte de Matilda Estate","category":"cultura","lat":1.4062342225797417,"lng":103.90845509766886,"avgVisitMinutes":44,"estimatedCostEur":2,"score":1.9565475397289505},{"id":"marsiling_1464","citySlug":"marsiling","name":"Parque Central","category":"ocio","lat":1.4286450359484102,"lng":103.77637194566056,"avgVisitMinutes":87,"estimatedCostEur":21,"score":1.0863702084930904},{"id":"marsiling_9028","citySlug":"marsiling","name":"Centro de Arte de Marsiling","category":"cultura","lat":1.425858908196693,"lng":103.78354422189251,"avgVisitMinutes":86,"estimatedCostEur":18,"score":1.0293413003309766},{"id":"marsiling_3550","citySlug":"marsiling","name":"Parque Central","category":"ocio","lat":1.4351702895488967,"lng":103.7729917542788,"avgVisitMinutes":60,"estimatedCostEur":0,"score":2.316761608808627},{"id":"marsiling_6122","citySlug":"marsiling","name":"Vista Alta de Marsiling","category":"mirador","lat":1.4269849960850052,"lng":103.77852497710565,"avgVisitMinutes":72,"estimatedCostEur":9,"score":2.098240230342565},{"id":"marsiling_5783","citySlug":"marsiling","name":"Centro Histórico","category":"historia","lat":1.434952158653198,"lng":103.77893244332886,"avgVisitMinutes":36,"estimatedCostEur":3,"score":1.5818426151835692},{"id":"marsiling_2219","citySlug":"marsiling","name":"Playa Sur","category":"playa","lat":1.4226025563523832,"lng":103.77587909930153,"avgVisitMinutes":51,"estimatedCostEur":6,"score":4.775641651368309},{"id":"marsiling_5011","citySlug":"marsiling","name":"Mercado Gastronómico","category":"gastronomia","lat":1.4401774861507823,"lng":103.77480572181022,"avgVisitMinutes":75,"estimatedCostEur":1,"score":4.860935570721025},{"id":"marsiling_7189","citySlug":"marsiling","name":"Ruta de Tapas","category":"gastronomia","lat":1.4309738466358655,"lng":103.7724467240619,"avgVisitMinutes":49,"estimatedCostEur":2,"score":4.096464745640908},{"id":"marsiling_2868","citySlug":"marsiling","name":"Mercado Gastronómico","category":"gastronomia","lat":1.4263515444246433,"lng":103.76957789370472,"avgVisitMinutes":38,"estimatedCostEur":3,"score":4.981243421861684},{"id":"marsiling_5177","citySlug":"marsiling","name":"Playa Central","category":"playa","lat":1.4397344025584933,"lng":103.76613705908407,"avgVisitMinutes":80,"estimatedCostEur":6,"score":2.5828269568185886},{"id":"marsiling_7213","citySlug":"marsiling","name":"Punto Panorámico","category":"mirador","lat":1.429482513970906,"lng":103.77730565207438,"avgVisitMinutes":38,"estimatedCostEur":15,"score":3.817775792683387},{"id":"marsiling_2566","citySlug":"marsiling","name":"Punto Panorámico","category":"mirador","lat":1.4304603298139862,"lng":103.77901554486127,"avgVisitMinutes":40,"estimatedCostEur":17,"score":1.597739090172294},{"id":"lam-san-village_4965","citySlug":"lam-san-village","name":"Museo Cultural de Lam San Village","category":"cultura","lat":1.3803298061652258,"lng":103.73680557553767,"avgVisitMinutes":71,"estimatedCostEur":7,"score":4.856905551223084},{"id":"lam-san-village_7671","citySlug":"lam-san-village","name":"Iglesia de Lam San Village","category":"historia","lat":1.37015887234994,"lng":103.73742552614605,"avgVisitMinutes":52,"estimatedCostEur":8,"score":0.7605497323613241},{"id":"lam-san-village_7295","citySlug":"lam-san-village","name":"Restaurante Típico de Lam San Village","category":"gastronomia","lat":1.3828905895892896,"lng":103.73473988571365,"avgVisitMinutes":37,"estimatedCostEur":17,"score":4.836024755777963},{"id":"lam-san-village_6491","citySlug":"lam-san-village","name":"Museo Cultural de Lam San Village","category":"cultura","lat":1.383692463041846,"lng":103.73496834682327,"avgVisitMinutes":26,"estimatedCostEur":1,"score":1.0435520157999858},{"id":"lam-san-village_8322","citySlug":"lam-san-village","name":"Teatro Municipal","category":"cultura","lat":1.3720742692019716,"lng":103.7359906551919,"avgVisitMinutes":21,"estimatedCostEur":17,"score":4.678217285189747},{"id":"lam-san-village_2595","citySlug":"lam-san-village","name":"Ruta de Tapas","category":"gastronomia","lat":1.3797767555517748,"lng":103.73800869755257,"avgVisitMinutes":88,"estimatedCostEur":13,"score":3.3057830093950162},{"id":"lam-san-village_8759","citySlug":"lam-san-village","name":"Playa Central","category":"playa","lat":1.3684630804683735,"lng":103.72436068811542,"avgVisitMinutes":41,"estimatedCostEur":16,"score":4.509324376047566},{"id":"lam-san-village_4417","citySlug":"lam-san-village","name":"Ruta de Tapas","category":"gastronomia","lat":1.377483447616312,"lng":103.73097328713175,"avgVisitMinutes":81,"estimatedCostEur":24,"score":1.4203820283218538},{"id":"keat-hong-village_9334","citySlug":"keat-hong-village","name":"Playa Sur","category":"playa","lat":1.3796950832943493,"lng":103.73536086001532,"avgVisitMinutes":31,"estimatedCostEur":1,"score":4.009478109606825},{"id":"keat-hong-village_1008","citySlug":"keat-hong-village","name":"Restaurante Típico de Keat Hong Village","category":"gastronomia","lat":1.3728151763342948,"lng":103.73426411222903,"avgVisitMinutes":54,"estimatedCostEur":6,"score":1.9038408604529267},{"id":"keat-hong-village_2751","citySlug":"keat-hong-village","name":"Playa Sur","category":"playa","lat":1.3797703534658856,"lng":103.74530346115873,"avgVisitMinutes":47,"estimatedCostEur":17,"score":4.652807157876045},{"id":"keat-hong-village_4410","citySlug":"keat-hong-village","name":"Playa Central","category":"playa","lat":1.379135243210196,"lng":103.73866256354516,"avgVisitMinutes":59,"estimatedCostEur":23,"score":1.761774453877018},{"id":"keat-hong-village_9136","citySlug":"keat-hong-village","name":"Playa Central","category":"playa","lat":1.3791242142794198,"lng":103.75325959683148,"avgVisitMinutes":69,"estimatedCostEur":22,"score":1.377291264985794},{"id":"keat-hong-village_2057","citySlug":"keat-hong-village","name":"Zona Comercial","category":"ocio","lat":1.3713512981698985,"lng":103.74463694266554,"avgVisitMinutes":82,"estimatedCostEur":11,"score":1.7065401726779261},{"id":"keat-hong-village_6832","citySlug":"keat-hong-village","name":"Murallas de Keat Hong Village","category":"historia","lat":1.374878004183169,"lng":103.75110073879239,"avgVisitMinutes":70,"estimatedCostEur":11,"score":2.17145032406766},{"id":"keat-hong-village_1677","citySlug":"keat-hong-village","name":"Vista Alta de Keat Hong Village","category":"mirador","lat":1.3865484867014144,"lng":103.74589374528055,"avgVisitMinutes":35,"estimatedCostEur":14,"score":3.573208029965744},{"id":"keat-hong-village_6505","citySlug":"keat-hong-village","name":"Castillo de Keat Hong Village","category":"historia","lat":1.381684876653154,"lng":103.74980967959603,"avgVisitMinutes":82,"estimatedCostEur":24,"score":1.2312308374246044},{"id":"keat-hong-village_1339","citySlug":"keat-hong-village","name":"Museo Cultural de Keat Hong Village","category":"cultura","lat":1.3685236418539,"lng":103.74589202344393,"avgVisitMinutes":72,"estimatedCostEur":17,"score":2.8416705696339646},{"id":"keat-hong-village_7801","citySlug":"keat-hong-village","name":"Playa Sur","category":"playa","lat":1.3729491934481037,"lng":103.7513806077225,"avgVisitMinutes":35,"estimatedCostEur":14,"score":1.1244536287062132},{"id":"keat-hong-village_3736","citySlug":"keat-hong-village","name":"Murallas de Keat Hong Village","category":"historia","lat":1.3792211717112026,"lng":103.74847601972694,"avgVisitMinutes":37,"estimatedCostEur":4,"score":4.8147592217546595},{"id":"kampong-ubi_5477","citySlug":"kampong-ubi","name":"Mercado Gastronómico","category":"gastronomia","lat":1.3132431338938033,"lng":103.90544856232069,"avgVisitMinutes":33,"estimatedCostEur":10,"score":4.604387992477779},{"id":"kampong-ubi_8837","citySlug":"kampong-ubi","name":"Ruta de Tapas","category":"gastronomia","lat":1.3196103122689455,"lng":103.89075654767673,"avgVisitMinutes":35,"estimatedCostEur":17,"score":1.54196021491906},{"id":"kampong-ubi_6544","citySlug":"kampong-ubi","name":"Restaurante Típico de Kampong Ubi","category":"gastronomia","lat":1.314318349503288,"lng":103.9091111197564,"avgVisitMinutes":78,"estimatedCostEur":1,"score":3.906361870939834},{"id":"kampong-ubi_9533","citySlug":"kampong-ubi","name":"Centro Histórico","category":"historia","lat":1.3077280897402674,"lng":103.89544608612056,"avgVisitMinutes":57,"estimatedCostEur":7,"score":2.833797184375168},{"id":"kampong-ubi_1802","citySlug":"kampong-ubi","name":"Museo Cultural de Kampong Ubi","category":"cultura","lat":1.313191135791138,"lng":103.89021283072273,"avgVisitMinutes":39,"estimatedCostEur":24,"score":0.9507322849430475},{"id":"kampong-ubi_7040","citySlug":"kampong-ubi","name":"Punto Panorámico","category":"mirador","lat":1.3187137005161058,"lng":103.90655727239918,"avgVisitMinutes":26,"estimatedCostEur":10,"score":3.810385460750614},{"id":"kampong-ubi_4169","citySlug":"kampong-ubi","name":"Playa Norte","category":"playa","lat":1.3105624023755562,"lng":103.89389771538028,"avgVisitMinutes":84,"estimatedCostEur":4,"score":3.3074016757835234},{"id":"kampong-ubi_9057","citySlug":"kampong-ubi","name":"Zona Comercial","category":"ocio","lat":1.3088310421113507,"lng":103.89180704402892,"avgVisitMinutes":83,"estimatedCostEur":2,"score":4.583015376409087},{"id":"kampong-pasir-ris_1548","citySlug":"kampong-pasir-ris","name":"Vista Alta de Kampong Pasir Ris","category":"mirador","lat":1.386669918160105,"lng":103.92651714597078,"avgVisitMinutes":74,"estimatedCostEur":11,"score":2.450453343871666},{"id":"kampong-pasir-ris_6321","citySlug":"kampong-pasir-ris","name":"Teatro Municipal","category":"cultura","lat":1.3763430784365724,"lng":103.94028642381491,"avgVisitMinutes":58,"estimatedCostEur":2,"score":4.355892684610948},{"id":"kampong-pasir-ris_1882","citySlug":"kampong-pasir-ris","name":"Playa Sur","category":"playa","lat":1.3764953174993566,"lng":103.93913658870395,"avgVisitMinutes":28,"estimatedCostEur":8,"score":1.72837238134019},{"id":"kampong-pasir-ris_4210","citySlug":"kampong-pasir-ris","name":"Castillo de Kampong Pasir Ris","category":"historia","lat":1.3811503660448632,"lng":103.93322632194702,"avgVisitMinutes":51,"estimatedCostEur":16,"score":0.6568315789953527},{"id":"kampong-pasir-ris_6141","citySlug":"kampong-pasir-ris","name":"Playa Sur","category":"playa","lat":1.37489869411234,"lng":103.93184711673638,"avgVisitMinutes":37,"estimatedCostEur":0,"score":1.3616935351092874},{"id":"kampong-pasir-ris_8550","citySlug":"kampong-pasir-ris","name":"Teatro Municipal","category":"cultura","lat":1.3844793530109667,"lng":103.92441390638291,"avgVisitMinutes":75,"estimatedCostEur":8,"score":2.820796741459298},{"id":"kampong-pasir-ris_5312","citySlug":"kampong-pasir-ris","name":"Centro Histórico","category":"historia","lat":1.3767614769616443,"lng":103.92533269992931,"avgVisitMinutes":89,"estimatedCostEur":17,"score":4.698383442172116},{"id":"kampong-pasir-ris_6438","citySlug":"kampong-pasir-ris","name":"Paseo Principal","category":"ocio","lat":1.3777665969949349,"lng":103.92386274886422,"avgVisitMinutes":41,"estimatedCostEur":20,"score":4.859537493325994},{"id":"kampong-pasir-ris_2574","citySlug":"kampong-pasir-ris","name":"Museo Cultural de Kampong Pasir Ris","category":"cultura","lat":1.3840642593148766,"lng":103.92729223710035,"avgVisitMinutes":76,"estimatedCostEur":16,"score":4.2925489099849745},{"id":"kampong-loyang_2612","citySlug":"kampong-loyang","name":"Museo Local de Kampong Loyang","category":"historia","lat":1.3695772602916039,"lng":103.95571223542248,"avgVisitMinutes":57,"estimatedCostEur":13,"score":1.032661160581251},{"id":"kampong-loyang_6335","citySlug":"kampong-loyang","name":"Mercado Gastronómico","category":"gastronomia","lat":1.3740932815521345,"lng":103.96826634320603,"avgVisitMinutes":68,"estimatedCostEur":23,"score":2.657179073169631},{"id":"kampong-loyang_7884","citySlug":"kampong-loyang","name":"Teatro Municipal","category":"cultura","lat":1.376487194077704,"lng":103.95363404655062,"avgVisitMinutes":76,"estimatedCostEur":16,"score":3.0324156181604014},{"id":"kampong-loyang_7347","citySlug":"kampong-loyang","name":"Paseo Principal","category":"ocio","lat":1.3738790837058723,"lng":103.96837346448471,"avgVisitMinutes":31,"estimatedCostEur":10,"score":0.6868266486157648},{"id":"kampong-loyang_9454","citySlug":"kampong-loyang","name":"Parque Central","category":"ocio","lat":1.3709340365694047,"lng":103.96212701880731,"avgVisitMinutes":75,"estimatedCostEur":16,"score":1.7578538382551292},{"id":"kampong-loyang_2185","citySlug":"kampong-loyang","name":"Murallas de Kampong Loyang","category":"historia","lat":1.3817899149287993,"lng":103.95202966081432,"avgVisitMinutes":59,"estimatedCostEur":21,"score":4.626855661332983},{"id":"kampong-loyang_6259","citySlug":"kampong-loyang","name":"Playa Sur","category":"playa","lat":1.37716397737553,"lng":103.95293565143497,"avgVisitMinutes":21,"estimatedCostEur":1,"score":1.9269139001803373},{"id":"kampong-loyang_3837","citySlug":"kampong-loyang","name":"Teatro Municipal","category":"cultura","lat":1.3738454143012369,"lng":103.96787293268675,"avgVisitMinutes":27,"estimatedCostEur":8,"score":3.0112354391377965},{"id":"kampong-loyang_1354","citySlug":"kampong-loyang","name":"Playa Sur","category":"playa","lat":1.3710953189301092,"lng":103.95546904350522,"avgVisitMinutes":88,"estimatedCostEur":16,"score":4.281515129255648},{"id":"kampong-loyang_4980","citySlug":"kampong-loyang","name":"Playa Central","category":"playa","lat":1.3779341028981722,"lng":103.95123353199659,"avgVisitMinutes":23,"estimatedCostEur":4,"score":1.5793597682160958},{"id":"kampong-loyang_9913","citySlug":"kampong-loyang","name":"Zona Comercial","category":"ocio","lat":1.3723535462190268,"lng":103.95920841938157,"avgVisitMinutes":75,"estimatedCostEur":3,"score":3.7550866028439422},{"id":"kampong-java-teban_5087","citySlug":"kampong-java-teban","name":"Restaurante Típico de Kampong Java Teban","category":"gastronomia","lat":1.336119585376486,"lng":103.73761472162583,"avgVisitMinutes":24,"estimatedCostEur":4,"score":2.6821396860723183},{"id":"kampong-java-teban_2418","citySlug":"kampong-java-teban","name":"Parque Central","category":"ocio","lat":1.341391109977563,"lng":103.73233079619666,"avgVisitMinutes":60,"estimatedCostEur":0,"score":1.4727446757114353},{"id":"kampong-java-teban_4989","citySlug":"kampong-java-teban","name":"Playa Norte","category":"playa","lat":1.3370413245185002,"lng":103.73046628647198,"avgVisitMinutes":41,"estimatedCostEur":1,"score":4.441674987434542},{"id":"kampong-java-teban_2375","citySlug":"kampong-java-teban","name":"Museo Cultural de Kampong Java Teban","category":"cultura","lat":1.3332525148478533,"lng":103.72837976535997,"avgVisitMinutes":23,"estimatedCostEur":6,"score":4.917218093885622},{"id":"kampong-java-teban_2781","citySlug":"kampong-java-teban","name":"Centro de Arte de Kampong Java Teban","category":"cultura","lat":1.3251742566968403,"lng":103.73559795701071,"avgVisitMinutes":45,"estimatedCostEur":18,"score":3.2362453150639214},{"id":"kampong-java-teban_4835","citySlug":"kampong-java-teban","name":"Restaurante Típico de Kampong Java Teban","category":"gastronomia","lat":1.3256095218472352,"lng":103.72850240131234,"avgVisitMinutes":67,"estimatedCostEur":5,"score":1.5307244570084007},{"id":"kampong-java-teban_9363","citySlug":"kampong-java-teban","name":"Playa Norte","category":"playa","lat":1.328573693868969,"lng":103.72991199501587,"avgVisitMinutes":53,"estimatedCostEur":25,"score":4.425291766220557},{"id":"kampong-java-teban_7092","citySlug":"kampong-java-teban","name":"Iglesia de Kampong Java Teban","category":"historia","lat":1.3351015049896071,"lng":103.7265610576495,"avgVisitMinutes":28,"estimatedCostEur":11,"score":4.710410322320453},{"id":"chia-keng_6989","citySlug":"chia-keng","name":"Playa Norte","category":"playa","lat":1.3650867035151824,"lng":103.89349432908587,"avgVisitMinutes":47,"estimatedCostEur":8,"score":2.2171753368303557},{"id":"chia-keng_5559","citySlug":"chia-keng","name":"Playa Norte","category":"playa","lat":1.3646315903750244,"lng":103.8859941379946,"avgVisitMinutes":49,"estimatedCostEur":15,"score":3.1697374206779325},{"id":"chia-keng_9704","citySlug":"chia-keng","name":"Playa Sur","category":"playa","lat":1.3583587935231836,"lng":103.8927771020367,"avgVisitMinutes":38,"estimatedCostEur":10,"score":4.764376943530834},{"id":"chia-keng_1312","citySlug":"chia-keng","name":"Mirador de Chia Keng","category":"mirador","lat":1.3668868746612874,"lng":103.89736566285562,"avgVisitMinutes":48,"estimatedCostEur":8,"score":1.658653820000475},{"id":"chia-keng_5068","citySlug":"chia-keng","name":"Zona Comercial","category":"ocio","lat":1.3520154946500949,"lng":103.88623808740006,"avgVisitMinutes":84,"estimatedCostEur":23,"score":2.9969168665878767},{"id":"chia-keng_4003","citySlug":"chia-keng","name":"Mercado Gastronómico","category":"gastronomia","lat":1.3589303120578176,"lng":103.88551087369558,"avgVisitMinutes":39,"estimatedCostEur":11,"score":2.5564792401176684},{"id":"chia-keng_6585","citySlug":"chia-keng","name":"Mercado Gastronómico","category":"gastronomia","lat":1.3647384777524059,"lng":103.89312409563689,"avgVisitMinutes":57,"estimatedCostEur":9,"score":2.2111714717980666},{"id":"chia-keng_7005","citySlug":"chia-keng","name":"Centro Histórico","category":"historia","lat":1.3558289844506206,"lng":103.89637408933011,"avgVisitMinutes":88,"estimatedCostEur":1,"score":0.7016192094933378},{"id":"changi-village_8735","citySlug":"changi-village","name":"Ruta de Tapas","category":"gastronomia","lat":1.382381925003065,"lng":103.9867892009783,"avgVisitMinutes":89,"estimatedCostEur":20,"score":3.7898571944744797},{"id":"changi-village_7842","citySlug":"changi-village","name":"Playa Central","category":"playa","lat":1.392082012214337,"lng":103.9944565416585,"avgVisitMinutes":53,"estimatedCostEur":14,"score":3.724171748770155},{"id":"changi-village_2182","citySlug":"changi-village","name":"Galería de Arte","category":"cultura","lat":1.3880506854191272,"lng":103.98498050225041,"avgVisitMinutes":34,"estimatedCostEur":3,"score":2.099598423848886},{"id":"changi-village_7523","citySlug":"changi-village","name":"Playa Sur","category":"playa","lat":1.398787409852143,"lng":103.97921344439266,"avgVisitMinutes":70,"estimatedCostEur":9,"score":2.29989477028936},{"id":"changi-village_8463","citySlug":"changi-village","name":"Museo Local de Changi Village","category":"historia","lat":1.3833012323370901,"lng":103.97846259174389,"avgVisitMinutes":71,"estimatedCostEur":7,"score":0.6941396919383043},{"id":"changi-village_3118","citySlug":"changi-village","name":"Restaurante Típico de Changi Village","category":"gastronomia","lat":1.3899961585411085,"lng":103.97870838629149,"avgVisitMinutes":63,"estimatedCostEur":23,"score":1.0738344916605143},{"id":"bukit-timah_1555","citySlug":"bukit-timah","name":"Castillo de Bukit Timah","category":"historia","lat":1.326337978249808,"lng":103.79992911217961,"avgVisitMinutes":81,"estimatedCostEur":4,"score":1.464992345317069},{"id":"bukit-timah_1464","citySlug":"bukit-timah","name":"Restaurante Típico de Bukit Timah","category":"gastronomia","lat":1.325835215072527,"lng":103.79755756888703,"avgVisitMinutes":24,"estimatedCostEur":6,"score":2.0700205227446755},{"id":"bukit-timah_4119","citySlug":"bukit-timah","name":"Parque Central","category":"ocio","lat":1.322644658866652,"lng":103.78982054099089,"avgVisitMinutes":55,"estimatedCostEur":11,"score":3.0807747171971385},{"id":"bukit-timah_4042","citySlug":"bukit-timah","name":"Iglesia de Bukit Timah","category":"historia","lat":1.3250487742391905,"lng":103.79868097195217,"avgVisitMinutes":76,"estimatedCostEur":6,"score":3.4427998572009764},{"id":"bukit-timah_6648","citySlug":"bukit-timah","name":"Vista Alta de Bukit Timah","category":"mirador","lat":1.335983513636,"lng":103.79029110474583,"avgVisitMinutes":37,"estimatedCostEur":21,"score":4.456204216602298},{"id":"bukit-timah_1023","citySlug":"bukit-timah","name":"Ruta de Tapas","category":"gastronomia","lat":1.329149721316717,"lng":103.78598273918176,"avgVisitMinutes":88,"estimatedCostEur":9,"score":2.4573703989910607},{"id":"bukit-timah_4737","citySlug":"bukit-timah","name":"Playa Sur","category":"playa","lat":1.323637775988267,"lng":103.7934969056288,"avgVisitMinutes":57,"estimatedCostEur":5,"score":2.693965696412511},{"id":"bukit-mandai-village_5245","citySlug":"bukit-mandai-village","name":"Restaurante Típico de Bukit Mandai Village","category":"gastronomia","lat":1.4132188080819144,"lng":103.76436102079832,"avgVisitMinutes":89,"estimatedCostEur":0,"score":0.6279595359890893},{"id":"bukit-mandai-village_2651","citySlug":"bukit-mandai-village","name":"Playa Central","category":"playa","lat":1.4124499300379134,"lng":103.75455549649962,"avgVisitMinutes":45,"estimatedCostEur":14,"score":4.077924674238485},{"id":"bukit-mandai-village_5950","citySlug":"bukit-mandai-village","name":"Vista Alta de Bukit Mandai Village","category":"mirador","lat":1.40964929077469,"lng":103.76469584369619,"avgVisitMinutes":30,"estimatedCostEur":14,"score":2.970796983741416},{"id":"bukit-mandai-village_8477","citySlug":"bukit-mandai-village","name":"Teatro Municipal","category":"cultura","lat":1.415593964833545,"lng":103.7639981529005,"avgVisitMinutes":84,"estimatedCostEur":22,"score":2.3532368130578885},{"id":"bukit-mandai-village_5453","citySlug":"bukit-mandai-village","name":"Ruta de Tapas","category":"gastronomia","lat":1.408150417390348,"lng":103.76105578848254,"avgVisitMinutes":49,"estimatedCostEur":25,"score":4.232141669033677},{"id":"bukit-mandai-village_1022","citySlug":"bukit-mandai-village","name":"Parque Central","category":"ocio","lat":1.402386295437221,"lng":103.74981333588448,"avgVisitMinutes":63,"estimatedCostEur":23,"score":2.9373664040524607},{"id":"bukit-mandai-village_5654","citySlug":"bukit-mandai-village","name":"Teatro Municipal","category":"cultura","lat":1.4135683960085483,"lng":103.76073305865243,"avgVisitMinutes":67,"estimatedCostEur":3,"score":2.6571022094352688},{"id":"bukit-mandai-village_7243","citySlug":"bukit-mandai-village","name":"Mirador de Bukit Mandai Village","category":"mirador","lat":1.4050954881901794,"lng":103.76567470026637,"avgVisitMinutes":54,"estimatedCostEur":7,"score":4.07515689429294},{"id":"bukit-mandai-village_1340","citySlug":"bukit-mandai-village","name":"Mercado Gastronómico","category":"gastronomia","lat":1.4078760123764016,"lng":103.7566104225764,"avgVisitMinutes":86,"estimatedCostEur":12,"score":4.780878435235433},{"id":"bukit-mandai-village_1675","citySlug":"bukit-mandai-village","name":"Museo Cultural de Bukit Mandai Village","category":"cultura","lat":1.4188925900464098,"lng":103.7473760049801,"avgVisitMinutes":32,"estimatedCostEur":4,"score":2.050808613960105},{"id":"bukit-mandai-village_7613","citySlug":"bukit-mandai-village","name":"Museo Local de Bukit Mandai Village","category":"historia","lat":1.4182221347727488,"lng":103.7486846203381,"avgVisitMinutes":35,"estimatedCostEur":22,"score":4.4919448295569415},{"id":"boon-lay_8785","citySlug":"boon-lay","name":"Centro Histórico","category":"historia","lat":1.3144397658238844,"lng":103.69602366807285,"avgVisitMinutes":65,"estimatedCostEur":19,"score":0.9433594557379359},{"id":"boon-lay_1322","citySlug":"boon-lay","name":"Murallas de Boon Lay","category":"historia","lat":1.3134270748427692,"lng":103.69895222920319,"avgVisitMinutes":84,"estimatedCostEur":19,"score":4.914786540029386},{"id":"boon-lay_5825","citySlug":"boon-lay","name":"Castillo de Boon Lay","category":"historia","lat":1.3120782188551487,"lng":103.69632458082884,"avgVisitMinutes":85,"estimatedCostEur":3,"score":2.322492762548289},{"id":"boon-lay_6369","citySlug":"boon-lay","name":"Punto Panorámico","category":"mirador","lat":1.3060986129951124,"lng":103.69278171644164,"avgVisitMinutes":30,"estimatedCostEur":15,"score":0.6603213252639333},{"id":"boon-lay_6689","citySlug":"boon-lay","name":"Playa Central","category":"playa","lat":1.311454482427715,"lng":103.69717917266108,"avgVisitMinutes":24,"estimatedCostEur":1,"score":4.3103520218809415},{"id":"boon-lay_4248","citySlug":"boon-lay","name":"Ruta de Tapas","category":"gastronomia","lat":1.3131878556514784,"lng":103.69598954890476,"avgVisitMinutes":57,"estimatedCostEur":21,"score":2.007773693618023},{"id":"jurong-east_8418","citySlug":"jurong-east","name":"Playa Central","category":"playa","lat":1.3281568240853467,"lng":103.74269940001177,"avgVisitMinutes":63,"estimatedCostEur":14,"score":1.5732772938104214},{"id":"jurong-east_7368","citySlug":"jurong-east","name":"Playa Sur","category":"playa","lat":1.3280462127676158,"lng":103.73312033882797,"avgVisitMinutes":47,"estimatedCostEur":18,"score":0.5701958221255379},{"id":"jurong-east_2963","citySlug":"jurong-east","name":"Vista Alta de Jurong East","category":"mirador","lat":1.3247109617535198,"lng":103.73793736991342,"avgVisitMinutes":25,"estimatedCostEur":13,"score":2.6628890068420334},{"id":"jurong-east_2293","citySlug":"jurong-east","name":"Paseo Principal","category":"ocio","lat":1.3368343981926556,"lng":103.7426734104211,"avgVisitMinutes":78,"estimatedCostEur":17,"score":3.4718363428306223},{"id":"jurong-east_3738","citySlug":"jurong-east","name":"Vista Alta de Jurong East","category":"mirador","lat":1.3191675883410408,"lng":103.73691472301466,"avgVisitMinutes":78,"estimatedCostEur":4,"score":2.098499075062231},{"id":"jurong-east_6483","citySlug":"jurong-east","name":"Mercado Gastronómico","category":"gastronomia","lat":1.3313535210130274,"lng":103.74811277548119,"avgVisitMinutes":78,"estimatedCostEur":21,"score":0.7132130968076886},{"id":"jurong-east_5447","citySlug":"jurong-east","name":"Centro Histórico","category":"historia","lat":1.3300891263165366,"lng":103.7496095313034,"avgVisitMinutes":36,"estimatedCostEur":20,"score":1.8221702124788308},{"id":"jurong-town_8471","citySlug":"jurong-town","name":"Vista Alta de Jurong Town","category":"mirador","lat":1.3251058577811354,"lng":103.72347515098848,"avgVisitMinutes":60,"estimatedCostEur":22,"score":1.8974423026109086},{"id":"jurong-town_3706","citySlug":"jurong-town","name":"Teatro Municipal","category":"cultura","lat":1.3310815587740195,"lng":103.72040247915906,"avgVisitMinutes":68,"estimatedCostEur":25,"score":3.2369587995975886},{"id":"jurong-town_5729","citySlug":"jurong-town","name":"Vista Alta de Jurong Town","category":"mirador","lat":1.3416833527894068,"lng":103.72536084248812,"avgVisitMinutes":61,"estimatedCostEur":10,"score":2.469889958564506},{"id":"jurong-town_7343","citySlug":"jurong-town","name":"Parque Central","category":"ocio","lat":1.3323123542324686,"lng":103.73118705182387,"avgVisitMinutes":69,"estimatedCostEur":2,"score":2.9781221043431367},{"id":"jurong-town_9990","citySlug":"jurong-town","name":"Centro Histórico","category":"historia","lat":1.3258662797218048,"lng":103.71933549888439,"avgVisitMinutes":78,"estimatedCostEur":12,"score":3.304735894819454},{"id":"jurong-town_2750","citySlug":"jurong-town","name":"Punto Panorámico","category":"mirador","lat":1.3363644524876623,"lng":103.72178736102431,"avgVisitMinutes":29,"estimatedCostEur":17,"score":2.931874574835914},{"id":"jurong-town_9384","citySlug":"jurong-town","name":"Playa Norte","category":"playa","lat":1.3423752380866272,"lng":103.72631095252856,"avgVisitMinutes":24,"estimatedCostEur":23,"score":0.7227108874176356},{"id":"jurong-town_5399","citySlug":"jurong-town","name":"Playa Central","category":"playa","lat":1.332109724624859,"lng":103.72031971951473,"avgVisitMinutes":21,"estimatedCostEur":18,"score":4.1138169732615},{"id":"jurong-town_9903","citySlug":"jurong-town","name":"Ruta de Tapas","category":"gastronomia","lat":1.324192431519,"lng":103.71987489008897,"avgVisitMinutes":81,"estimatedCostEur":0,"score":3.6594356686790275},{"id":"jurong-west_5958","citySlug":"jurong-west","name":"Galería de Arte","category":"cultura","lat":1.3549422887873226,"lng":103.72032340176577,"avgVisitMinutes":33,"estimatedCostEur":22,"score":1.6336440832040626},{"id":"jurong-west_1193","citySlug":"jurong-west","name":"Restaurante Típico de Jurong West","category":"gastronomia","lat":1.352092132180597,"lng":103.7218675635965,"avgVisitMinutes":26,"estimatedCostEur":17,"score":0.8766016197998594},{"id":"jurong-west_9611","citySlug":"jurong-west","name":"Playa Central","category":"playa","lat":1.3426912617412958,"lng":103.71864362647352,"avgVisitMinutes":39,"estimatedCostEur":4,"score":2.4700658161209774},{"id":"jurong-west_4312","citySlug":"jurong-west","name":"Centro de Arte de Jurong West","category":"cultura","lat":1.3501133179412697,"lng":103.72125480787149,"avgVisitMinutes":46,"estimatedCostEur":1,"score":0.7738504830795758},{"id":"jurong-west_8915","citySlug":"jurong-west","name":"Centro de Arte de Jurong West","category":"cultura","lat":1.3482081564823722,"lng":103.71450224061756,"avgVisitMinutes":47,"estimatedCostEur":12,"score":1.5139003165943643},{"id":"jurong-west_3517","citySlug":"jurong-west","name":"Playa Central","category":"playa","lat":1.348899359752343,"lng":103.72837899570871,"avgVisitMinutes":68,"estimatedCostEur":5,"score":2.2862945194809985},{"id":"macpherson_3038","citySlug":"macpherson","name":"Castillo de MacPherson","category":"historia","lat":1.3275103093582943,"lng":103.89209960711975,"avgVisitMinutes":60,"estimatedCostEur":21,"score":2.4927449194394895},{"id":"macpherson_5697","citySlug":"macpherson","name":"Playa Central","category":"playa","lat":1.328802950221356,"lng":103.88710847813203,"avgVisitMinutes":72,"estimatedCostEur":18,"score":1.1480688349669461},{"id":"macpherson_1171","citySlug":"macpherson","name":"Mercado Gastronómico","category":"gastronomia","lat":1.3320933095462375,"lng":103.87475350811648,"avgVisitMinutes":85,"estimatedCostEur":20,"score":1.882511060381558},{"id":"macpherson_1426","citySlug":"macpherson","name":"Ruta de Tapas","category":"gastronomia","lat":1.336228627238748,"lng":103.89293398966974,"avgVisitMinutes":74,"estimatedCostEur":6,"score":4.865601535687873},{"id":"macpherson_9726","citySlug":"macpherson","name":"Parque Central","category":"ocio","lat":1.3346281716394504,"lng":103.89339972432076,"avgVisitMinutes":41,"estimatedCostEur":8,"score":2.732917165516784},{"id":"macpherson_2745","citySlug":"macpherson","name":"Centro de Arte de MacPherson","category":"cultura","lat":1.3302512428950322,"lng":103.88540769201462,"avgVisitMinutes":35,"estimatedCostEur":18,"score":2.8747017560563406},{"id":"macpherson_3957","citySlug":"macpherson","name":"Teatro Municipal","category":"cultura","lat":1.3209069486315648,"lng":103.88207584690791,"avgVisitMinutes":46,"estimatedCostEur":6,"score":4.189364682593882},{"id":"yishun-new-town_3266","citySlug":"yishun-new-town","name":"Restaurante Típico de Yishun New Town","category":"gastronomia","lat":1.4235006434684607,"lng":103.82260575092597,"avgVisitMinutes":21,"estimatedCostEur":7,"score":0.7855690068584663},{"id":"yishun-new-town_6733","citySlug":"yishun-new-town","name":"Playa Norte","category":"playa","lat":1.436733491447598,"lng":103.8276648599307,"avgVisitMinutes":45,"estimatedCostEur":14,"score":2.9232488604208124},{"id":"yishun-new-town_4317","citySlug":"yishun-new-town","name":"Playa Central","category":"playa","lat":1.4391177193549658,"lng":103.83850573449976,"avgVisitMinutes":30,"estimatedCostEur":25,"score":2.853745376431675},{"id":"yishun-new-town_7288","citySlug":"yishun-new-town","name":"Centro de Arte de Yishun New Town","category":"cultura","lat":1.4255601482222986,"lng":103.83961607573856,"avgVisitMinutes":68,"estimatedCostEur":3,"score":1.8499818020894223},{"id":"yishun-new-town_5183","citySlug":"yishun-new-town","name":"Centro de Arte de Yishun New Town","category":"cultura","lat":1.4281705939818605,"lng":103.83034188411142,"avgVisitMinutes":73,"estimatedCostEur":14,"score":4.791520825414267},{"id":"yishun-new-town_9622","citySlug":"yishun-new-town","name":"Mercado Gastronómico","category":"gastronomia","lat":1.4273998414785531,"lng":103.82840177485528,"avgVisitMinutes":88,"estimatedCostEur":25,"score":3.6939535612718237},{"id":"woodlands_2577","citySlug":"woodlands","name":"Zona Comercial","category":"ocio","lat":1.4285435295359044,"lng":103.7892383492427,"avgVisitMinutes":70,"estimatedCostEur":11,"score":2.260480355472253},{"id":"woodlands_2753","citySlug":"woodlands","name":"Museo Local de Woodlands","category":"historia","lat":1.4308581055667875,"lng":103.79589479157639,"avgVisitMinutes":33,"estimatedCostEur":0,"score":1.4507556976849898},{"id":"woodlands_2332","citySlug":"woodlands","name":"Ruta de Tapas","category":"gastronomia","lat":1.4438048900426883,"lng":103.7921876231029,"avgVisitMinutes":29,"estimatedCostEur":11,"score":1.7292609752696197},{"id":"woodlands_8308","citySlug":"woodlands","name":"Castillo de Woodlands","category":"historia","lat":1.4342606767218298,"lng":103.79424517623046,"avgVisitMinutes":61,"estimatedCostEur":25,"score":1.136488155286958},{"id":"woodlands_1341","citySlug":"woodlands","name":"Playa Central","category":"playa","lat":1.4303906650570954,"lng":103.79321703578017,"avgVisitMinutes":45,"estimatedCostEur":1,"score":4.393458127436858},{"id":"marine-parade_2850","citySlug":"marine-parade","name":"Ruta de Tapas","category":"gastronomia","lat":1.2963743564224492,"lng":103.89811282617546,"avgVisitMinutes":39,"estimatedCostEur":25,"score":2.6249447426591557},{"id":"marine-parade_2269","citySlug":"marine-parade","name":"Playa Norte","category":"playa","lat":1.293178950228934,"lng":103.90510973527729,"avgVisitMinutes":76,"estimatedCostEur":6,"score":1.059084323178896},{"id":"marine-parade_4758","citySlug":"marine-parade","name":"Galería de Arte","category":"cultura","lat":1.2990206111550184,"lng":103.90592840977867,"avgVisitMinutes":51,"estimatedCostEur":11,"score":1.660897632975682},{"id":"marine-parade_5325","citySlug":"marine-parade","name":"Playa Central","category":"playa","lat":1.3095418558337029,"lng":103.90884782182476,"avgVisitMinutes":61,"estimatedCostEur":10,"score":3.701028373850603},{"id":"marine-parade_8726","citySlug":"marine-parade","name":"Zona Comercial","category":"ocio","lat":1.3019980270083866,"lng":103.9057173979314,"avgVisitMinutes":37,"estimatedCostEur":18,"score":4.16067651603303},{"id":"marine-parade_6448","citySlug":"marine-parade","name":"Centro Histórico","category":"historia","lat":1.3054436020981446,"lng":103.91119347140798,"avgVisitMinutes":66,"estimatedCostEur":1,"score":3.0799962317393885},{"id":"marine-parade_4855","citySlug":"marine-parade","name":"Playa Sur","category":"playa","lat":1.30181243907329,"lng":103.90234041478577,"avgVisitMinutes":32,"estimatedCostEur":15,"score":1.9723873999905215},{"id":"marine-parade_3387","citySlug":"marine-parade","name":"Zona Comercial","category":"ocio","lat":1.3066264037053856,"lng":103.90788343085498,"avgVisitMinutes":34,"estimatedCostEur":8,"score":3.0356309777916666},{"id":"marine-parade_3434","citySlug":"marine-parade","name":"Parque Central","category":"ocio","lat":1.3092596348218342,"lng":103.90043522013788,"avgVisitMinutes":38,"estimatedCostEur":25,"score":2.993162952748596},{"id":"marine-parade_3804","citySlug":"marine-parade","name":"Paseo Principal","category":"ocio","lat":1.301574541574334,"lng":103.9001825221888,"avgVisitMinutes":69,"estimatedCostEur":18,"score":4.652917928137747},{"id":"ang-mo-kio-new-town_2990","citySlug":"ang-mo-kio-new-town","name":"Playa Norte","category":"playa","lat":1.3871479269158646,"lng":103.84213026014481,"avgVisitMinutes":65,"estimatedCostEur":25,"score":2.3822745273352455},{"id":"ang-mo-kio-new-town_5602","citySlug":"ang-mo-kio-new-town","name":"Iglesia de Ang Mo Kio New Town","category":"historia","lat":1.37991458136418,"lng":103.8468956604493,"avgVisitMinutes":82,"estimatedCostEur":9,"score":3.4237167178706813},{"id":"ang-mo-kio-new-town_4627","citySlug":"ang-mo-kio-new-town","name":"Paseo Principal","category":"ocio","lat":1.376014209705031,"lng":103.83491507116601,"avgVisitMinutes":37,"estimatedCostEur":3,"score":4.360595119170911},{"id":"ang-mo-kio-new-town_7311","citySlug":"ang-mo-kio-new-town","name":"Paseo Principal","category":"ocio","lat":1.3728674498090192,"lng":103.84334215678614,"avgVisitMinutes":46,"estimatedCostEur":24,"score":1.2554840134353444},{"id":"ang-mo-kio-new-town_3188","citySlug":"ang-mo-kio-new-town","name":"Playa Norte","category":"playa","lat":1.372454872544922,"lng":103.84949619565434,"avgVisitMinutes":65,"estimatedCostEur":11,"score":4.543190928890662},{"id":"ang-mo-kio-new-town_9204","citySlug":"ang-mo-kio-new-town","name":"Teatro Municipal","category":"cultura","lat":1.3799121499658502,"lng":103.83576711857158,"avgVisitMinutes":80,"estimatedCostEur":3,"score":2.293192527353464},{"id":"ang-mo-kio-new-town_3446","citySlug":"ang-mo-kio-new-town","name":"Ruta de Tapas","category":"gastronomia","lat":1.3798464353967734,"lng":103.84528755407794,"avgVisitMinutes":90,"estimatedCostEur":6,"score":4.057217326634831},{"id":"ang-mo-kio-new-town_8138","citySlug":"ang-mo-kio-new-town","name":"Galería de Arte","category":"cultura","lat":1.3896230223841777,"lng":103.84840850460131,"avgVisitMinutes":35,"estimatedCostEur":0,"score":0.8319911192328235},{"id":"bukit-panjang-new-town_9856","citySlug":"bukit-panjang-new-town","name":"Parque Central","category":"ocio","lat":1.3805680060428347,"lng":103.77068552468234,"avgVisitMinutes":22,"estimatedCostEur":3,"score":4.904297275013578},{"id":"bukit-panjang-new-town_6201","citySlug":"bukit-panjang-new-town","name":"Playa Sur","category":"playa","lat":1.3714807657416552,"lng":103.75964147583417,"avgVisitMinutes":40,"estimatedCostEur":22,"score":4.468225779794623},{"id":"bukit-panjang-new-town_4871","citySlug":"bukit-panjang-new-town","name":"Playa Sur","category":"playa","lat":1.3812687343179353,"lng":103.7621852143907,"avgVisitMinutes":90,"estimatedCostEur":1,"score":0.8609719356175674},{"id":"bukit-panjang-new-town_9257","citySlug":"bukit-panjang-new-town","name":"Playa Norte","category":"playa","lat":1.3758153471325776,"lng":103.75775044735175,"avgVisitMinutes":34,"estimatedCostEur":24,"score":4.814407043858272},{"id":"bukit-panjang-new-town_8277","citySlug":"bukit-panjang-new-town","name":"Restaurante Típico de Bukit Panjang New Town","category":"gastronomia","lat":1.3896849503199453,"lng":103.76978655005009,"avgVisitMinutes":29,"estimatedCostEur":0,"score":2.3099643802325485},{"id":"bukit-panjang-new-town_7032","citySlug":"bukit-panjang-new-town","name":"Playa Sur","category":"playa","lat":1.3836797331374693,"lng":103.76905057682823,"avgVisitMinutes":55,"estimatedCostEur":14,"score":1.018940869549809},{"id":"bukit-panjang-new-town_2055","citySlug":"bukit-panjang-new-town","name":"Castillo de Bukit Panjang New Town","category":"historia","lat":1.3845569479529125,"lng":103.76230195647786,"avgVisitMinutes":75,"estimatedCostEur":13,"score":3.017978764884187},{"id":"bukit-panjang-new-town_5088","citySlug":"bukit-panjang-new-town","name":"Vista Alta de Bukit Panjang New Town","category":"mirador","lat":1.3819796427184674,"lng":103.77228938578958,"avgVisitMinutes":72,"estimatedCostEur":23,"score":4.980886967215755},{"id":"bedok-new-town_9769","citySlug":"bedok-new-town","name":"Mirador de Bedok New Town","category":"mirador","lat":1.3173211100994073,"lng":103.94334886756013,"avgVisitMinutes":45,"estimatedCostEur":23,"score":1.557264401932397},{"id":"bedok-new-town_1031","citySlug":"bedok-new-town","name":"Playa Norte","category":"playa","lat":1.3238584456310158,"lng":103.93825556795537,"avgVisitMinutes":36,"estimatedCostEur":15,"score":1.4807306994530316},{"id":"bedok-new-town_4641","citySlug":"bedok-new-town","name":"Vista Alta de Bedok New Town","category":"mirador","lat":1.3303781490360878,"lng":103.94776256887121,"avgVisitMinutes":64,"estimatedCostEur":15,"score":2.2763778356549267},{"id":"bedok-new-town_9026","citySlug":"bedok-new-town","name":"Murallas de Bedok New Town","category":"historia","lat":1.3331307342256407,"lng":103.94960835471363,"avgVisitMinutes":63,"estimatedCostEur":3,"score":2.3163856148730355},{"id":"bedok-new-town_3138","citySlug":"bedok-new-town","name":"Punto Panorámico","category":"mirador","lat":1.3282691783851541,"lng":103.93739721708562,"avgVisitMinutes":89,"estimatedCostEur":25,"score":0.5654080235118707},{"id":"bedok-new-town_2199","citySlug":"bedok-new-town","name":"Ruta de Tapas","category":"gastronomia","lat":1.3221794297212706,"lng":103.95094661862676,"avgVisitMinutes":37,"estimatedCostEur":13,"score":3.657157747389419},{"id":"bedok-new-town_7913","citySlug":"bedok-new-town","name":"Playa Central","category":"playa","lat":1.3314837280364629,"lng":103.94572259402123,"avgVisitMinutes":28,"estimatedCostEur":25,"score":1.2521215250581759},{"id":"queenstown-estate_8012","citySlug":"queenstown-estate","name":"Playa Central","category":"playa","lat":1.289843623333673,"lng":103.80263768570576,"avgVisitMinutes":56,"estimatedCostEur":20,"score":1.2106244554671974},{"id":"queenstown-estate_2542","citySlug":"queenstown-estate","name":"Teatro Municipal","category":"cultura","lat":1.2891283702955352,"lng":103.79991978731171,"avgVisitMinutes":87,"estimatedCostEur":9,"score":3.0953946338963445},{"id":"queenstown-estate_8342","citySlug":"queenstown-estate","name":"Restaurante Típico de Queenstown Estate","category":"gastronomia","lat":1.296693453332723,"lng":103.80178663746493,"avgVisitMinutes":35,"estimatedCostEur":10,"score":2.1878215625136095},{"id":"queenstown-estate_5983","citySlug":"queenstown-estate","name":"Restaurante Típico de Queenstown Estate","category":"gastronomia","lat":1.2895494400860055,"lng":103.81150441374307,"avgVisitMinutes":51,"estimatedCostEur":1,"score":0.786879297827934},{"id":"queenstown-estate_5956","citySlug":"queenstown-estate","name":"Mirador de Queenstown Estate","category":"mirador","lat":1.2891870185689813,"lng":103.81076948400197,"avgVisitMinutes":84,"estimatedCostEur":21,"score":2.730886590417923},{"id":"queenstown-estate_6486","citySlug":"queenstown-estate","name":"Mirador de Queenstown Estate","category":"mirador","lat":1.291685830881782,"lng":103.79762423353709,"avgVisitMinutes":41,"estimatedCostEur":0,"score":4.35292582593684},{"id":"queenstown-estate_1829","citySlug":"queenstown-estate","name":"Murallas de Queenstown Estate","category":"historia","lat":1.2879673582254034,"lng":103.79671602055446,"avgVisitMinutes":47,"estimatedCostEur":9,"score":4.554446006398937},{"id":"choa-chu-kang-new-town_7993","citySlug":"choa-chu-kang-new-town","name":"Playa Central","category":"playa","lat":1.3818889461324921,"lng":103.74642655020428,"avgVisitMinutes":82,"estimatedCostEur":9,"score":1.1451201724173405},{"id":"choa-chu-kang-new-town_4952","citySlug":"choa-chu-kang-new-town","name":"Punto Panorámico","category":"mirador","lat":1.3817551063777092,"lng":103.74289136019122,"avgVisitMinutes":85,"estimatedCostEur":22,"score":4.266351901768094},{"id":"choa-chu-kang-new-town_6284","citySlug":"choa-chu-kang-new-town","name":"Centro Histórico","category":"historia","lat":1.3795137794479342,"lng":103.74972107681948,"avgVisitMinutes":30,"estimatedCostEur":12,"score":3.3925802596597636},{"id":"choa-chu-kang-new-town_3065","citySlug":"choa-chu-kang-new-town","name":"Zona Comercial","category":"ocio","lat":1.3758451208210214,"lng":103.75418315839532,"avgVisitMinutes":32,"estimatedCostEur":19,"score":1.3894031575211254},{"id":"choa-chu-kang-new-town_5514","citySlug":"choa-chu-kang-new-town","name":"Ruta de Tapas","category":"gastronomia","lat":1.3735209484885174,"lng":103.744306263722,"avgVisitMinutes":65,"estimatedCostEur":25,"score":4.819459755178224},{"id":"choa-chu-kang-new-town_1057","citySlug":"choa-chu-kang-new-town","name":"Punto Panorámico","category":"mirador","lat":1.3861355053336324,"lng":103.74490240947911,"avgVisitMinutes":87,"estimatedCostEur":14,"score":2.8023777238993803},{"id":"novena_9738","citySlug":"novena","name":"Museo Cultural de Novena","category":"cultura","lat":1.310052583252719,"lng":103.83687255260831,"avgVisitMinutes":34,"estimatedCostEur":1,"score":0.6958387263580041},{"id":"novena_2239","citySlug":"novena","name":"Centro de Arte de Novena","category":"cultura","lat":1.3169092946486296,"lng":103.84541615643583,"avgVisitMinutes":85,"estimatedCostEur":5,"score":4.888240628181983},{"id":"novena_3794","citySlug":"novena","name":"Ruta de Tapas","category":"gastronomia","lat":1.3110156858186566,"lng":103.84597188009221,"avgVisitMinutes":45,"estimatedCostEur":22,"score":2.9026245087807974},{"id":"novena_7705","citySlug":"novena","name":"Restaurante Típico de Novena","category":"gastronomia","lat":1.310587308153375,"lng":103.84720363395834,"avgVisitMinutes":74,"estimatedCostEur":15,"score":2.3637156960171914},{"id":"novena_3713","citySlug":"novena","name":"Playa Norte","category":"playa","lat":1.316420033609176,"lng":103.84412442913931,"avgVisitMinutes":72,"estimatedCostEur":4,"score":4.623387570995927},{"id":"novena_4209","citySlug":"novena","name":"Restaurante Típico de Novena","category":"gastronomia","lat":1.3119440918858167,"lng":103.84097080654148,"avgVisitMinutes":26,"estimatedCostEur":18,"score":4.282221172151677},{"id":"novena_2512","citySlug":"novena","name":"Vista Alta de Novena","category":"mirador","lat":1.3256150121719565,"lng":103.84588747611623,"avgVisitMinutes":88,"estimatedCostEur":25,"score":3.5801230958232924},{"id":"novena_9621","citySlug":"novena","name":"Museo Cultural de Novena","category":"cultura","lat":1.3186809275062785,"lng":103.83631161960503,"avgVisitMinutes":76,"estimatedCostEur":23,"score":1.1793814270509406},{"id":"eunos_2991","citySlug":"eunos","name":"Vista Alta de Eunos","category":"mirador","lat":1.315320145158098,"lng":103.89505210721184,"avgVisitMinutes":29,"estimatedCostEur":2,"score":3.7858798524138555},{"id":"eunos_4520","citySlug":"eunos","name":"Punto Panorámico","category":"mirador","lat":1.3222699547910801,"lng":103.89238264221586,"avgVisitMinutes":69,"estimatedCostEur":20,"score":2.77298514646526},{"id":"eunos_9435","citySlug":"eunos","name":"Murallas de Eunos","category":"historia","lat":1.321271252165951,"lng":103.90821141592187,"avgVisitMinutes":76,"estimatedCostEur":17,"score":2.5515783422586766},{"id":"eunos_4571","citySlug":"eunos","name":"Playa Norte","category":"playa","lat":1.3154858790596184,"lng":103.89686692765238,"avgVisitMinutes":70,"estimatedCostEur":15,"score":1.69633054525865},{"id":"eunos_7024","citySlug":"eunos","name":"Playa Norte","category":"playa","lat":1.3140596792918726,"lng":103.89765196012107,"avgVisitMinutes":66,"estimatedCostEur":6,"score":4.175347142452226},{"id":"eunos_4324","citySlug":"eunos","name":"Mirador de Eunos","category":"mirador","lat":1.313598251644228,"lng":103.89364019682338,"avgVisitMinutes":51,"estimatedCostEur":16,"score":2.995795062351442},{"id":"orchard_6206","citySlug":"orchard","name":"Playa Central","category":"playa","lat":1.2951774485936964,"lng":103.8263177674807,"avgVisitMinutes":90,"estimatedCostEur":15,"score":3.122983749887073},{"id":"orchard_8909","citySlug":"orchard","name":"Playa Norte","category":"playa","lat":1.2982687786899145,"lng":103.82476493045586,"avgVisitMinutes":50,"estimatedCostEur":6,"score":1.9954138840808726},{"id":"orchard_5122","citySlug":"orchard","name":"Museo Cultural de Orchard","category":"cultura","lat":1.3074699117226667,"lng":103.83302183361593,"avgVisitMinutes":23,"estimatedCostEur":16,"score":3.2121700344925124},{"id":"orchard_1339","citySlug":"orchard","name":"Playa Norte","category":"playa","lat":1.3103840974702887,"lng":103.83151933563695,"avgVisitMinutes":50,"estimatedCostEur":12,"score":4.695532415664816},{"id":"orchard_8687","citySlug":"orchard","name":"Teatro Municipal","category":"cultura","lat":1.292812071499815,"lng":103.84356358313403,"avgVisitMinutes":34,"estimatedCostEur":2,"score":4.192378919401818},{"id":"orchard_5574","citySlug":"orchard","name":"Galería de Arte","category":"cultura","lat":1.3118339221876827,"lng":103.84450149992385,"avgVisitMinutes":31,"estimatedCostEur":22,"score":4.177784184772701},{"id":"orchard_8767","citySlug":"orchard","name":"Punto Panorámico","category":"mirador","lat":1.2978612312482924,"lng":103.8361361007143,"avgVisitMinutes":34,"estimatedCostEur":19,"score":3.1608796806508703},{"id":"orchard_7326","citySlug":"orchard","name":"Paseo Principal","category":"ocio","lat":1.311329130377415,"lng":103.82752835652323,"avgVisitMinutes":62,"estimatedCostEur":17,"score":4.285576028453834},{"id":"orchard_4542","citySlug":"orchard","name":"Playa Central","category":"playa","lat":1.3009425867225348,"lng":103.8357966217064,"avgVisitMinutes":45,"estimatedCostEur":23,"score":4.287192487069655},{"id":"orchard_1115","citySlug":"orchard","name":"Teatro Municipal","category":"cultura","lat":1.3069648920234869,"lng":103.83394215910116,"avgVisitMinutes":66,"estimatedCostEur":9,"score":2.298678733359866},{"id":"newton_5829","citySlug":"newton","name":"Vista Alta de Newton","category":"mirador","lat":1.30631917681634,"lng":103.84111969313997,"avgVisitMinutes":69,"estimatedCostEur":10,"score":2.6461825440382762},{"id":"newton_1555","citySlug":"newton","name":"Vista Alta de Newton","category":"mirador","lat":1.3070651600448697,"lng":103.84377118011275,"avgVisitMinutes":72,"estimatedCostEur":23,"score":1.074165337374715},{"id":"newton_6250","citySlug":"newton","name":"Galería de Arte","category":"cultura","lat":1.3022265181931838,"lng":103.84691354232552,"avgVisitMinutes":50,"estimatedCostEur":6,"score":4.836885334044873},{"id":"newton_6996","citySlug":"newton","name":"Mercado Gastronómico","category":"gastronomia","lat":1.3166803582846742,"lng":103.84561080218779,"avgVisitMinutes":72,"estimatedCostEur":18,"score":1.7321789198729174},{"id":"newton_1793","citySlug":"newton","name":"Mirador de Newton","category":"mirador","lat":1.3156432149641122,"lng":103.83071141969843,"avgVisitMinutes":59,"estimatedCostEur":21,"score":4.059716784876772},{"id":"newton_5167","citySlug":"newton","name":"Ruta de Tapas","category":"gastronomia","lat":1.3132695219244617,"lng":103.84669335891404,"avgVisitMinutes":78,"estimatedCostEur":17,"score":2.9680753102859434},{"id":"newton_8319","citySlug":"newton","name":"Paseo Principal","category":"ocio","lat":1.3011198063800284,"lng":103.83083672726298,"avgVisitMinutes":35,"estimatedCostEur":18,"score":2.1723431849243764},{"id":"newton_4774","citySlug":"newton","name":"Teatro Municipal","category":"cultura","lat":1.3095596505214058,"lng":103.84640437216656,"avgVisitMinutes":75,"estimatedCostEur":18,"score":2.9402074649940544},{"id":"newton_3779","citySlug":"newton","name":"Mirador de Newton","category":"mirador","lat":1.315840679515832,"lng":103.83991336332839,"avgVisitMinutes":88,"estimatedCostEur":25,"score":3.816540308894835},{"id":"sengkang-new-town_6992","citySlug":"sengkang-new-town","name":"Restaurante Típico de Sengkang New Town","category":"gastronomia","lat":1.3879034087560098,"lng":103.88534825941122,"avgVisitMinutes":39,"estimatedCostEur":23,"score":1.2112013301122129},{"id":"sengkang-new-town_6034","citySlug":"sengkang-new-town","name":"Mercado Gastronómico","category":"gastronomia","lat":1.3976425737098443,"lng":103.88544502525264,"avgVisitMinutes":60,"estimatedCostEur":17,"score":2.6048812496079496},{"id":"sengkang-new-town_7489","citySlug":"sengkang-new-town","name":"Playa Sur","category":"playa","lat":1.388849532830971,"lng":103.89843848187958,"avgVisitMinutes":55,"estimatedCostEur":12,"score":1.8965703173960344},{"id":"sengkang-new-town_8558","citySlug":"sengkang-new-town","name":"Mercado Gastronómico","category":"gastronomia","lat":1.3911940636972786,"lng":103.8894352212266,"avgVisitMinutes":79,"estimatedCostEur":21,"score":1.5447083544410916},{"id":"sengkang-new-town_9598","citySlug":"sengkang-new-town","name":"Mercado Gastronómico","category":"gastronomia","lat":1.3865029218530567,"lng":103.88549324209602,"avgVisitMinutes":29,"estimatedCostEur":11,"score":3.729714058388975},{"id":"sengkang-new-town_8443","citySlug":"sengkang-new-town","name":"Centro Histórico","category":"historia","lat":1.3868935878770574,"lng":103.89450929093336,"avgVisitMinutes":23,"estimatedCostEur":15,"score":1.3339929059249176},{"id":"sengkang-new-town_8756","citySlug":"sengkang-new-town","name":"Restaurante Típico de Sengkang New Town","category":"gastronomia","lat":1.3967031528495661,"lng":103.8885218869345,"avgVisitMinutes":20,"estimatedCostEur":17,"score":2.9552963336939473},{"id":"sengkang-new-town_9081","citySlug":"sengkang-new-town","name":"Centro de Arte de Sengkang New Town","category":"cultura","lat":1.3876918859350738,"lng":103.90140077067655,"avgVisitMinutes":68,"estimatedCostEur":24,"score":0.6162347255527172},{"id":"harbourfront_9092","citySlug":"harbourfront","name":"Zona Comercial","category":"ocio","lat":1.2629167555624607,"lng":103.82556816369501,"avgVisitMinutes":56,"estimatedCostEur":4,"score":2.6216934678738157},{"id":"harbourfront_8289","citySlug":"harbourfront","name":"Ruta de Tapas","category":"gastronomia","lat":1.260097940625983,"lng":103.82948894113187,"avgVisitMinutes":90,"estimatedCostEur":7,"score":0.9590910699396205},{"id":"harbourfront_2939","citySlug":"harbourfront","name":"Playa Central","category":"playa","lat":1.2644414554626626,"lng":103.82755908738218,"avgVisitMinutes":75,"estimatedCostEur":18,"score":4.534211298143728},{"id":"harbourfront_1892","citySlug":"harbourfront","name":"Teatro Municipal","category":"cultura","lat":1.2660886348558817,"lng":103.8257898139729,"avgVisitMinutes":71,"estimatedCostEur":23,"score":3.0337539861370764},{"id":"harbourfront_6541","citySlug":"harbourfront","name":"Museo Cultural de HarbourFront","category":"cultura","lat":1.2676466064854657,"lng":103.81026258829118,"avgVisitMinutes":58,"estimatedCostEur":8,"score":3.380504924078799},{"id":"harbourfront_5217","citySlug":"harbourfront","name":"Iglesia de HarbourFront","category":"historia","lat":1.2583006401665586,"lng":103.82426339486305,"avgVisitMinutes":42,"estimatedCostEur":9,"score":3.882388279306564},{"id":"harbourfront_7940","citySlug":"harbourfront","name":"Punto Panorámico","category":"mirador","lat":1.2613385992833852,"lng":103.81944073241402,"avgVisitMinutes":51,"estimatedCostEur":12,"score":3.949760233353111},{"id":"harbourfront_9582","citySlug":"harbourfront","name":"Museo Local de HarbourFront","category":"historia","lat":1.2576001945799116,"lng":103.82894551161955,"avgVisitMinutes":66,"estimatedCostEur":5,"score":1.4070540889944676},{"id":"rochor_4440","citySlug":"rochor","name":"Centro de Arte de Rochor","category":"cultura","lat":1.3025441982561368,"lng":103.85312506459638,"avgVisitMinutes":78,"estimatedCostEur":9,"score":2.4495494031160443},{"id":"rochor_8583","citySlug":"rochor","name":"Zona Comercial","category":"ocio","lat":1.2945591675524275,"lng":103.84924811913521,"avgVisitMinutes":56,"estimatedCostEur":4,"score":4.67177089402616},{"id":"rochor_2725","citySlug":"rochor","name":"Vista Alta de Rochor","category":"mirador","lat":1.3008232501377759,"lng":103.85301173846133,"avgVisitMinutes":53,"estimatedCostEur":15,"score":2.2933069185110466},{"id":"rochor_8490","citySlug":"rochor","name":"Playa Norte","category":"playa","lat":1.2962383102227726,"lng":103.84887848731896,"avgVisitMinutes":34,"estimatedCostEur":8,"score":2.1991418100807065},{"id":"rochor_2436","citySlug":"rochor","name":"Punto Panorámico","category":"mirador","lat":1.298269924439016,"lng":103.8612405292811,"avgVisitMinutes":73,"estimatedCostEur":14,"score":3.49890795027196},{"id":"rochor_8912","citySlug":"rochor","name":"Parque Central","category":"ocio","lat":1.2990817305032896,"lng":103.84586180767232,"avgVisitMinutes":22,"estimatedCostEur":12,"score":2.8728535545033815},{"id":"rochor_6304","citySlug":"rochor","name":"Ruta de Tapas","category":"gastronomia","lat":1.3063526874493916,"lng":103.85301445451836,"avgVisitMinutes":51,"estimatedCostEur":21,"score":2.3392687818659783},{"id":"rochor_7067","citySlug":"rochor","name":"Castillo de Rochor","category":"historia","lat":1.3134789390722164,"lng":103.85440339248436,"avgVisitMinutes":76,"estimatedCostEur":20,"score":1.7824040218294155},{"id":"rochor_8648","citySlug":"rochor","name":"Vista Alta de Rochor","category":"mirador","lat":1.303886083253882,"lng":103.84520035237739,"avgVisitMinutes":25,"estimatedCostEur":24,"score":4.876296455887255},{"id":"rochor_3690","citySlug":"rochor","name":"Playa Norte","category":"playa","lat":1.307366094649868,"lng":103.84937672317444,"avgVisitMinutes":22,"estimatedCostEur":11,"score":3.2881035607021576},{"id":"anak-bukit_2892","citySlug":"anak-bukit","name":"Ruta de Tapas","category":"gastronomia","lat":1.3414210032494696,"lng":103.77586491426644,"avgVisitMinutes":54,"estimatedCostEur":22,"score":3.770814187074967},{"id":"anak-bukit_9156","citySlug":"anak-bukit","name":"Mirador de Anak Bukit","category":"mirador","lat":1.3468154027110129,"lng":103.77470804528447,"avgVisitMinutes":26,"estimatedCostEur":13,"score":2.5916853525351535},{"id":"anak-bukit_1098","citySlug":"anak-bukit","name":"Vista Alta de Anak Bukit","category":"mirador","lat":1.345035266774466,"lng":103.77422538097676,"avgVisitMinutes":32,"estimatedCostEur":25,"score":2.3449118811172642},{"id":"anak-bukit_8953","citySlug":"anak-bukit","name":"Iglesia de Anak Bukit","category":"historia","lat":1.3356147554782622,"lng":103.76720422802978,"avgVisitMinutes":34,"estimatedCostEur":9,"score":4.6331134597673715},{"id":"anak-bukit_5632","citySlug":"anak-bukit","name":"Museo Local de Anak Bukit","category":"historia","lat":1.3389146617341134,"lng":103.76972065041288,"avgVisitMinutes":58,"estimatedCostEur":6,"score":3.045270029022961},{"id":"anak-bukit_3372","citySlug":"anak-bukit","name":"Museo Cultural de Anak Bukit","category":"cultura","lat":1.3492132764012938,"lng":103.77541515139097,"avgVisitMinutes":43,"estimatedCostEur":11,"score":0.5862647783653685},{"id":"anak-bukit_6916","citySlug":"anak-bukit","name":"Paseo Principal","category":"ocio","lat":1.3431958189662199,"lng":103.76319561394858,"avgVisitMinutes":66,"estimatedCostEur":7,"score":4.052026307439723},{"id":"anak-bukit_4217","citySlug":"anak-bukit","name":"Museo Cultural de Anak Bukit","category":"cultura","lat":1.3402366689752772,"lng":103.78269208922427,"avgVisitMinutes":36,"estimatedCostEur":12,"score":3.9911740391363795},{"id":"anak-bukit_9031","citySlug":"anak-bukit","name":"Punto Panorámico","category":"mirador","lat":1.3358162745391926,"lng":103.77623540451962,"avgVisitMinutes":64,"estimatedCostEur":18,"score":2.887733892169521},{"id":"anak-bukit_8724","citySlug":"anak-bukit","name":"Paseo Principal","category":"ocio","lat":1.3424985633318711,"lng":103.77825142857785,"avgVisitMinutes":31,"estimatedCostEur":1,"score":0.8177899495814807},{"id":"anak-bukit_3030","citySlug":"anak-bukit","name":"Vista Alta de Anak Bukit","category":"mirador","lat":1.3381971805203667,"lng":103.76849052111444,"avgVisitMinutes":23,"estimatedCostEur":10,"score":4.2238004243010145},{"id":"teck-whye_2450","citySlug":"teck-whye","name":"Teatro Municipal","category":"cultura","lat":1.3849595013880185,"lng":103.75141646378073,"avgVisitMinutes":20,"estimatedCostEur":24,"score":1.7177564527077582},{"id":"teck-whye_6127","citySlug":"teck-whye","name":"Vista Alta de Teck Whye","category":"mirador","lat":1.381893042658071,"lng":103.74339774163533,"avgVisitMinutes":85,"estimatedCostEur":12,"score":2.0859018737178046},{"id":"teck-whye_5481","citySlug":"teck-whye","name":"Museo Local de Teck Whye","category":"historia","lat":1.3898354238045902,"lng":103.76045566039579,"avgVisitMinutes":83,"estimatedCostEur":11,"score":4.4863494723028206},{"id":"teck-whye_8207","citySlug":"teck-whye","name":"Vista Alta de Teck Whye","category":"mirador","lat":1.3748156046339837,"lng":103.75928710767735,"avgVisitMinutes":90,"estimatedCostEur":8,"score":3.106089323156599},{"id":"teck-whye_1118","citySlug":"teck-whye","name":"Paseo Principal","category":"ocio","lat":1.3794350347201987,"lng":103.75095110655478,"avgVisitMinutes":69,"estimatedCostEur":23,"score":4.285504706382366},{"id":"teck-whye_2241","citySlug":"teck-whye","name":"Museo Cultural de Teck Whye","category":"cultura","lat":1.3899540051380694,"lng":103.75920047176115,"avgVisitMinutes":59,"estimatedCostEur":13,"score":1.9365920715476619}]}