{"country":"SO","pois":[{"id":"yeed_1791","citySlug":"yeed","name":"Museo Local de Yeed","category":"historia","lat":4.557468662711471,"lng":43.03858630876272,"avgVisitMinutes":74,"estimatedCostEur":9,"score":3.2275444669192375},{"id":"yeed_4960","citySlug":"yeed","name":"Ruta de Tapas","category":"gastronomia","lat":4.55844020160945,"lng":43.042961249678676,"avgVisitMinutes":87,"estimatedCostEur":19,"score":1.827155296631189},{"id":"yeed_6001","citySlug":"yeed","name":"Playa Central","category":"playa","lat":4.5548160318078965,"lng":43.02458973518031,"avgVisitMinutes":46,"estimatedCostEur":16,"score":3.2430896708110613},{"id":"yeed_2770","citySlug":"yeed","name":"Museo Cultural de Yeed","category":"cultura","lat":4.544608255680268,"lng":43.03354216123023,"avgVisitMinutes":55,"estimatedCostEur":23,"score":3.7083084703570264},{"id":"yeed_3383","citySlug":"yeed","name":"Paseo Principal","category":"ocio","lat":4.5505390396085446,"lng":43.02734737181601,"avgVisitMinutes":80,"estimatedCostEur":21,"score":4.226930671694859},{"id":"yeed_6160","citySlug":"yeed","name":"Centro Histórico","category":"historia","lat":4.551083725889346,"lng":43.026177773599166,"avgVisitMinutes":34,"estimatedCostEur":7,"score":2.176892753076682},{"id":"yagoori_9002","citySlug":"yagoori","name":"Murallas de Yagoori","category":"historia","lat":8.75419172381529,"lng":46.958903445481404,"avgVisitMinutes":29,"estimatedCostEur":13,"score":3.1490780942562946},{"id":"yagoori_1494","citySlug":"yagoori","name":"Paseo Principal","category":"ocio","lat":8.75966425052425,"lng":46.95423504822717,"avgVisitMinutes":88,"estimatedCostEur":12,"score":4.926984787788342},{"id":"yagoori_6010","citySlug":"yagoori","name":"Playa Central","category":"playa","lat":8.745413121382498,"lng":46.96654651631757,"avgVisitMinutes":69,"estimatedCostEur":15,"score":3.8563124541098},{"id":"yagoori_7817","citySlug":"yagoori","name":"Mercado Gastronómico","category":"gastronomia","lat":8.759637989700243,"lng":46.95838771918876,"avgVisitMinutes":42,"estimatedCostEur":6,"score":4.237437142961139},{"id":"yagoori_1282","citySlug":"yagoori","name":"Mercado Gastronómico","category":"gastronomia","lat":8.746387177554023,"lng":46.96452233743228,"avgVisitMinutes":27,"estimatedCostEur":14,"score":1.224324311062974},{"id":"yagoori_7270","citySlug":"yagoori","name":"Centro de Arte de Yagoori","category":"cultura","lat":8.749118389854678,"lng":46.96754783249369,"avgVisitMinutes":71,"estimatedCostEur":17,"score":3.2987434735760073},{"id":"yagoori_7982","citySlug":"yagoori","name":"Vista Alta de Yagoori","category":"mirador","lat":8.749175826001146,"lng":46.97274983119515,"avgVisitMinutes":70,"estimatedCostEur":21,"score":3.1360602212006046},{"id":"yagoori_1473","citySlug":"yagoori","name":"Teatro Municipal","category":"cultura","lat":8.743647061616745,"lng":46.955964659618886,"avgVisitMinutes":43,"estimatedCostEur":13,"score":4.31412978982391},{"id":"yagoori_9847","citySlug":"yagoori","name":"Mercado Gastronómico","category":"gastronomia","lat":8.752088356825967,"lng":46.96386697955917,"avgVisitMinutes":55,"estimatedCostEur":22,"score":1.8432400999856102},{"id":"yagoori_8647","citySlug":"yagoori","name":"Mirador de Yagoori","category":"mirador","lat":8.749496041417483,"lng":46.95628937553862,"avgVisitMinutes":52,"estimatedCostEur":5,"score":0.7314393318085383},{"id":"yagoori_6004","citySlug":"yagoori","name":"Castillo de Yagoori","category":"historia","lat":8.75224427993418,"lng":46.96700367695017,"avgVisitMinutes":71,"estimatedCostEur":1,"score":3.576139200802193},{"id":"xuddur_3869","citySlug":"xuddur","name":"Punto Panorámico","category":"mirador","lat":4.1186766393890055,"lng":43.89819356385509,"avgVisitMinutes":44,"estimatedCostEur":7,"score":1.199455085035451},{"id":"xuddur_4245","citySlug":"xuddur","name":"Museo Cultural de Xuddur","category":"cultura","lat":4.127047500137959,"lng":43.89494342777286,"avgVisitMinutes":69,"estimatedCostEur":17,"score":3.0946994821186538},{"id":"xuddur_1897","citySlug":"xuddur","name":"Zona Comercial","category":"ocio","lat":4.1289951806539635,"lng":43.890712065627774,"avgVisitMinutes":52,"estimatedCostEur":15,"score":4.879403467551424},{"id":"xuddur_8312","citySlug":"xuddur","name":"Playa Central","category":"playa","lat":4.117308126803191,"lng":43.89405138711908,"avgVisitMinutes":86,"estimatedCostEur":25,"score":2.701478265304533},{"id":"xuddur_8967","citySlug":"xuddur","name":"Ruta de Tapas","category":"gastronomia","lat":4.1144985836644,"lng":43.895233933636185,"avgVisitMinutes":33,"estimatedCostEur":25,"score":4.398919538151212},{"id":"xuddur_6324","citySlug":"xuddur","name":"Ruta de Tapas","category":"gastronomia","lat":4.11581217690671,"lng":43.88448912437148,"avgVisitMinutes":83,"estimatedCostEur":8,"score":3.4235380501006047},{"id":"xarardheere_9159","citySlug":"xarardheere","name":"Playa Sur","category":"playa","lat":4.6581189998064945,"lng":47.847712432231745,"avgVisitMinutes":76,"estimatedCostEur":4,"score":2.360869399101445},{"id":"xarardheere_8122","citySlug":"xarardheere","name":"Museo Local de Xarardheere","category":"historia","lat":4.651565196149559,"lng":47.857314758236065,"avgVisitMinutes":25,"estimatedCostEur":2,"score":2.050062447310234},{"id":"xarardheere_8874","citySlug":"xarardheere","name":"Mercado Gastronómico","category":"gastronomia","lat":4.661186701203489,"lng":47.8629032817629,"avgVisitMinutes":52,"estimatedCostEur":11,"score":1.0055234287369188},{"id":"xarardheere_7096","citySlug":"xarardheere","name":"Zona Comercial","category":"ocio","lat":4.662146566344961,"lng":47.84899322855256,"avgVisitMinutes":65,"estimatedCostEur":20,"score":3.9059802124973504},{"id":"xarardheere_6520","citySlug":"xarardheere","name":"Punto Panorámico","category":"mirador","lat":4.645034607920676,"lng":47.85850314313163,"avgVisitMinutes":35,"estimatedCostEur":5,"score":4.606713183452916},{"id":"wanlaweyn_1205","citySlug":"wanlaweyn","name":"Galería de Arte","category":"cultura","lat":2.623166817780857,"lng":44.88979805080486,"avgVisitMinutes":67,"estimatedCostEur":18,"score":3.7840748912544484},{"id":"wanlaweyn_2954","citySlug":"wanlaweyn","name":"Restaurante Típico de Wanlaweyn","category":"gastronomia","lat":2.6277689008834604,"lng":44.8994378740317,"avgVisitMinutes":37,"estimatedCostEur":23,"score":4.633104598039279},{"id":"wanlaweyn_8652","citySlug":"wanlaweyn","name":"Punto Panorámico","category":"mirador","lat":2.6271224084504734,"lng":44.893397070753004,"avgVisitMinutes":58,"estimatedCostEur":22,"score":3.3066757011465633},{"id":"wanlaweyn_2711","citySlug":"wanlaweyn","name":"Galería de Arte","category":"cultura","lat":2.62622697034043,"lng":44.886359081393024,"avgVisitMinutes":81,"estimatedCostEur":14,"score":1.4211556620728896},{"id":"wanlaweyn_6386","citySlug":"wanlaweyn","name":"Restaurante Típico de Wanlaweyn","category":"gastronomia","lat":2.6159943583934333,"lng":44.89021703945801,"avgVisitMinutes":84,"estimatedCostEur":18,"score":0.6172697198811937},{"id":"wanlaweyn_1280","citySlug":"wanlaweyn","name":"Paseo Principal","category":"ocio","lat":2.608875017408343,"lng":44.89945346157952,"avgVisitMinutes":52,"estimatedCostEur":9,"score":1.9698435982199305},{"id":"wanlaweyn_5232","citySlug":"wanlaweyn","name":"Centro de Arte de Wanlaweyn","category":"cultura","lat":2.6241653809371734,"lng":44.90028744633983,"avgVisitMinutes":62,"estimatedCostEur":1,"score":1.2637070443835126},{"id":"wanlaweyn_3444","citySlug":"wanlaweyn","name":"Paseo Principal","category":"ocio","lat":2.617627379393164,"lng":44.88873244646859,"avgVisitMinutes":88,"estimatedCostEur":25,"score":4.779008918870119},{"id":"wanlaweyn_1537","citySlug":"wanlaweyn","name":"Centro Histórico","category":"historia","lat":2.615744127941505,"lng":44.897707283258896,"avgVisitMinutes":90,"estimatedCostEur":1,"score":3.2405826142600076},{"id":"wanlaweyn_3360","citySlug":"wanlaweyn","name":"Centro Histórico","category":"historia","lat":2.625083154671111,"lng":44.884566143916636,"avgVisitMinutes":57,"estimatedCostEur":5,"score":4.745033110204916},{"id":"waajid_5421","citySlug":"waajid","name":"Parque Central","category":"ocio","lat":3.81273296749029,"lng":43.25256979586331,"avgVisitMinutes":68,"estimatedCostEur":3,"score":3.1685486438565786},{"id":"waajid_2196","citySlug":"waajid","name":"Playa Sur","category":"playa","lat":3.8072511680016508,"lng":43.24517485452658,"avgVisitMinutes":60,"estimatedCostEur":0,"score":4.020694867738042},{"id":"waajid_6570","citySlug":"waajid","name":"Playa Central","category":"playa","lat":3.8068040728610417,"lng":43.24116812816369,"avgVisitMinutes":80,"estimatedCostEur":16,"score":4.374254415277393},{"id":"waajid_1781","citySlug":"waajid","name":"Centro de Arte de Waajid","category":"cultura","lat":3.8050436613073946,"lng":43.246362833888206,"avgVisitMinutes":23,"estimatedCostEur":13,"score":2.8862944998445594},{"id":"waajid_6993","citySlug":"waajid","name":"Mirador de Waajid","category":"mirador","lat":3.810687384355632,"lng":43.251651364148906,"avgVisitMinutes":46,"estimatedCostEur":16,"score":1.0149253577811148},{"id":"waajid_6174","citySlug":"waajid","name":"Murallas de Waajid","category":"historia","lat":3.8121998033880855,"lng":43.24380995625015,"avgVisitMinutes":53,"estimatedCostEur":2,"score":0.7163953928792339},{"id":"waajid_5023","citySlug":"waajid","name":"Punto Panorámico","category":"mirador","lat":3.8035167541274943,"lng":43.25260012923011,"avgVisitMinutes":29,"estimatedCostEur":10,"score":3.739743067971907},{"id":"waajid_4820","citySlug":"waajid","name":"Mirador de Waajid","category":"mirador","lat":3.813911054417935,"lng":43.2530894131765,"avgVisitMinutes":24,"estimatedCostEur":23,"score":4.803344367516692},{"id":"waajid_4545","citySlug":"waajid","name":"Punto Panorámico","category":"mirador","lat":3.8114982196934695,"lng":43.251747439726586,"avgVisitMinutes":74,"estimatedCostEur":15,"score":1.7546613940034728},{"id":"tog-wajaale_7886","citySlug":"tog-wajaale","name":"Playa Sur","category":"playa","lat":9.59129494517071,"lng":43.33938586077707,"avgVisitMinutes":42,"estimatedCostEur":23,"score":2.909312319281041},{"id":"tog-wajaale_3741","citySlug":"tog-wajaale","name":"Galería de Arte","category":"cultura","lat":9.5918355532554,"lng":43.33231092129802,"avgVisitMinutes":80,"estimatedCostEur":2,"score":0.6581255305964565},{"id":"tog-wajaale_5430","citySlug":"tog-wajaale","name":"Galería de Arte","category":"cultura","lat":9.601052618866332,"lng":43.330059309009386,"avgVisitMinutes":81,"estimatedCostEur":21,"score":2.9828403961179517},{"id":"tog-wajaale_5451","citySlug":"tog-wajaale","name":"Mercado Gastronómico","category":"gastronomia","lat":9.598220746999303,"lng":43.33920047367114,"avgVisitMinutes":82,"estimatedCostEur":17,"score":2.305726099865332},{"id":"tog-wajaale_4300","citySlug":"tog-wajaale","name":"Murallas de Tog Wajaale","category":"historia","lat":9.59579683928634,"lng":43.331031459827926,"avgVisitMinutes":83,"estimatedCostEur":7,"score":0.710558421327792},{"id":"tog-wajaale_2000","citySlug":"tog-wajaale","name":"Paseo Principal","category":"ocio","lat":9.604566132003276,"lng":43.33105556054146,"avgVisitMinutes":85,"estimatedCostEur":16,"score":2.7217418734113243},{"id":"tog-wajaale_4302","citySlug":"tog-wajaale","name":"Ruta de Tapas","category":"gastronomia","lat":9.605395281473811,"lng":43.331093741017,"avgVisitMinutes":37,"estimatedCostEur":22,"score":3.0973315178945144},{"id":"tog-wajaale_7605","citySlug":"tog-wajaale","name":"Mirador de Tog Wajaale","category":"mirador","lat":9.598394030610637,"lng":43.33050789226813,"avgVisitMinutes":68,"estimatedCostEur":24,"score":0.6419176927528182},{"id":"tog-wajaale_2316","citySlug":"tog-wajaale","name":"Playa Norte","category":"playa","lat":9.603578572388738,"lng":43.325859714238206,"avgVisitMinutes":50,"estimatedCostEur":14,"score":3.408710144630157},{"id":"tayeeglow_3652","citySlug":"tayeeglow","name":"Castillo de Tayeeglow","category":"historia","lat":4.013760755250422,"lng":44.509299738627604,"avgVisitMinutes":35,"estimatedCostEur":16,"score":2.2030052415592047},{"id":"tayeeglow_6359","citySlug":"tayeeglow","name":"Restaurante Típico de Tayeeglow","category":"gastronomia","lat":4.0096031812334765,"lng":44.506624182358316,"avgVisitMinutes":67,"estimatedCostEur":2,"score":1.5830288370693415},{"id":"tayeeglow_7907","citySlug":"tayeeglow","name":"Playa Sur","category":"playa","lat":4.010882640301896,"lng":44.520376179067995,"avgVisitMinutes":20,"estimatedCostEur":7,"score":0.8786878149831664},{"id":"tayeeglow_1592","citySlug":"tayeeglow","name":"Punto Panorámico","category":"mirador","lat":4.01717821755361,"lng":44.50455090172287,"avgVisitMinutes":31,"estimatedCostEur":6,"score":1.101496075528374},{"id":"tayeeglow_1686","citySlug":"tayeeglow","name":"Centro Histórico","category":"historia","lat":4.024845303331851,"lng":44.507460743121584,"avgVisitMinutes":63,"estimatedCostEur":8,"score":3.592379130025736},{"id":"tayeeglow_6569","citySlug":"tayeeglow","name":"Museo Local de Tayeeglow","category":"historia","lat":4.00991750867238,"lng":44.50313668421318,"avgVisitMinutes":72,"estimatedCostEur":7,"score":1.8823396979456333},{"id":"tayeeglow_9759","citySlug":"tayeeglow","name":"Mirador de Tayeeglow","category":"mirador","lat":4.019517475803394,"lng":44.50667428411995,"avgVisitMinutes":67,"estimatedCostEur":19,"score":4.40264913801829},{"id":"saylac_9741","citySlug":"saylac","name":"Mercado Gastronómico","category":"gastronomia","lat":11.346116000640915,"lng":43.46568355283142,"avgVisitMinutes":21,"estimatedCostEur":22,"score":3.6095242458327603},{"id":"saylac_5826","citySlug":"saylac","name":"Playa Sur","category":"playa","lat":11.3588149253406,"lng":43.469679463817535,"avgVisitMinutes":42,"estimatedCostEur":17,"score":2.815936521697797},{"id":"saylac_3389","citySlug":"saylac","name":"Museo Cultural de Saylac","category":"cultura","lat":11.346504262882688,"lng":43.47347614740638,"avgVisitMinutes":28,"estimatedCostEur":0,"score":0.7741031487364857},{"id":"saylac_5687","citySlug":"saylac","name":"Mirador de Saylac","category":"mirador","lat":11.344308322556609,"lng":43.48184459335626,"avgVisitMinutes":28,"estimatedCostEur":16,"score":3.9265085194188867},{"id":"saylac_4401","citySlug":"saylac","name":"Zona Comercial","category":"ocio","lat":11.35291838088074,"lng":43.4656348367383,"avgVisitMinutes":71,"estimatedCostEur":19,"score":1.2962584279207083},{"id":"saylac_8314","citySlug":"saylac","name":"Centro de Arte de Saylac","category":"cultura","lat":11.35920831193123,"lng":43.463474426358445,"avgVisitMinutes":26,"estimatedCostEur":25,"score":4.660632521835475},{"id":"saylac_2211","citySlug":"saylac","name":"Punto Panorámico","category":"mirador","lat":11.349899524268729,"lng":43.466914536294844,"avgVisitMinutes":52,"estimatedCostEur":21,"score":1.7317908110358267},{"id":"saylac_9697","citySlug":"saylac","name":"Mercado Gastronómico","category":"gastronomia","lat":11.357130928686875,"lng":43.47318769464065,"avgVisitMinutes":48,"estimatedCostEur":11,"score":0.8254014316603393},{"id":"saacow_9462","citySlug":"saacow","name":"Mirador de Saacow","category":"mirador","lat":1.6240152031944328,"lng":42.43430266663028,"avgVisitMinutes":89,"estimatedCostEur":25,"score":2.7121353470377727},{"id":"saacow_6228","citySlug":"saacow","name":"Museo Cultural de Saacow","category":"cultura","lat":1.6282025409529848,"lng":42.4344496033025,"avgVisitMinutes":34,"estimatedCostEur":5,"score":3.181236517951821},{"id":"saacow_2746","citySlug":"saacow","name":"Restaurante Típico de Saacow","category":"gastronomia","lat":1.6376979596656949,"lng":42.443516854421624,"avgVisitMinutes":33,"estimatedCostEur":15,"score":4.619342627632781},{"id":"saacow_3016","citySlug":"saacow","name":"Restaurante Típico de Saacow","category":"gastronomia","lat":1.6341887319131796,"lng":42.43512183805198,"avgVisitMinutes":55,"estimatedCostEur":16,"score":1.8710043286111215},{"id":"saacow_3231","citySlug":"saacow","name":"Playa Norte","category":"playa","lat":1.6362324011072331,"lng":42.44240312822497,"avgVisitMinutes":42,"estimatedCostEur":7,"score":4.940250372866356},{"id":"saacow_7604","citySlug":"saacow","name":"Museo Cultural de Saacow","category":"cultura","lat":1.6300371968403622,"lng":42.44688337613378,"avgVisitMinutes":56,"estimatedCostEur":13,"score":3.406860533507872},{"id":"saacow_8373","citySlug":"saacow","name":"Playa Sur","category":"playa","lat":1.6366239467583072,"lng":42.4497805471581,"avgVisitMinutes":73,"estimatedCostEur":9,"score":1.136637243689123},{"id":"saacow_5902","citySlug":"saacow","name":"Playa Norte","category":"playa","lat":1.619284827000767,"lng":42.44967252317017,"avgVisitMinutes":62,"estimatedCostEur":16,"score":1.6143694266896862},{"id":"saacow_7137","citySlug":"saacow","name":"Playa Norte","category":"playa","lat":1.6288787919143752,"lng":42.431212552203874,"avgVisitMinutes":69,"estimatedCostEur":20,"score":3.5058556077656107},{"id":"saacow_7681","citySlug":"saacow","name":"Mirador de Saacow","category":"mirador","lat":1.6358347390332233,"lng":42.44622804993166,"avgVisitMinutes":32,"estimatedCostEur":18,"score":4.600786786658379},{"id":"saacow_1982","citySlug":"saacow","name":"Galería de Arte","category":"cultura","lat":1.636412325205893,"lng":42.442530552194356,"avgVisitMinutes":37,"estimatedCostEur":5,"score":4.427402845997932},{"id":"ruqi_8952","citySlug":"ruqi","name":"Mercado Gastronómico","category":"gastronomia","lat":9.964849486627013,"lng":43.419489670843156,"avgVisitMinutes":79,"estimatedCostEur":16,"score":3.134466534952347},{"id":"ruqi_2536","citySlug":"ruqi","name":"Castillo de Ruqi","category":"historia","lat":9.972863085087306,"lng":43.43239274275951,"avgVisitMinutes":56,"estimatedCostEur":17,"score":2.4319060585764083},{"id":"ruqi_5254","citySlug":"ruqi","name":"Playa Sur","category":"playa","lat":9.972767256876137,"lng":43.433606105193576,"avgVisitMinutes":50,"estimatedCostEur":7,"score":2.884799974684774},{"id":"ruqi_9781","citySlug":"ruqi","name":"Restaurante Típico de Ruqi","category":"gastronomia","lat":9.976829962498751,"lng":43.43429529986553,"avgVisitMinutes":82,"estimatedCostEur":17,"score":3.8292269661932035},{"id":"ruqi_6480","citySlug":"ruqi","name":"Mirador de Ruqi","category":"mirador","lat":9.980813749525447,"lng":43.42179158023424,"avgVisitMinutes":50,"estimatedCostEur":3,"score":1.4651982219685478},{"id":"qoryooley_5421","citySlug":"qoryooley","name":"Mirador de Qoryooley","category":"mirador","lat":1.780837051207085,"lng":44.538410798332364,"avgVisitMinutes":54,"estimatedCostEur":22,"score":1.578450543463474},{"id":"qoryooley_4616","citySlug":"qoryooley","name":"Centro de Arte de Qoryooley","category":"cultura","lat":1.7876909700042865,"lng":44.52069035710491,"avgVisitMinutes":28,"estimatedCostEur":22,"score":1.2981663776565768},{"id":"qoryooley_2222","citySlug":"qoryooley","name":"Playa Norte","category":"playa","lat":1.7881661208510968,"lng":44.53071455283892,"avgVisitMinutes":66,"estimatedCostEur":5,"score":0.5700206478454599},{"id":"qoryooley_5475","citySlug":"qoryooley","name":"Vista Alta de Qoryooley","category":"mirador","lat":1.7880001581113838,"lng":44.526001877751646,"avgVisitMinutes":32,"estimatedCostEur":20,"score":3.374540312498968},{"id":"qoryooley_3714","citySlug":"qoryooley","name":"Centro Histórico","category":"historia","lat":1.7811692891867223,"lng":44.52629499937715,"avgVisitMinutes":31,"estimatedCostEur":6,"score":1.351608975334742},{"id":"qandala_9712","citySlug":"qandala","name":"Vista Alta de Qandala","category":"mirador","lat":11.468826458707126,"lng":49.872541126218444,"avgVisitMinutes":33,"estimatedCostEur":23,"score":1.9437180896680946},{"id":"qandala_1048","citySlug":"qandala","name":"Playa Central","category":"playa","lat":11.474292800115355,"lng":49.87905287662287,"avgVisitMinutes":58,"estimatedCostEur":14,"score":4.694546308803269},{"id":"qandala_4980","citySlug":"qandala","name":"Paseo Principal","category":"ocio","lat":11.463567130261694,"lng":49.87015872942356,"avgVisitMinutes":54,"estimatedCostEur":24,"score":1.3498626503837934},{"id":"qandala_1466","citySlug":"qandala","name":"Museo Cultural de Qandala","category":"cultura","lat":11.480241229925316,"lng":49.87085442715648,"avgVisitMinutes":80,"estimatedCostEur":1,"score":0.7465262998010211},{"id":"qandala_6895","citySlug":"qandala","name":"Punto Panorámico","category":"mirador","lat":11.467278900973835,"lng":49.86660412561235,"avgVisitMinutes":29,"estimatedCostEur":13,"score":2.6814336159746963},{"id":"qandala_1607","citySlug":"qandala","name":"Centro de Arte de Qandala","category":"cultura","lat":11.465114852831686,"lng":49.87617028325892,"avgVisitMinutes":47,"estimatedCostEur":15,"score":4.3070809240815375},{"id":"qandala_7789","citySlug":"qandala","name":"Restaurante Típico de Qandala","category":"gastronomia","lat":11.475027816980855,"lng":49.87082893303902,"avgVisitMinutes":23,"estimatedCostEur":19,"score":4.6055722283604945},{"id":"qandala_4656","citySlug":"qandala","name":"Mirador de Qandala","category":"mirador","lat":11.46451726312,"lng":49.86395535448583,"avgVisitMinutes":47,"estimatedCostEur":3,"score":2.3199619235709372},{"id":"oodweyne_5533","citySlug":"oodweyne","name":"Punto Panorámico","category":"mirador","lat":9.403890039520853,"lng":45.05627424470463,"avgVisitMinutes":84,"estimatedCostEur":21,"score":1.837281382168458},{"id":"oodweyne_1055","citySlug":"oodweyne","name":"Parque Central","category":"ocio","lat":9.413595039293986,"lng":45.061865556944184,"avgVisitMinutes":54,"estimatedCostEur":15,"score":1.6573529055518663},{"id":"oodweyne_4457","citySlug":"oodweyne","name":"Punto Panorámico","category":"mirador","lat":9.411605028205024,"lng":45.065569334617685,"avgVisitMinutes":89,"estimatedCostEur":7,"score":3.7242061905467425},{"id":"oodweyne_6150","citySlug":"oodweyne","name":"Playa Sur","category":"playa","lat":9.403897667293112,"lng":45.06555713185564,"avgVisitMinutes":52,"estimatedCostEur":9,"score":2.0383301626634203},{"id":"oodweyne_7231","citySlug":"oodweyne","name":"Playa Central","category":"playa","lat":9.404710305717725,"lng":45.06338249391949,"avgVisitMinutes":66,"estimatedCostEur":12,"score":1.6269026678543943},{"id":"mogadishu_4965","citySlug":"mogadishu","name":"Mercado Gastronómico","category":"gastronomia","lat":2.0427763422869814,"lng":45.345710215485255,"avgVisitMinutes":25,"estimatedCostEur":2,"score":3.844465181397863},{"id":"mogadishu_3443","citySlug":"mogadishu","name":"Punto Panorámico","category":"mirador","lat":2.044947598999373,"lng":45.336713850951995,"avgVisitMinutes":65,"estimatedCostEur":15,"score":4.666944993750669},{"id":"mogadishu_7384","citySlug":"mogadishu","name":"Vista Alta de Mogadishu","category":"mirador","lat":2.041144411642332,"lng":45.338479595669206,"avgVisitMinutes":63,"estimatedCostEur":20,"score":1.7343665941272408},{"id":"mogadishu_1338","citySlug":"mogadishu","name":"Museo Cultural de Mogadishu","category":"cultura","lat":2.044184354546043,"lng":45.33629351586803,"avgVisitMinutes":79,"estimatedCostEur":23,"score":0.8912910744719669},{"id":"mogadishu_7801","citySlug":"mogadishu","name":"Ruta de Tapas","category":"gastronomia","lat":2.0446906087579113,"lng":45.33755077858347,"avgVisitMinutes":48,"estimatedCostEur":6,"score":2.4013623750335578},{"id":"mogadishu_9838","citySlug":"mogadishu","name":"Castillo de Mogadishu","category":"historia","lat":2.041775163820246,"lng":45.34662995027624,"avgVisitMinutes":57,"estimatedCostEur":7,"score":2.1560868759119964},{"id":"mogadishu_4644","citySlug":"mogadishu","name":"Castillo de Mogadishu","category":"historia","lat":2.0440626689959918,"lng":45.33499713458246,"avgVisitMinutes":79,"estimatedCostEur":6,"score":2.788537559134476},{"id":"mogadishu_2343","citySlug":"mogadishu","name":"Teatro Municipal","category":"cultura","lat":2.044956134372599,"lng":45.34671902494576,"avgVisitMinutes":38,"estimatedCostEur":19,"score":4.361218924268148},{"id":"mogadishu_4795","citySlug":"mogadishu","name":"Centro de Arte de Mogadishu","category":"cultura","lat":2.0436274540144015,"lng":45.33625808437957,"avgVisitMinutes":32,"estimatedCostEur":19,"score":3.2908451593162775},{"id":"mogadishu_9626","citySlug":"mogadishu","name":"Museo Cultural de Mogadishu","category":"cultura","lat":2.042146664146944,"lng":45.34473348706975,"avgVisitMinutes":22,"estimatedCostEur":5,"score":1.3942324351732385},{"id":"mogadishu_5764","citySlug":"mogadishu","name":"Mercado Gastronómico","category":"gastronomia","lat":2.028887077130623,"lng":45.34615346800859,"avgVisitMinutes":33,"estimatedCostEur":23,"score":4.9826733125944624},{"id":"marka_9847","citySlug":"marka","name":"Playa Sur","category":"playa","lat":1.7206131297851,"lng":44.7733200783872,"avgVisitMinutes":77,"estimatedCostEur":14,"score":4.716603914624659},{"id":"marka_7494","citySlug":"marka","name":"Iglesia de Marka","category":"historia","lat":1.7227618397638322,"lng":44.766779131235,"avgVisitMinutes":24,"estimatedCostEur":2,"score":1.3382553750426869},{"id":"marka_6363","citySlug":"marka","name":"Paseo Principal","category":"ocio","lat":1.7082433212188337,"lng":44.78053654365977,"avgVisitMinutes":27,"estimatedCostEur":21,"score":4.851004151449038},{"id":"marka_3768","citySlug":"marka","name":"Paseo Principal","category":"ocio","lat":1.7101156941290947,"lng":44.78162323388648,"avgVisitMinutes":40,"estimatedCostEur":23,"score":3.95128410110039},{"id":"marka_6584","citySlug":"marka","name":"Playa Norte","category":"playa","lat":1.7232712956929546,"lng":44.77209735345572,"avgVisitMinutes":86,"estimatedCostEur":21,"score":3.4448936842524267},{"id":"marka_8702","citySlug":"marka","name":"Parque Central","category":"ocio","lat":1.7256929466200253,"lng":44.76370971026094,"avgVisitMinutes":32,"estimatedCostEur":24,"score":3.494025774569616},{"id":"marka_5584","citySlug":"marka","name":"Playa Norte","category":"playa","lat":1.7107148922735562,"lng":44.78068723421996,"avgVisitMinutes":50,"estimatedCostEur":22,"score":0.7697572063931064},{"id":"mahaddayweyne_1798","citySlug":"mahaddayweyne","name":"Paseo Principal","category":"ocio","lat":2.973159132114665,"lng":45.536088952312426,"avgVisitMinutes":40,"estimatedCostEur":21,"score":1.9936548240496936},{"id":"mahaddayweyne_2667","citySlug":"mahaddayweyne","name":"Parque Central","category":"ocio","lat":2.979691820589388,"lng":45.542513330570145,"avgVisitMinutes":45,"estimatedCostEur":8,"score":2.379814197169306},{"id":"mahaddayweyne_9060","citySlug":"mahaddayweyne","name":"Mirador de Mahaddayweyne","category":"mirador","lat":2.967483078136834,"lng":45.52899590985808,"avgVisitMinutes":28,"estimatedCostEur":13,"score":3.4482804911466705},{"id":"mahaddayweyne_8424","citySlug":"mahaddayweyne","name":"Mercado Gastronómico","category":"gastronomia","lat":2.9800644682021153,"lng":45.528973654822,"avgVisitMinutes":66,"estimatedCostEur":2,"score":2.5495519943752027},{"id":"mahaddayweyne_9647","citySlug":"mahaddayweyne","name":"Playa Norte","category":"playa","lat":2.981263730898825,"lng":45.54294737049727,"avgVisitMinutes":89,"estimatedCostEur":13,"score":1.156285678604406},{"id":"mahaddayweyne_3544","citySlug":"mahaddayweyne","name":"Vista Alta de Mahaddayweyne","category":"mirador","lat":2.967257791962459,"lng":45.53157047206074,"avgVisitMinutes":35,"estimatedCostEur":14,"score":2.2388969634550113},{"id":"mahaddayweyne_8410","citySlug":"mahaddayweyne","name":"Castillo de Mahaddayweyne","category":"historia","lat":2.963377020445088,"lng":45.54335518259786,"avgVisitMinutes":23,"estimatedCostEur":20,"score":2.895406904067714},{"id":"mahaddayweyne_9937","citySlug":"mahaddayweyne","name":"Iglesia de Mahaddayweyne","category":"historia","lat":2.9735265287072727,"lng":45.53642537275672,"avgVisitMinutes":61,"estimatedCostEur":10,"score":3.947091096666796},{"id":"mahaddayweyne_2101","citySlug":"mahaddayweyne","name":"Playa Norte","category":"playa","lat":2.970246248562651,"lng":45.53729655474162,"avgVisitMinutes":80,"estimatedCostEur":2,"score":4.978935404196833},{"id":"mahaddayweyne_8346","citySlug":"mahaddayweyne","name":"Playa Sur","category":"playa","lat":2.9754348067990852,"lng":45.543604404045766,"avgVisitMinutes":34,"estimatedCostEur":4,"score":4.48976333613221},{"id":"mahaddayweyne_8597","citySlug":"mahaddayweyne","name":"Mirador de Mahaddayweyne","category":"mirador","lat":2.9679699849579313,"lng":45.541842927060095,"avgVisitMinutes":26,"estimatedCostEur":17,"score":3.992337244934411},{"id":"mahaddayweyne_4319","citySlug":"mahaddayweyne","name":"Playa Norte","category":"playa","lat":2.971417613825514,"lng":45.53300172106553,"avgVisitMinutes":89,"estimatedCostEur":5,"score":4.160154008316772},{"id":"luuq_5478","citySlug":"luuq","name":"Museo Local de Luuq","category":"historia","lat":3.794910050883092,"lng":42.53424718134351,"avgVisitMinutes":68,"estimatedCostEur":24,"score":4.675616961395018},{"id":"luuq_3764","citySlug":"luuq","name":"Playa Norte","category":"playa","lat":3.802031899685587,"lng":42.55265462016473,"avgVisitMinutes":20,"estimatedCostEur":8,"score":2.749518049292646},{"id":"luuq_7027","citySlug":"luuq","name":"Ruta de Tapas","category":"gastronomia","lat":3.802931252347363,"lng":42.54817828477208,"avgVisitMinutes":45,"estimatedCostEur":6,"score":4.31486290893187},{"id":"luuq_8180","citySlug":"luuq","name":"Iglesia de Luuq","category":"historia","lat":3.8012881178301465,"lng":42.53841123301102,"avgVisitMinutes":61,"estimatedCostEur":25,"score":3.4396820929360636},{"id":"luuq_2900","citySlug":"luuq","name":"Murallas de Luuq","category":"historia","lat":3.8112944245603737,"lng":42.54766104794774,"avgVisitMinutes":76,"estimatedCostEur":7,"score":2.813498727556664},{"id":"las-khorey_1709","citySlug":"las-khorey","name":"Playa Central","category":"playa","lat":11.160822836443558,"lng":48.18750411008587,"avgVisitMinutes":79,"estimatedCostEur":4,"score":2.356326402249799},{"id":"las-khorey_1752","citySlug":"las-khorey","name":"Playa Sur","category":"playa","lat":11.153765704825,"lng":48.191610400775126,"avgVisitMinutes":88,"estimatedCostEur":3,"score":3.1503782605010238},{"id":"las-khorey_4091","citySlug":"las-khorey","name":"Vista Alta de Las Khorey","category":"mirador","lat":11.163482620326777,"lng":48.190353437237846,"avgVisitMinutes":50,"estimatedCostEur":10,"score":4.94491297892731},{"id":"las-khorey_8158","citySlug":"las-khorey","name":"Ruta de Tapas","category":"gastronomia","lat":11.155347607181206,"lng":48.1874695890013,"avgVisitMinutes":73,"estimatedCostEur":17,"score":4.134475569982146},{"id":"las-khorey_5616","citySlug":"las-khorey","name":"Parque Central","category":"ocio","lat":11.161036266600838,"lng":48.20370937328437,"avgVisitMinutes":24,"estimatedCostEur":10,"score":3.59861734730775},{"id":"las-khorey_6365","citySlug":"las-khorey","name":"Zona Comercial","category":"ocio","lat":11.167863067985579,"lng":48.19187556819035,"avgVisitMinutes":87,"estimatedCostEur":23,"score":1.7610104398024606},{"id":"las-khorey_3422","citySlug":"las-khorey","name":"Parque Central","category":"ocio","lat":11.165332119559466,"lng":48.20296544628871,"avgVisitMinutes":55,"estimatedCostEur":8,"score":4.076700282941982},{"id":"las-khorey_2611","citySlug":"las-khorey","name":"Ruta de Tapas","category":"gastronomia","lat":11.154467398659135,"lng":48.19468247745226,"avgVisitMinutes":86,"estimatedCostEur":0,"score":1.1276956056601946},{"id":"las-khorey_3511","citySlug":"las-khorey","name":"Restaurante Típico de Las Khorey","category":"gastronomia","lat":11.169235880772304,"lng":48.19239022651703,"avgVisitMinutes":33,"estimatedCostEur":10,"score":0.6551399308634731},{"id":"las-khorey_2371","citySlug":"las-khorey","name":"Ruta de Tapas","category":"gastronomia","lat":11.15760993789554,"lng":48.1977609385479,"avgVisitMinutes":29,"estimatedCostEur":7,"score":4.6161725841256755},{"id":"las-khorey_4033","citySlug":"las-khorey","name":"Playa Sur","category":"playa","lat":11.162904236489911,"lng":48.198917500866415,"avgVisitMinutes":86,"estimatedCostEur":24,"score":4.982933531817665},{"id":"kismayo_6887","citySlug":"kismayo","name":"Vista Alta de Kismayo","category":"mirador","lat":-0.36472534624779407,"lng":42.55450760434597,"avgVisitMinutes":26,"estimatedCostEur":19,"score":1.0487038525210142},{"id":"kismayo_6847","citySlug":"kismayo","name":"Playa Norte","category":"playa","lat":-0.3496982442934901,"lng":42.53573181429391,"avgVisitMinutes":43,"estimatedCostEur":17,"score":3.1167163386615813},{"id":"kismayo_2720","citySlug":"kismayo","name":"Castillo de Kismayo","category":"historia","lat":-0.35597364850759655,"lng":42.53895684184489,"avgVisitMinutes":82,"estimatedCostEur":24,"score":1.2135249635922594},{"id":"kismayo_9752","citySlug":"kismayo","name":"Parque Central","category":"ocio","lat":-0.35084595461106893,"lng":42.53767457782593,"avgVisitMinutes":73,"estimatedCostEur":4,"score":3.0075867064013346},{"id":"kismayo_5725","citySlug":"kismayo","name":"Playa Norte","category":"playa","lat":-0.35937130577777726,"lng":42.53710538472013,"avgVisitMinutes":54,"estimatedCostEur":21,"score":1.4545227088585138},{"id":"kismayo_5764","citySlug":"kismayo","name":"Castillo de Kismayo","category":"historia","lat":-0.36392332342388334,"lng":42.550500341121186,"avgVisitMinutes":70,"estimatedCostEur":12,"score":3.9283402757061743},{"id":"kismayo_6699","citySlug":"kismayo","name":"Restaurante Típico de Kismayo","category":"gastronomia","lat":-0.3674805584190319,"lng":42.54208300316829,"avgVisitMinutes":25,"estimatedCostEur":21,"score":1.9617684624808636},{"id":"kismayo_5025","citySlug":"kismayo","name":"Punto Panorámico","category":"mirador","lat":-0.3611542788463019,"lng":42.53682357815777,"avgVisitMinutes":24,"estimatedCostEur":1,"score":0.9064512400053713},{"id":"kismayo_7575","citySlug":"kismayo","name":"Zona Comercial","category":"ocio","lat":-0.36260076552133247,"lng":42.55101302629557,"avgVisitMinutes":33,"estimatedCostEur":18,"score":4.986815781425718},{"id":"kaambooni_8771","citySlug":"kaambooni","name":"Mirador de Kaambooni","category":"mirador","lat":-1.643678003706679,"lng":41.58240276928376,"avgVisitMinutes":84,"estimatedCostEur":9,"score":3.5259851997866125},{"id":"kaambooni_7065","citySlug":"kaambooni","name":"Playa Norte","category":"playa","lat":-1.6395558705582378,"lng":41.58327728084527,"avgVisitMinutes":28,"estimatedCostEur":2,"score":4.381444163112681},{"id":"kaambooni_8474","citySlug":"kaambooni","name":"Mercado Gastronómico","category":"gastronomia","lat":-1.6446189877938602,"lng":41.58839562784812,"avgVisitMinutes":53,"estimatedCostEur":24,"score":2.068586725958072},{"id":"kaambooni_5826","citySlug":"kaambooni","name":"Ruta de Tapas","category":"gastronomia","lat":-1.6368600996595606,"lng":41.58156047511096,"avgVisitMinutes":25,"estimatedCostEur":5,"score":2.1672002136484854},{"id":"kaambooni_3545","citySlug":"kaambooni","name":"Centro de Arte de Kaambooni","category":"cultura","lat":-1.6364041221958516,"lng":41.59629489382498,"avgVisitMinutes":89,"estimatedCostEur":25,"score":1.3272989374704514},{"id":"kaambooni_3524","citySlug":"kaambooni","name":"Centro Histórico","category":"historia","lat":-1.637205120072328,"lng":41.59082428742051,"avgVisitMinutes":50,"estimatedCostEur":17,"score":2.749218202669659},{"id":"jilib_1256","citySlug":"jilib","name":"Mercado Gastronómico","category":"gastronomia","lat":0.4911112250517862,"lng":42.78875685219552,"avgVisitMinutes":83,"estimatedCostEur":23,"score":3.2274385751925765},{"id":"jilib_1950","citySlug":"jilib","name":"Playa Central","category":"playa","lat":0.49493422068012943,"lng":42.785297305271015,"avgVisitMinutes":27,"estimatedCostEur":10,"score":1.4874426664528786},{"id":"jilib_6647","citySlug":"jilib","name":"Parque Central","category":"ocio","lat":0.4804354672942646,"lng":42.795013071122185,"avgVisitMinutes":45,"estimatedCostEur":2,"score":2.967440181319565},{"id":"jilib_9105","citySlug":"jilib","name":"Museo Local de Jilib","category":"historia","lat":0.4892151082490881,"lng":42.78230456546836,"avgVisitMinutes":79,"estimatedCostEur":19,"score":1.5159594923282664},{"id":"jilib_5268","citySlug":"jilib","name":"Punto Panorámico","category":"mirador","lat":0.48674934364550393,"lng":42.786612463781864,"avgVisitMinutes":57,"estimatedCostEur":3,"score":1.1271108954717783},{"id":"jilib_7372","citySlug":"jilib","name":"Parque Central","category":"ocio","lat":0.47889748651963104,"lng":42.77905351491511,"avgVisitMinutes":35,"estimatedCostEur":23,"score":1.8678805012808957},{"id":"jilib_8083","citySlug":"jilib","name":"Parque Central","category":"ocio","lat":0.4906986871026879,"lng":42.780974110053215,"avgVisitMinutes":86,"estimatedCostEur":23,"score":1.0537453699488433},{"id":"jawhar_5331","citySlug":"jawhar","name":"Mirador de Jawhar","category":"mirador","lat":2.789782456876518,"lng":45.50685722520057,"avgVisitMinutes":25,"estimatedCostEur":14,"score":1.929667942468235},{"id":"jawhar_6541","citySlug":"jawhar","name":"Vista Alta de Jawhar","category":"mirador","lat":2.7794941768247905,"lng":45.50434840738505,"avgVisitMinutes":24,"estimatedCostEur":10,"score":1.637973013049867},{"id":"jawhar_8299","citySlug":"jawhar","name":"Museo Cultural de Jawhar","category":"cultura","lat":2.7862615914033286,"lng":45.497737332251205,"avgVisitMinutes":81,"estimatedCostEur":20,"score":1.6217657213620598},{"id":"jawhar_3395","citySlug":"jawhar","name":"Galería de Arte","category":"cultura","lat":2.7755962587406975,"lng":45.49174676248745,"avgVisitMinutes":38,"estimatedCostEur":1,"score":2.9104041758686163},{"id":"jawhar_3525","citySlug":"jawhar","name":"Playa Central","category":"playa","lat":2.783665367903141,"lng":45.49613581072992,"avgVisitMinutes":66,"estimatedCostEur":7,"score":0.7755509644191082},{"id":"jawhar_2243","citySlug":"jawhar","name":"Centro de Arte de Jawhar","category":"cultura","lat":2.7736296582451816,"lng":45.50890741537881,"avgVisitMinutes":77,"estimatedCostEur":25,"score":2.80127313799142},{"id":"jawhar_7598","citySlug":"jawhar","name":"Castillo de Jawhar","category":"historia","lat":2.775886493837774,"lng":45.49532602105093,"avgVisitMinutes":56,"estimatedCostEur":23,"score":3.4368229304723705},{"id":"jawhar_9388","citySlug":"jawhar","name":"Playa Central","category":"playa","lat":2.7802965730520386,"lng":45.50957005810162,"avgVisitMinutes":47,"estimatedCostEur":19,"score":4.879386683036836},{"id":"jamaame_1398","citySlug":"jamaame","name":"Zona Comercial","category":"ocio","lat":0.07070173644252067,"lng":42.75105260558008,"avgVisitMinutes":60,"estimatedCostEur":13,"score":3.736416630846826},{"id":"jamaame_2141","citySlug":"jamaame","name":"Playa Norte","category":"playa","lat":0.07609503741078448,"lng":42.73979531933791,"avgVisitMinutes":54,"estimatedCostEur":22,"score":1.9892485848845969},{"id":"jamaame_9048","citySlug":"jamaame","name":"Museo Local de Jamaame","category":"historia","lat":0.06999172259963887,"lng":42.75312766271397,"avgVisitMinutes":35,"estimatedCostEur":13,"score":4.0864092397540315},{"id":"jamaame_5597","citySlug":"jamaame","name":"Galería de Arte","category":"cultura","lat":0.07718270865368054,"lng":42.74902580452755,"avgVisitMinutes":21,"estimatedCostEur":23,"score":4.413890153055282},{"id":"jamaame_8554","citySlug":"jamaame","name":"Galería de Arte","category":"cultura","lat":0.0758642744490809,"lng":42.745850427679365,"avgVisitMinutes":72,"estimatedCostEur":3,"score":2.9599237642020446},{"id":"jamaame_8952","citySlug":"jamaame","name":"Mirador de Jamaame","category":"mirador","lat":0.07097635101396065,"lng":42.74008979313084,"avgVisitMinutes":78,"estimatedCostEur":2,"score":2.567743073908944},{"id":"jamaame_2019","citySlug":"jamaame","name":"Museo Cultural de Jamaame","category":"cultura","lat":0.0679559400255533,"lng":42.74618501764914,"avgVisitMinutes":76,"estimatedCostEur":2,"score":4.233825118198209},{"id":"jamaame_5102","citySlug":"jamaame","name":"Playa Norte","category":"playa","lat":0.07317492951580669,"lng":42.75095435402836,"avgVisitMinutes":27,"estimatedCostEur":17,"score":2.2882689090723995},{"id":"jalalaqsi_7065","citySlug":"jalalaqsi","name":"Galería de Arte","category":"cultura","lat":3.368486054742484,"lng":45.607372965514074,"avgVisitMinutes":75,"estimatedCostEur":7,"score":2.246769360521297},{"id":"jalalaqsi_9933","citySlug":"jalalaqsi","name":"Museo Cultural de Jalalaqsi","category":"cultura","lat":3.385009830378125,"lng":45.60320891623067,"avgVisitMinutes":38,"estimatedCostEur":5,"score":2.369083916917692},{"id":"jalalaqsi_7887","citySlug":"jalalaqsi","name":"Mercado Gastronómico","category":"gastronomia","lat":3.370908147207649,"lng":45.60238283311051,"avgVisitMinutes":31,"estimatedCostEur":21,"score":4.411116939471189},{"id":"jalalaqsi_9297","citySlug":"jalalaqsi","name":"Zona Comercial","category":"ocio","lat":3.3749951507756157,"lng":45.590275940460465,"avgVisitMinutes":55,"estimatedCostEur":21,"score":2.297469940147954},{"id":"jalalaqsi_8068","citySlug":"jalalaqsi","name":"Playa Central","category":"playa","lat":3.3718406846786726,"lng":45.598500829923154,"avgVisitMinutes":88,"estimatedCostEur":15,"score":1.6193481926669557},{"id":"jalalaqsi_8779","citySlug":"jalalaqsi","name":"Paseo Principal","category":"ocio","lat":3.3819614835491487,"lng":45.604320309699595,"avgVisitMinutes":67,"estimatedCostEur":7,"score":3.272198167622745},{"id":"jalalaqsi_9149","citySlug":"jalalaqsi","name":"Parque Central","category":"ocio","lat":3.3845494430423027,"lng":45.59019935393824,"avgVisitMinutes":37,"estimatedCostEur":3,"score":4.051755712135263},{"id":"jalalaqsi_1115","citySlug":"jalalaqsi","name":"Punto Panorámico","category":"mirador","lat":3.3752502324008518,"lng":45.60591265569503,"avgVisitMinutes":63,"estimatedCostEur":4,"score":3.6641987940080383},{"id":"iskushuban_6809","citySlug":"iskushuban","name":"Museo Local de Iskushuban","category":"historia","lat":10.278179887293827,"lng":50.23200303355234,"avgVisitMinutes":66,"estimatedCostEur":18,"score":2.3747481353483355},{"id":"iskushuban_8643","citySlug":"iskushuban","name":"Museo Local de Iskushuban","category":"historia","lat":10.27766569287131,"lng":50.23782044080012,"avgVisitMinutes":68,"estimatedCostEur":18,"score":3.979966209962328},{"id":"iskushuban_9827","citySlug":"iskushuban","name":"Museo Local de Iskushuban","category":"historia","lat":10.292777108454949,"lng":50.2346662890524,"avgVisitMinutes":25,"estimatedCostEur":17,"score":2.6303207956536845},{"id":"iskushuban_3826","citySlug":"iskushuban","name":"Restaurante Típico de Iskushuban","category":"gastronomia","lat":10.276360145890836,"lng":50.23295619703275,"avgVisitMinutes":86,"estimatedCostEur":1,"score":1.588745308278463},{"id":"iskushuban_2136","citySlug":"iskushuban","name":"Restaurante Típico de Iskushuban","category":"gastronomia","lat":10.290122096565748,"lng":50.239107899823296,"avgVisitMinutes":80,"estimatedCostEur":14,"score":3.388297566400991},{"id":"iskushuban_3805","citySlug":"iskushuban","name":"Murallas de Iskushuban","category":"historia","lat":10.288495910373559,"lng":50.22959625619661,"avgVisitMinutes":68,"estimatedCostEur":11,"score":0.8721762089021106},{"id":"iskushuban_7655","citySlug":"iskushuban","name":"Ruta de Tapas","category":"gastronomia","lat":10.275862378931603,"lng":50.23016907363255,"avgVisitMinutes":82,"estimatedCostEur":6,"score":2.4907020544431013},{"id":"iskushuban_5702","citySlug":"iskushuban","name":"Playa Norte","category":"playa","lat":10.27503936718555,"lng":50.225803014239645,"avgVisitMinutes":80,"estimatedCostEur":10,"score":3.9200416625701133},{"id":"iskushuban_8607","citySlug":"iskushuban","name":"Playa Central","category":"playa","lat":10.279440046131954,"lng":50.239985051868196,"avgVisitMinutes":47,"estimatedCostEur":13,"score":3.080305775468345},{"id":"hobyo_2223","citySlug":"hobyo","name":"Centro Histórico","category":"historia","lat":5.3578739902987715,"lng":48.52877233336134,"avgVisitMinutes":22,"estimatedCostEur":25,"score":1.149190714119551},{"id":"hobyo_6012","citySlug":"hobyo","name":"Zona Comercial","category":"ocio","lat":5.3473390823918425,"lng":48.517901123767324,"avgVisitMinutes":57,"estimatedCostEur":10,"score":1.0916086191934093},{"id":"hobyo_7323","citySlug":"hobyo","name":"Paseo Principal","category":"ocio","lat":5.357555604457271,"lng":48.521664969777106,"avgVisitMinutes":73,"estimatedCostEur":23,"score":2.887124152848123},{"id":"hobyo_4185","citySlug":"hobyo","name":"Ruta de Tapas","category":"gastronomia","lat":5.342100121620619,"lng":48.53666065428183,"avgVisitMinutes":68,"estimatedCostEur":23,"score":4.1902797637930895},{"id":"hobyo_7923","citySlug":"hobyo","name":"Centro Histórico","category":"historia","lat":5.341362893474315,"lng":48.531548582761324,"avgVisitMinutes":33,"estimatedCostEur":11,"score":2.143059929817751},{"id":"hobyo_8291","citySlug":"hobyo","name":"Playa Central","category":"playa","lat":5.350053079432154,"lng":48.53416733803754,"avgVisitMinutes":37,"estimatedCostEur":15,"score":2.571425369298923},{"id":"hargeysa_5304","citySlug":"hargeysa","name":"Iglesia de Hargeysa","category":"historia","lat":9.560333863403383,"lng":44.074378324302145,"avgVisitMinutes":51,"estimatedCostEur":9,"score":3.613943757959076},{"id":"hargeysa_8382","citySlug":"hargeysa","name":"Mirador de Hargeysa","category":"mirador","lat":9.569209075403343,"lng":44.062435340566886,"avgVisitMinutes":27,"estimatedCostEur":7,"score":3.034868405411273},{"id":"hargeysa_7796","citySlug":"hargeysa","name":"Mirador de Hargeysa","category":"mirador","lat":9.562922420761238,"lng":44.06897131513056,"avgVisitMinutes":71,"estimatedCostEur":9,"score":3.935922058633954},{"id":"hargeysa_8045","citySlug":"hargeysa","name":"Restaurante Típico de Hargeysa","category":"gastronomia","lat":9.55429019109254,"lng":44.05532061118269,"avgVisitMinutes":35,"estimatedCostEur":23,"score":0.6015520471632867},{"id":"hargeysa_6281","citySlug":"hargeysa","name":"Teatro Municipal","category":"cultura","lat":9.552770565973445,"lng":44.0637530646745,"avgVisitMinutes":38,"estimatedCostEur":12,"score":2.1444116355948672},{"id":"hargeysa_6238","citySlug":"hargeysa","name":"Castillo de Hargeysa","category":"historia","lat":9.550434974368953,"lng":44.07363573395654,"avgVisitMinutes":83,"estimatedCostEur":13,"score":3.247221764964693},{"id":"hargeysa_6193","citySlug":"hargeysa","name":"Playa Norte","category":"playa","lat":9.569135889865327,"lng":44.05547170728941,"avgVisitMinutes":21,"estimatedCostEur":8,"score":4.502446822438019},{"id":"hargeysa_2203","citySlug":"hargeysa","name":"Punto Panorámico","category":"mirador","lat":9.562454874802341,"lng":44.07202462841308,"avgVisitMinutes":86,"estimatedCostEur":12,"score":2.07760595777928},{"id":"hargeysa_9462","citySlug":"hargeysa","name":"Paseo Principal","category":"ocio","lat":9.55664951841462,"lng":44.068212856400386,"avgVisitMinutes":79,"estimatedCostEur":20,"score":0.6980458543381877},{"id":"gorayacowl_4665","citySlug":"gorayacowl","name":"Teatro Municipal","category":"cultura","lat":9.868210745289824,"lng":43.219153990224214,"avgVisitMinutes":66,"estimatedCostEur":0,"score":2.399721037379489},{"id":"gorayacowl_9976","citySlug":"gorayacowl","name":"Paseo Principal","category":"ocio","lat":9.868669654332056,"lng":43.2292899362287,"avgVisitMinutes":34,"estimatedCostEur":8,"score":1.5659444751557892},{"id":"gorayacowl_5599","citySlug":"gorayacowl","name":"Restaurante Típico de Gorayacowl","category":"gastronomia","lat":9.870454745116925,"lng":43.22391082198736,"avgVisitMinutes":42,"estimatedCostEur":8,"score":4.302994727111771},{"id":"gorayacowl_2021","citySlug":"gorayacowl","name":"Zona Comercial","category":"ocio","lat":9.87266425174477,"lng":43.22054755614927,"avgVisitMinutes":63,"estimatedCostEur":20,"score":1.292629012020533},{"id":"gorayacowl_3334","citySlug":"gorayacowl","name":"Parque Central","category":"ocio","lat":9.872751996342842,"lng":43.23730118510186,"avgVisitMinutes":58,"estimatedCostEur":6,"score":3.5204905509586117},{"id":"gorayacowl_7058","citySlug":"gorayacowl","name":"Punto Panorámico","category":"mirador","lat":9.870590796295769,"lng":43.230450226605,"avgVisitMinutes":55,"estimatedCostEur":21,"score":2.5518900101776536},{"id":"gebiley_7092","citySlug":"gebiley","name":"Teatro Municipal","category":"cultura","lat":9.699165788265097,"lng":43.616031777598614,"avgVisitMinutes":45,"estimatedCostEur":10,"score":4.517959953838604},{"id":"gebiley_5434","citySlug":"gebiley","name":"Mercado Gastronómico","category":"gastronomia","lat":9.693397307393528,"lng":43.62563818837722,"avgVisitMinutes":27,"estimatedCostEur":22,"score":0.930486609448452},{"id":"gebiley_3149","citySlug":"gebiley","name":"Zona Comercial","category":"ocio","lat":9.706473418897529,"lng":43.6273387083835,"avgVisitMinutes":79,"estimatedCostEur":15,"score":2.252407137823604},{"id":"gebiley_9765","citySlug":"gebiley","name":"Punto Panorámico","category":"mirador","lat":9.693507775087244,"lng":43.62105586702269,"avgVisitMinutes":46,"estimatedCostEur":10,"score":0.6337281437567976},{"id":"gebiley_3449","citySlug":"gebiley","name":"Paseo Principal","category":"ocio","lat":9.69674262651039,"lng":43.63250329876697,"avgVisitMinutes":76,"estimatedCostEur":4,"score":3.0072267907061248},{"id":"gebiley_2442","citySlug":"gebiley","name":"Playa Central","category":"playa","lat":9.695710036274304,"lng":43.63301036045303,"avgVisitMinutes":62,"estimatedCostEur":9,"score":2.491440985650118},{"id":"garoowe_1806","citySlug":"garoowe","name":"Zona Comercial","category":"ocio","lat":8.406740576552052,"lng":48.48509194000679,"avgVisitMinutes":69,"estimatedCostEur":19,"score":2.2441830197061057},{"id":"garoowe_5876","citySlug":"garoowe","name":"Parque Central","category":"ocio","lat":8.395578171533327,"lng":48.47771996851413,"avgVisitMinutes":25,"estimatedCostEur":0,"score":1.886898740815317},{"id":"garoowe_1345","citySlug":"garoowe","name":"Playa Central","category":"playa","lat":8.406541524892537,"lng":48.48902752821836,"avgVisitMinutes":57,"estimatedCostEur":3,"score":2.34512539478135},{"id":"garoowe_9684","citySlug":"garoowe","name":"Playa Central","category":"playa","lat":8.404039354456176,"lng":48.48505490104027,"avgVisitMinutes":71,"estimatedCostEur":8,"score":3.2604766059950387},{"id":"garoowe_1404","citySlug":"garoowe","name":"Vista Alta de Garoowe","category":"mirador","lat":8.392915731925996,"lng":48.48714796454889,"avgVisitMinutes":27,"estimatedCostEur":10,"score":2.2507195875344657},{"id":"garoowe_9559","citySlug":"garoowe","name":"Paseo Principal","category":"ocio","lat":8.39442544558245,"lng":48.49242564995291,"avgVisitMinutes":69,"estimatedCostEur":5,"score":2.890589361141739},{"id":"garoowe_1782","citySlug":"garoowe","name":"Museo Cultural de Garoowe","category":"cultura","lat":8.395999740567726,"lng":48.477126146575316,"avgVisitMinutes":24,"estimatedCostEur":21,"score":2.544129175760747},{"id":"garbahaarrey_3639","citySlug":"garbahaarrey","name":"Mirador de Garbahaarrey","category":"mirador","lat":3.3299422370091745,"lng":42.22394955952945,"avgVisitMinutes":67,"estimatedCostEur":20,"score":3.555499181394916},{"id":"garbahaarrey_5303","citySlug":"garbahaarrey","name":"Galería de Arte","category":"cultura","lat":3.325179647136095,"lng":42.21158458423988,"avgVisitMinutes":87,"estimatedCostEur":10,"score":2.154666018595547},{"id":"garbahaarrey_3520","citySlug":"garbahaarrey","name":"Playa Central","category":"playa","lat":3.3196827554057475,"lng":42.21565009821672,"avgVisitMinutes":28,"estimatedCostEur":22,"score":1.678745685734707},{"id":"garbahaarrey_5258","citySlug":"garbahaarrey","name":"Iglesia de Garbahaarrey","category":"historia","lat":3.319846141221877,"lng":42.217232577561916,"avgVisitMinutes":62,"estimatedCostEur":10,"score":0.8009675095902704},{"id":"garbahaarrey_7195","citySlug":"garbahaarrey","name":"Paseo Principal","category":"ocio","lat":3.318992303559706,"lng":42.23067661443607,"avgVisitMinutes":34,"estimatedCostEur":2,"score":2.0321128603675493},{"id":"garadag_3949","citySlug":"garadag","name":"Centro de Arte de Garadag","category":"cultura","lat":9.490163456685222,"lng":46.87464761794909,"avgVisitMinutes":34,"estimatedCostEur":16,"score":1.0012295762150276},{"id":"garadag_4395","citySlug":"garadag","name":"Playa Norte","category":"playa","lat":9.49287472928843,"lng":46.86659581373666,"avgVisitMinutes":76,"estimatedCostEur":18,"score":3.9400203523219517},{"id":"garadag_4165","citySlug":"garadag","name":"Museo Cultural de Garadag","category":"cultura","lat":9.492123385946345,"lng":46.87365248168785,"avgVisitMinutes":30,"estimatedCostEur":22,"score":3.9788969972081207},{"id":"garadag_9944","citySlug":"garadag","name":"Playa Sur","category":"playa","lat":9.481935641259383,"lng":46.87483412520521,"avgVisitMinutes":55,"estimatedCostEur":7,"score":1.6321981557984013},{"id":"garadag_5535","citySlug":"garadag","name":"Ruta de Tapas","category":"gastronomia","lat":9.486768199782045,"lng":46.86475153230252,"avgVisitMinutes":32,"estimatedCostEur":24,"score":0.890733633702115},{"id":"garadag_7993","citySlug":"garadag","name":"Vista Alta de Garadag","category":"mirador","lat":9.478488964536233,"lng":46.87117271874856,"avgVisitMinutes":75,"estimatedCostEur":2,"score":1.1777407704288172},{"id":"garadag_8432","citySlug":"garadag","name":"Museo Cultural de Garadag","category":"cultura","lat":9.492324462267412,"lng":46.864215560192065,"avgVisitMinutes":82,"estimatedCostEur":10,"score":0.9011682993186395},{"id":"gaalkacyo_9315","citySlug":"gaalkacyo","name":"Ruta de Tapas","category":"gastronomia","lat":6.768261882205368,"lng":47.42600180966339,"avgVisitMinutes":25,"estimatedCostEur":17,"score":2.4269085666375707},{"id":"gaalkacyo_8389","citySlug":"gaalkacyo","name":"Centro Histórico","category":"historia","lat":6.761178154946808,"lng":47.430257418227754,"avgVisitMinutes":49,"estimatedCostEur":1,"score":3.3687643835820236},{"id":"gaalkacyo_5180","citySlug":"gaalkacyo","name":"Ruta de Tapas","category":"gastronomia","lat":6.770642802421627,"lng":47.43161018846224,"avgVisitMinutes":86,"estimatedCostEur":14,"score":1.4259549000383172},{"id":"gaalkacyo_6156","citySlug":"gaalkacyo","name":"Playa Sur","category":"playa","lat":6.7602371399951355,"lng":47.43511433868752,"avgVisitMinutes":89,"estimatedCostEur":24,"score":4.987482588567815},{"id":"gaalkacyo_8503","citySlug":"gaalkacyo","name":"Paseo Principal","category":"ocio","lat":6.763533574726609,"lng":47.435102341068934,"avgVisitMinutes":77,"estimatedCostEur":14,"score":2.575627269614273},{"id":"gaalkacyo_2182","citySlug":"gaalkacyo","name":"Restaurante Típico de Gaalkacyo","category":"gastronomia","lat":6.759929849035053,"lng":47.4333438025199,"avgVisitMinutes":81,"estimatedCostEur":7,"score":2.592745055893959},{"id":"gaalkacyo_5692","citySlug":"gaalkacyo","name":"Mirador de Gaalkacyo","category":"mirador","lat":6.772978593119258,"lng":47.43309542185808,"avgVisitMinutes":24,"estimatedCostEur":3,"score":1.7847440379309445},{"id":"gaalkacyo_6391","citySlug":"gaalkacyo","name":"Mercado Gastronómico","category":"gastronomia","lat":6.772407292404761,"lng":47.43798131841683,"avgVisitMinutes":62,"estimatedCostEur":16,"score":3.924544335302812},{"id":"eyl_5869","citySlug":"eyl","name":"Castillo de Eyl","category":"historia","lat":7.970402204709288,"lng":49.81175614988092,"avgVisitMinutes":62,"estimatedCostEur":7,"score":4.955694547816367},{"id":"eyl_2336","citySlug":"eyl","name":"Playa Sur","category":"playa","lat":7.974401694479033,"lng":49.819952405995735,"avgVisitMinutes":58,"estimatedCostEur":23,"score":3.283056337115031},{"id":"eyl_3672","citySlug":"eyl","name":"Centro de Arte de Eyl","category":"cultura","lat":7.984549794873386,"lng":49.820161713873574,"avgVisitMinutes":54,"estimatedCostEur":23,"score":2.001679667990115},{"id":"eyl_6110","citySlug":"eyl","name":"Ruta de Tapas","category":"gastronomia","lat":7.970481124206787,"lng":49.81127199320668,"avgVisitMinutes":83,"estimatedCostEur":6,"score":4.721672936371628},{"id":"eyl_6748","citySlug":"eyl","name":"Centro Histórico","category":"historia","lat":7.978576227850678,"lng":49.80826902415678,"avgVisitMinutes":88,"estimatedCostEur":9,"score":2.2819057504658318},{"id":"eyl_3036","citySlug":"eyl","name":"Museo Cultural de Eyl","category":"cultura","lat":7.987290729351466,"lng":49.823734290680264,"avgVisitMinutes":74,"estimatedCostEur":13,"score":2.99886313130442},{"id":"eyl_2018","citySlug":"eyl","name":"Vista Alta de Eyl","category":"mirador","lat":7.987222685170657,"lng":49.82206007381082,"avgVisitMinutes":37,"estimatedCostEur":17,"score":3.388145958026664},{"id":"el-dibir_1357","citySlug":"el-dibir","name":"Restaurante Típico de El Dibir","category":"gastronomia","lat":11.766157302180119,"lng":51.22213999670296,"avgVisitMinutes":83,"estimatedCostEur":12,"score":3.7306582849426073},{"id":"el-dibir_7147","citySlug":"el-dibir","name":"Playa Norte","category":"playa","lat":11.775713270130744,"lng":51.210353590641894,"avgVisitMinutes":37,"estimatedCostEur":6,"score":2.3553734025838593},{"id":"el-dibir_8496","citySlug":"el-dibir","name":"Murallas de El Dibir","category":"historia","lat":11.77512534509913,"lng":51.21999845745252,"avgVisitMinutes":70,"estimatedCostEur":16,"score":0.9719469909567453},{"id":"el-dibir_9677","citySlug":"el-dibir","name":"Castillo de El Dibir","category":"historia","lat":11.776284068603697,"lng":51.21762322768938,"avgVisitMinutes":51,"estimatedCostEur":9,"score":4.4125011533386775},{"id":"el-dibir_8082","citySlug":"el-dibir","name":"Paseo Principal","category":"ocio","lat":11.767725668768678,"lng":51.21870275356208,"avgVisitMinutes":81,"estimatedCostEur":12,"score":2.185052289213158},{"id":"el-dibir_3592","citySlug":"el-dibir","name":"Teatro Municipal","category":"cultura","lat":11.762308712620312,"lng":51.21036863979966,"avgVisitMinutes":31,"estimatedCostEur":19,"score":0.7786391318094285},{"id":"el-dibir_4624","citySlug":"el-dibir","name":"Restaurante Típico de El Dibir","category":"gastronomia","lat":11.75939011880387,"lng":51.21319343153117,"avgVisitMinutes":81,"estimatedCostEur":20,"score":1.3627656708688316},{"id":"el-dibir_9026","citySlug":"el-dibir","name":"Galería de Arte","category":"cultura","lat":11.75796145718273,"lng":51.21973950192365,"avgVisitMinutes":87,"estimatedCostEur":6,"score":4.256644853316102},{"id":"el-dibir_2066","citySlug":"el-dibir","name":"Playa Sur","category":"playa","lat":11.764498835122891,"lng":51.210627597287385,"avgVisitMinutes":23,"estimatedCostEur":10,"score":4.9653798269124945},{"id":"dujuuma_5207","citySlug":"dujuuma","name":"Museo Cultural de Dujuuma","category":"cultura","lat":1.2463684086504383,"lng":42.579389744776,"avgVisitMinutes":32,"estimatedCostEur":1,"score":3.3840986449306114},{"id":"dujuuma_4853","citySlug":"dujuuma","name":"Castillo de Dujuuma","category":"historia","lat":1.2519237125621345,"lng":42.57139518795489,"avgVisitMinutes":78,"estimatedCostEur":2,"score":2.582934386295095},{"id":"dujuuma_1533","citySlug":"dujuuma","name":"Mercado Gastronómico","category":"gastronomia","lat":1.2446896612136285,"lng":42.579348486877365,"avgVisitMinutes":35,"estimatedCostEur":10,"score":1.4358847246705997},{"id":"dujuuma_2251","citySlug":"dujuuma","name":"Galería de Arte","category":"cultura","lat":1.2449594995328546,"lng":42.57043015748871,"avgVisitMinutes":88,"estimatedCostEur":22,"score":2.4966979034488266},{"id":"dujuuma_2864","citySlug":"dujuuma","name":"Vista Alta de Dujuuma","category":"mirador","lat":1.2562379073978949,"lng":42.5774689334493,"avgVisitMinutes":36,"estimatedCostEur":5,"score":3.264956685995411},{"id":"dujuuma_4537","citySlug":"dujuuma","name":"Restaurante Típico de Dujuuma","category":"gastronomia","lat":1.2458678581005493,"lng":42.574508742743994,"avgVisitMinutes":41,"estimatedCostEur":13,"score":3.435309951706856},{"id":"diinsoor_9288","citySlug":"diinsoor","name":"Museo Local de Diinsoor","category":"historia","lat":2.410261716657381,"lng":42.986074149888275,"avgVisitMinutes":26,"estimatedCostEur":18,"score":4.22389520305837},{"id":"diinsoor_3808","citySlug":"diinsoor","name":"Zona Comercial","category":"ocio","lat":2.4015502334353913,"lng":42.9766210191713,"avgVisitMinutes":68,"estimatedCostEur":19,"score":1.475249472735684},{"id":"diinsoor_5769","citySlug":"diinsoor","name":"Playa Norte","category":"playa","lat":2.4153312715848463,"lng":42.96873361803949,"avgVisitMinutes":26,"estimatedCostEur":23,"score":2.97756006293501},{"id":"diinsoor_4083","citySlug":"diinsoor","name":"Mercado Gastronómico","category":"gastronomia","lat":2.4182651994612114,"lng":42.98352244213916,"avgVisitMinutes":30,"estimatedCostEur":0,"score":1.6424492279378182},{"id":"diinsoor_6961","citySlug":"diinsoor","name":"Paseo Principal","category":"ocio","lat":2.4003144455639407,"lng":42.97776800172481,"avgVisitMinutes":76,"estimatedCostEur":17,"score":1.495733752240729},{"id":"diinsoor_8863","citySlug":"diinsoor","name":"Mirador de Diinsoor","category":"mirador","lat":2.398944343706933,"lng":42.9694423542974,"avgVisitMinutes":77,"estimatedCostEur":1,"score":4.7359642496370356},{"id":"diinsoor_8802","citySlug":"diinsoor","name":"Mercado Gastronómico","category":"gastronomia","lat":2.4105061895588937,"lng":42.98088634909389,"avgVisitMinutes":73,"estimatedCostEur":1,"score":3.3379004393420635},{"id":"diinsoor_6110","citySlug":"diinsoor","name":"Vista Alta de Diinsoor","category":"mirador","lat":2.410221603916703,"lng":42.980869534991974,"avgVisitMinutes":21,"estimatedCostEur":10,"score":4.3827109202239285},{"id":"diinsoor_3491","citySlug":"diinsoor","name":"Museo Cultural de Diinsoor","category":"cultura","lat":2.4077338707493916,"lng":42.97051003114493,"avgVisitMinutes":38,"estimatedCostEur":8,"score":4.883942007147567},{"id":"diinsoor_1424","citySlug":"diinsoor","name":"Castillo de Diinsoor","category":"historia","lat":2.418271659860968,"lng":42.96966578377978,"avgVisitMinutes":85,"estimatedCostEur":7,"score":0.8422205147290467},{"id":"diinsoor_4179","citySlug":"diinsoor","name":"Ruta de Tapas","category":"gastronomia","lat":2.4175863737264125,"lng":42.97192771628632,"avgVisitMinutes":52,"estimatedCostEur":3,"score":4.8323475879554385},{"id":"dhuusamarreeb_6822","citySlug":"dhuusamarreeb","name":"Playa Norte","category":"playa","lat":5.532560212071327,"lng":46.382248717340694,"avgVisitMinutes":40,"estimatedCostEur":8,"score":2.549474038762929},{"id":"dhuusamarreeb_9161","citySlug":"dhuusamarreeb","name":"Museo Cultural de Dhuusamarreeb","category":"cultura","lat":5.540347917799483,"lng":46.38155623423402,"avgVisitMinutes":52,"estimatedCostEur":16,"score":1.2340995884019805},{"id":"dhuusamarreeb_5160","citySlug":"dhuusamarreeb","name":"Centro de Arte de Dhuusamarreeb","category":"cultura","lat":5.532701673024935,"lng":46.39524340509492,"avgVisitMinutes":85,"estimatedCostEur":0,"score":3.4948463570624253},{"id":"dhuusamarreeb_7267","citySlug":"dhuusamarreeb","name":"Playa Norte","category":"playa","lat":5.535410731003634,"lng":46.37776304682439,"avgVisitMinutes":44,"estimatedCostEur":8,"score":2.0337422586304394},{"id":"dhuusamarreeb_8104","citySlug":"dhuusamarreeb","name":"Museo Cultural de Dhuusamarreeb","category":"cultura","lat":5.54174775658137,"lng":46.385898927721996,"avgVisitMinutes":64,"estimatedCostEur":10,"score":4.891122319863626},{"id":"dhuusamarreeb_3921","citySlug":"dhuusamarreeb","name":"Playa Central","category":"playa","lat":5.5374525298644395,"lng":46.394525450044476,"avgVisitMinutes":80,"estimatedCostEur":5,"score":3.870662443996494},{"id":"dhuusamarreeb_3851","citySlug":"dhuusamarreeb","name":"Castillo de Dhuusamarreeb","category":"historia","lat":5.54230594945234,"lng":46.39643322353455,"avgVisitMinutes":31,"estimatedCostEur":12,"score":4.450965583303393},{"id":"dhuusamarreeb_2547","citySlug":"dhuusamarreeb","name":"Punto Panorámico","category":"mirador","lat":5.54488404316647,"lng":46.38212030008286,"avgVisitMinutes":32,"estimatedCostEur":5,"score":2.070101480166887},{"id":"dhuusamarreeb_2995","citySlug":"dhuusamarreeb","name":"Ruta de Tapas","category":"gastronomia","lat":5.525973492514267,"lng":46.38499898551472,"avgVisitMinutes":47,"estimatedCostEur":7,"score":3.22099865803187},{"id":"dhummay_8852","citySlug":"dhummay","name":"Punto Panorámico","category":"mirador","lat":8.334534230861543,"lng":47.06800116422928,"avgVisitMinutes":37,"estimatedCostEur":25,"score":2.6347097336807663},{"id":"dhummay_2023","citySlug":"dhummay","name":"Vista Alta de Dhummay","category":"mirador","lat":8.326118195993848,"lng":47.06420908557782,"avgVisitMinutes":37,"estimatedCostEur":24,"score":1.1712414551896397},{"id":"dhummay_2082","citySlug":"dhummay","name":"Zona Comercial","category":"ocio","lat":8.332999268553024,"lng":47.05917929731121,"avgVisitMinutes":20,"estimatedCostEur":4,"score":1.5040939348460427},{"id":"dhummay_6174","citySlug":"dhummay","name":"Vista Alta de Dhummay","category":"mirador","lat":8.325491313234718,"lng":47.05730721579332,"avgVisitMinutes":50,"estimatedCostEur":25,"score":4.026799916571008},{"id":"dhummay_3522","citySlug":"dhummay","name":"Restaurante Típico de Dhummay","category":"gastronomia","lat":8.336443894530413,"lng":47.0652307454526,"avgVisitMinutes":45,"estimatedCostEur":6,"score":1.7212026267858496},{"id":"dhummay_5288","citySlug":"dhummay","name":"Parque Central","category":"ocio","lat":8.324932155435372,"lng":47.06703861207638,"avgVisitMinutes":66,"estimatedCostEur":5,"score":1.9738903257311184},{"id":"dhummay_7933","citySlug":"dhummay","name":"Centro de Arte de Dhummay","category":"cultura","lat":8.322079861019622,"lng":47.05661803436691,"avgVisitMinutes":85,"estimatedCostEur":23,"score":1.9846242902214615},{"id":"dhamas_2342","citySlug":"dhamas","name":"Parque Central","category":"ocio","lat":3.1457382870155164,"lng":41.339531750540345,"avgVisitMinutes":54,"estimatedCostEur":21,"score":1.0559977960123894},{"id":"dhamas_8585","citySlug":"dhamas","name":"Mercado Gastronómico","category":"gastronomia","lat":3.1600420836375305,"lng":41.32877005176989,"avgVisitMinutes":61,"estimatedCostEur":9,"score":4.906381177477762},{"id":"dhamas_4107","citySlug":"dhamas","name":"Paseo Principal","category":"ocio","lat":3.162338348285501,"lng":41.327406079138164,"avgVisitMinutes":84,"estimatedCostEur":25,"score":2.520586172931062},{"id":"dhamas_3459","citySlug":"dhamas","name":"Mirador de Dhamas","category":"mirador","lat":3.1570153088028485,"lng":41.32757184158043,"avgVisitMinutes":36,"estimatedCostEur":15,"score":1.5770746327520133},{"id":"dhamas_6957","citySlug":"dhamas","name":"Restaurante Típico de Dhamas","category":"gastronomia","lat":3.1609899248724598,"lng":41.33417651966067,"avgVisitMinutes":61,"estimatedCostEur":6,"score":3.0805547633279846},{"id":"dhamas_8175","citySlug":"dhamas","name":"Paseo Principal","category":"ocio","lat":3.145334832890682,"lng":41.326961626473,"avgVisitMinutes":36,"estimatedCostEur":4,"score":4.215429050259285},{"id":"ceerigaabo_2329","citySlug":"ceerigaabo","name":"Vista Alta de Ceerigaabo","category":"mirador","lat":10.611302304699949,"lng":47.365221058807,"avgVisitMinutes":35,"estimatedCostEur":6,"score":3.8339200975115704},{"id":"ceerigaabo_8867","citySlug":"ceerigaabo","name":"Playa Norte","category":"playa","lat":10.62289044384685,"lng":47.368115086500076,"avgVisitMinutes":70,"estimatedCostEur":11,"score":1.247622224221595},{"id":"ceerigaabo_6265","citySlug":"ceerigaabo","name":"Playa Sur","category":"playa","lat":10.612707160952974,"lng":47.36703095744816,"avgVisitMinutes":51,"estimatedCostEur":19,"score":4.709752042300267},{"id":"ceerigaabo_8266","citySlug":"ceerigaabo","name":"Iglesia de Ceerigaabo","category":"historia","lat":10.620132474389106,"lng":47.3747532537501,"avgVisitMinutes":25,"estimatedCostEur":18,"score":3.952506413163363},{"id":"ceerigaabo_5929","citySlug":"ceerigaabo","name":"Galería de Arte","category":"cultura","lat":10.614920419085852,"lng":47.36833963945556,"avgVisitMinutes":52,"estimatedCostEur":14,"score":1.3812553632840179},{"id":"ceerigaabo_5693","citySlug":"ceerigaabo","name":"Restaurante Típico de Ceerigaabo","category":"gastronomia","lat":10.613940776489894,"lng":47.3653520529122,"avgVisitMinutes":48,"estimatedCostEur":8,"score":3.908340648472809},{"id":"ceerigaabo_1634","citySlug":"ceerigaabo","name":"Museo Cultural de Ceerigaabo","category":"cultura","lat":10.607881281371487,"lng":47.377042044822446,"avgVisitMinutes":84,"estimatedCostEur":21,"score":2.6709307467237595},{"id":"ceerigaabo_4394","citySlug":"ceerigaabo","name":"Ruta de Tapas","category":"gastronomia","lat":10.613961417985404,"lng":47.36170548986226,"avgVisitMinutes":72,"estimatedCostEur":24,"score":2.407745605682253},{"id":"ceerigaabo_6619","citySlug":"ceerigaabo","name":"Playa Norte","category":"playa","lat":10.609880265857614,"lng":47.37272988093485,"avgVisitMinutes":44,"estimatedCostEur":21,"score":2.72387563734185},{"id":"ceerigaabo_2356","citySlug":"ceerigaabo","name":"Parque Central","category":"ocio","lat":10.612309059834658,"lng":47.3629806298249,"avgVisitMinutes":78,"estimatedCostEur":16,"score":0.9941750941364971},{"id":"ceeldheer_4595","citySlug":"ceeldheer","name":"Zona Comercial","category":"ocio","lat":3.8514049353237154,"lng":47.17427361926745,"avgVisitMinutes":80,"estimatedCostEur":19,"score":3.393393234728679},{"id":"ceeldheer_2688","citySlug":"ceeldheer","name":"Murallas de Ceeldheer","category":"historia","lat":3.8404702072276886,"lng":47.17927059568886,"avgVisitMinutes":63,"estimatedCostEur":25,"score":2.1902812829153038},{"id":"ceeldheer_2368","citySlug":"ceeldheer","name":"Galería de Arte","category":"cultura","lat":3.8505216463166207,"lng":47.18231276535001,"avgVisitMinutes":46,"estimatedCostEur":9,"score":2.3443141904092917},{"id":"ceeldheer_5003","citySlug":"ceeldheer","name":"Mirador de Ceeldheer","category":"mirador","lat":3.838788884552803,"lng":47.17173468234894,"avgVisitMinutes":50,"estimatedCostEur":12,"score":4.735857314558736},{"id":"ceeldheer_5696","citySlug":"ceeldheer","name":"Paseo Principal","category":"ocio","lat":3.84915475706964,"lng":47.189005095428605,"avgVisitMinutes":45,"estimatedCostEur":0,"score":3.402350791908932},{"id":"ceeldheer_1675","citySlug":"ceeldheer","name":"Playa Central","category":"playa","lat":3.8587489733586713,"lng":47.180927728125006,"avgVisitMinutes":37,"estimatedCostEur":16,"score":2.656771713827959},{"id":"ceeldheer_3511","citySlug":"ceeldheer","name":"Vista Alta de Ceeldheer","category":"mirador","lat":3.841956243425446,"lng":47.17657673708237,"avgVisitMinutes":30,"estimatedCostEur":20,"score":1.5074223273104674},{"id":"ceeldheer_5604","citySlug":"ceeldheer","name":"Punto Panorámico","category":"mirador","lat":3.8570546738197122,"lng":47.18812470923428,"avgVisitMinutes":59,"estimatedCostEur":3,"score":1.465601100010801},{"id":"ceelbuur_3560","citySlug":"ceelbuur","name":"Playa Sur","category":"playa","lat":4.684739395256498,"lng":46.61153231445579,"avgVisitMinutes":86,"estimatedCostEur":0,"score":4.840901666029536},{"id":"ceelbuur_1379","citySlug":"ceelbuur","name":"Playa Sur","category":"playa","lat":4.682039709835957,"lng":46.62107887544689,"avgVisitMinutes":80,"estimatedCostEur":6,"score":3.030433706562251},{"id":"ceelbuur_5338","citySlug":"ceelbuur","name":"Playa Central","category":"playa","lat":4.684471550427939,"lng":46.608930997992324,"avgVisitMinutes":63,"estimatedCostEur":13,"score":4.007600673961771},{"id":"ceelbuur_3853","citySlug":"ceelbuur","name":"Punto Panorámico","category":"mirador","lat":4.679365428130128,"lng":46.62269682566432,"avgVisitMinutes":63,"estimatedCostEur":25,"score":1.0443567085874461},{"id":"ceelbuur_1024","citySlug":"ceelbuur","name":"Playa Central","category":"playa","lat":4.680848877684408,"lng":46.61359286209046,"avgVisitMinutes":74,"estimatedCostEur":7,"score":4.183606429604092},{"id":"ceelbuur_8689","citySlug":"ceelbuur","name":"Playa Sur","category":"playa","lat":4.675165188643331,"lng":46.616488274571005,"avgVisitMinutes":33,"estimatedCostEur":20,"score":0.714400632863816},{"id":"ceek_3986","citySlug":"ceek","name":"Teatro Municipal","category":"cultura","lat":9.009006106165524,"lng":45.3559823522901,"avgVisitMinutes":75,"estimatedCostEur":9,"score":4.7561648248970885},{"id":"ceek_4431","citySlug":"ceek","name":"Parque Central","category":"ocio","lat":8.991524799684857,"lng":45.36601507702039,"avgVisitMinutes":45,"estimatedCostEur":13,"score":2.7212012348716192},{"id":"ceek_8140","citySlug":"ceek","name":"Paseo Principal","category":"ocio","lat":8.997067304424313,"lng":45.35291958554158,"avgVisitMinutes":51,"estimatedCostEur":20,"score":2.5759167289466913},{"id":"ceek_7946","citySlug":"ceek","name":"Playa Central","category":"playa","lat":9.004049385598668,"lng":45.35488786306602,"avgVisitMinutes":53,"estimatedCostEur":0,"score":0.5106992960718608},{"id":"ceek_7346","citySlug":"ceek","name":"Iglesia de Ceek","category":"historia","lat":8.995256609497504,"lng":45.35691511079809,"avgVisitMinutes":70,"estimatedCostEur":1,"score":2.969884669450993},{"id":"ceek_2179","citySlug":"ceek","name":"Playa Norte","category":"playa","lat":9.005613729036755,"lng":45.34924255786023,"avgVisitMinutes":34,"estimatedCostEur":10,"score":3.9934710273432685},{"id":"ceek_4949","citySlug":"ceek","name":"Playa Central","category":"playa","lat":8.990104516944772,"lng":45.36764589564236,"avgVisitMinutes":42,"estimatedCostEur":9,"score":0.7756589134739398},{"id":"ceek_3780","citySlug":"ceek","name":"Restaurante Típico de Ceek","category":"gastronomia","lat":9.00467562271493,"lng":45.3670074840286,"avgVisitMinutes":34,"estimatedCostEur":2,"score":3.9028220427323204},{"id":"caluula_8834","citySlug":"caluula","name":"Zona Comercial","category":"ocio","lat":11.969588373736483,"lng":50.757895312151696,"avgVisitMinutes":20,"estimatedCostEur":15,"score":3.409675721688837},{"id":"caluula_6143","citySlug":"caluula","name":"Murallas de Caluula","category":"historia","lat":11.962495403817437,"lng":50.762162869656336,"avgVisitMinutes":90,"estimatedCostEur":1,"score":2.938377310821992},{"id":"caluula_7285","citySlug":"caluula","name":"Castillo de Caluula","category":"historia","lat":11.964279761292767,"lng":50.74848752072862,"avgVisitMinutes":79,"estimatedCostEur":16,"score":4.202602988915054},{"id":"caluula_6292","citySlug":"caluula","name":"Ruta de Tapas","category":"gastronomia","lat":11.967107448608571,"lng":50.761814938449,"avgVisitMinutes":26,"estimatedCostEur":6,"score":2.818135957137325},{"id":"caluula_7790","citySlug":"caluula","name":"Paseo Principal","category":"ocio","lat":11.96634451357773,"lng":50.754091414164115,"avgVisitMinutes":35,"estimatedCostEur":21,"score":4.796001979918217},{"id":"caluula_1542","citySlug":"caluula","name":"Parque Central","category":"ocio","lat":11.967178736810359,"lng":50.76028507685857,"avgVisitMinutes":84,"estimatedCostEur":9,"score":3.2861956908220584},{"id":"caluula_6182","citySlug":"caluula","name":"Playa Central","category":"playa","lat":11.964574266607405,"lng":50.765901188950615,"avgVisitMinutes":50,"estimatedCostEur":7,"score":2.789206391749593},{"id":"caluula_9483","citySlug":"caluula","name":"Centro Histórico","category":"historia","lat":11.95955421635871,"lng":50.7577225200324,"avgVisitMinutes":31,"estimatedCostEur":1,"score":4.144504149327706},{"id":"caluula_4771","citySlug":"caluula","name":"Restaurante Típico de Caluula","category":"gastronomia","lat":11.96749727871039,"lng":50.751926097549266,"avgVisitMinutes":53,"estimatedCostEur":19,"score":2.8238175314106257},{"id":"caluula_5751","citySlug":"caluula","name":"Zona Comercial","category":"ocio","lat":11.963639163756126,"lng":50.75281289085272,"avgVisitMinutes":78,"estimatedCostEur":20,"score":2.992342378625489},{"id":"caluula_4229","citySlug":"caluula","name":"Zona Comercial","category":"ocio","lat":11.958722278776635,"lng":50.7585366971381,"avgVisitMinutes":66,"estimatedCostEur":1,"score":1.5935502248307434},{"id":"caluula_8904","citySlug":"caluula","name":"Galería de Arte","category":"cultura","lat":11.968760276832139,"lng":50.764896836808305,"avgVisitMinutes":37,"estimatedCostEur":24,"score":1.7958097446301862},{"id":"cadale_3999","citySlug":"cadale","name":"Mirador de Cadale","category":"mirador","lat":2.7633858963693894,"lng":46.32224870892005,"avgVisitMinutes":65,"estimatedCostEur":1,"score":2.736941085182855},{"id":"cadale_7098","citySlug":"cadale","name":"Punto Panorámico","category":"mirador","lat":2.767576263743196,"lng":46.3279777889655,"avgVisitMinutes":46,"estimatedCostEur":14,"score":1.9275308285488362},{"id":"cadale_3883","citySlug":"cadale","name":"Murallas de Cadale","category":"historia","lat":2.7524087322536044,"lng":46.327110859984984,"avgVisitMinutes":23,"estimatedCostEur":7,"score":3.9654736943877134},{"id":"cadale_1443","citySlug":"cadale","name":"Parque Central","category":"ocio","lat":2.754190596379031,"lng":46.312730407427516,"avgVisitMinutes":40,"estimatedCostEur":10,"score":1.9562766893366317},{"id":"cadale_9929","citySlug":"cadale","name":"Parque Central","category":"ocio","lat":2.761914683375717,"lng":46.32054404086286,"avgVisitMinutes":72,"estimatedCostEur":1,"score":0.5715709268923501},{"id":"cadale_8182","citySlug":"cadale","name":"Museo Cultural de Cadale","category":"cultura","lat":2.7591287428816376,"lng":46.321279790313724,"avgVisitMinutes":88,"estimatedCostEur":10,"score":3.417625888502813},{"id":"cabudwaaq_8612","citySlug":"cabudwaaq","name":"Mirador de Cabudwaaq","category":"mirador","lat":6.2475210668926,"lng":46.22008540195841,"avgVisitMinutes":31,"estimatedCostEur":15,"score":2.462750737893075},{"id":"cabudwaaq_5183","citySlug":"cabudwaaq","name":"Teatro Municipal","category":"cultura","lat":6.247943294675045,"lng":46.22376281425968,"avgVisitMinutes":57,"estimatedCostEur":23,"score":3.9138821688557144},{"id":"cabudwaaq_1115","citySlug":"cabudwaaq","name":"Ruta de Tapas","category":"gastronomia","lat":6.251660166238504,"lng":46.21928103851818,"avgVisitMinutes":62,"estimatedCostEur":0,"score":1.4290483615213057},{"id":"cabudwaaq_6398","citySlug":"cabudwaaq","name":"Playa Norte","category":"playa","lat":6.245208248559181,"lng":46.2203648187315,"avgVisitMinutes":56,"estimatedCostEur":6,"score":2.8172902246298737},{"id":"cabudwaaq_9240","citySlug":"cabudwaaq","name":"Castillo de Cabudwaaq","category":"historia","lat":6.2454266146982595,"lng":46.22536167569692,"avgVisitMinutes":87,"estimatedCostEur":11,"score":3.4546214515002434},{"id":"buurhakaba_3226","citySlug":"buurhakaba","name":"Vista Alta de Buurhakaba","category":"mirador","lat":2.8055694260836535,"lng":44.08517738744614,"avgVisitMinutes":68,"estimatedCostEur":10,"score":2.252660150139193},{"id":"buurhakaba_1938","citySlug":"buurhakaba","name":"Museo Local de Buurhakaba","category":"historia","lat":2.7933377459773125,"lng":44.07362578213369,"avgVisitMinutes":84,"estimatedCostEur":5,"score":1.6967730639987952},{"id":"buurhakaba_9731","citySlug":"buurhakaba","name":"Mirador de Buurhakaba","category":"mirador","lat":2.804607317746752,"lng":44.07569525762376,"avgVisitMinutes":81,"estimatedCostEur":15,"score":3.2350596273318226},{"id":"buurhakaba_6361","citySlug":"buurhakaba","name":"Teatro Municipal","category":"cultura","lat":2.7956620820825577,"lng":44.07681584167499,"avgVisitMinutes":49,"estimatedCostEur":12,"score":3.287647159922118},{"id":"buurhakaba_5243","citySlug":"buurhakaba","name":"Vista Alta de Buurhakaba","category":"mirador","lat":2.806792891703302,"lng":44.07148504761796,"avgVisitMinutes":65,"estimatedCostEur":15,"score":1.5616548057614503},{"id":"buurhakaba_7076","citySlug":"buurhakaba","name":"Mirador de Buurhakaba","category":"mirador","lat":2.808856532224203,"lng":44.07301367503932,"avgVisitMinutes":20,"estimatedCostEur":1,"score":2.8151344212098595},{"id":"buurhakaba_7344","citySlug":"buurhakaba","name":"Playa Central","category":"playa","lat":2.811464373443469,"lng":44.08126089264099,"avgVisitMinutes":48,"estimatedCostEur":17,"score":1.1008264510601968},{"id":"buur-gaabo_6696","citySlug":"buur-gaabo","name":"Galería de Arte","category":"cultura","lat":-1.2193649294745397,"lng":41.83148493028986,"avgVisitMinutes":80,"estimatedCostEur":9,"score":0.5675258094928219},{"id":"buur-gaabo_1139","citySlug":"buur-gaabo","name":"Castillo de Buur Gaabo","category":"historia","lat":-1.210471450493086,"lng":41.8471966767451,"avgVisitMinutes":67,"estimatedCostEur":8,"score":2.7352226411947105},{"id":"buur-gaabo_9486","citySlug":"buur-gaabo","name":"Paseo Principal","category":"ocio","lat":-1.2246149673323188,"lng":41.84129113226398,"avgVisitMinutes":90,"estimatedCostEur":9,"score":0.9646790606920242},{"id":"buur-gaabo_3658","citySlug":"buur-gaabo","name":"Ruta de Tapas","category":"gastronomia","lat":-1.2223795246709446,"lng":41.82913332080726,"avgVisitMinutes":31,"estimatedCostEur":25,"score":2.389811071232532},{"id":"buur-gaabo_1141","citySlug":"buur-gaabo","name":"Ruta de Tapas","category":"gastronomia","lat":-1.212586880669938,"lng":41.84479054579785,"avgVisitMinutes":86,"estimatedCostEur":3,"score":2.2179513744212302},{"id":"buur-gaabo_2844","citySlug":"buur-gaabo","name":"Restaurante Típico de Buur Gaabo","category":"gastronomia","lat":-1.2156902904783933,"lng":41.84147525169471,"avgVisitMinutes":70,"estimatedCostEur":2,"score":3.831393780327039},{"id":"buur-gaabo_1461","citySlug":"buur-gaabo","name":"Restaurante Típico de Buur Gaabo","category":"gastronomia","lat":-1.2156644485207155,"lng":41.84326234112792,"avgVisitMinutes":56,"estimatedCostEur":4,"score":4.550141990044223},{"id":"buur-gaabo_6643","citySlug":"buur-gaabo","name":"Mirador de Buur Gaabo","category":"mirador","lat":-1.2268886039259765,"lng":41.832766229112096,"avgVisitMinutes":35,"estimatedCostEur":10,"score":2.089558382331913},{"id":"buur-gaabo_1109","citySlug":"buur-gaabo","name":"Centro de Arte de Buur Gaabo","category":"cultura","lat":-1.2124018265639298,"lng":41.83898807676603,"avgVisitMinutes":39,"estimatedCostEur":4,"score":1.2738577490766696},{"id":"buur-gaabo_2082","citySlug":"buur-gaabo","name":"Museo Cultural de Buur Gaabo","category":"cultura","lat":-1.2279802021577972,"lng":41.836548182752125,"avgVisitMinutes":86,"estimatedCostEur":20,"score":1.0206770772221845},{"id":"buulobarde_8026","citySlug":"buulobarde","name":"Centro de Arte de Buulobarde","category":"cultura","lat":3.851078930210557,"lng":45.55817310693938,"avgVisitMinutes":88,"estimatedCostEur":22,"score":1.3030248231463448},{"id":"buulobarde_4126","citySlug":"buulobarde","name":"Playa Sur","category":"playa","lat":3.8630893148298013,"lng":45.570344086152666,"avgVisitMinutes":21,"estimatedCostEur":6,"score":1.3821823734867476},{"id":"buulobarde_9273","citySlug":"buulobarde","name":"Restaurante Típico de Buulobarde","category":"gastronomia","lat":3.8484950615649227,"lng":45.57116168111519,"avgVisitMinutes":35,"estimatedCostEur":19,"score":0.8461376470766703},{"id":"buulobarde_7195","citySlug":"buulobarde","name":"Vista Alta de Buulobarde","category":"mirador","lat":3.8508822887730036,"lng":45.56987136556887,"avgVisitMinutes":43,"estimatedCostEur":16,"score":1.6345157128628032},{"id":"buulobarde_3755","citySlug":"buulobarde","name":"Museo Local de Buulobarde","category":"historia","lat":3.853297104929563,"lng":45.560278605706415,"avgVisitMinutes":23,"estimatedCostEur":15,"score":4.459995865289552},{"id":"buulobarde_9572","citySlug":"buulobarde","name":"Vista Alta de Buulobarde","category":"mirador","lat":3.854834468475554,"lng":45.55920957012255,"avgVisitMinutes":30,"estimatedCostEur":1,"score":1.3754255303842373},{"id":"buulobarde_5930","citySlug":"buulobarde","name":"Vista Alta de Buulobarde","category":"mirador","lat":3.854961373888065,"lng":45.56877163030209,"avgVisitMinutes":29,"estimatedCostEur":19,"score":1.723923061460209},{"id":"buhodle_8483","citySlug":"buhodle","name":"Iglesia de Buhodle","category":"historia","lat":8.234617700094985,"lng":46.335276228134866,"avgVisitMinutes":45,"estimatedCostEur":23,"score":2.696711377857847},{"id":"buhodle_9015","citySlug":"buhodle","name":"Zona Comercial","category":"ocio","lat":8.226386500257606,"lng":46.32300793015633,"avgVisitMinutes":23,"estimatedCostEur":20,"score":4.907705542839524},{"id":"buhodle_2730","citySlug":"buhodle","name":"Parque Central","category":"ocio","lat":8.222882729212133,"lng":46.33020767896569,"avgVisitMinutes":42,"estimatedCostEur":9,"score":3.147094506435271},{"id":"buhodle_8369","citySlug":"buhodle","name":"Playa Norte","category":"playa","lat":8.236034752165322,"lng":46.33534140715284,"avgVisitMinutes":90,"estimatedCostEur":15,"score":1.3621288506617528},{"id":"buhodle_3014","citySlug":"buhodle","name":"Playa Sur","category":"playa","lat":8.220993596319891,"lng":46.32060323693348,"avgVisitMinutes":90,"estimatedCostEur":5,"score":0.9790344376517508},{"id":"burao_9643","citySlug":"burao","name":"Playa Sur","category":"playa","lat":9.515168296347868,"lng":45.54212826285486,"avgVisitMinutes":75,"estimatedCostEur":19,"score":3.937163461225709},{"id":"burao_5606","citySlug":"burao","name":"Vista Alta de Burao","category":"mirador","lat":9.530432298892752,"lng":45.527101491026876,"avgVisitMinutes":54,"estimatedCostEur":4,"score":1.7694153303388567},{"id":"burao_7790","citySlug":"burao","name":"Museo Cultural de Burao","category":"cultura","lat":9.51698260919455,"lng":45.527005905545984,"avgVisitMinutes":75,"estimatedCostEur":11,"score":4.346909203340611},{"id":"burao_4924","citySlug":"burao","name":"Punto Panorámico","category":"mirador","lat":9.529806685167475,"lng":45.54012750337033,"avgVisitMinutes":65,"estimatedCostEur":14,"score":3.897101067607144},{"id":"burao_4199","citySlug":"burao","name":"Mercado Gastronómico","category":"gastronomia","lat":9.514846939162833,"lng":45.52761389841839,"avgVisitMinutes":72,"estimatedCostEur":18,"score":2.8384565135998603},{"id":"burao_1377","citySlug":"burao","name":"Playa Central","category":"playa","lat":9.512383803204656,"lng":45.54187178200362,"avgVisitMinutes":27,"estimatedCostEur":1,"score":4.126156103175052},{"id":"burao_7712","citySlug":"burao","name":"Galería de Arte","category":"cultura","lat":9.528558099562845,"lng":45.524761694550115,"avgVisitMinutes":78,"estimatedCostEur":5,"score":2.520560894762437},{"id":"burao_2112","citySlug":"burao","name":"Playa Sur","category":"playa","lat":9.513622801405008,"lng":45.52761981522798,"avgVisitMinutes":40,"estimatedCostEur":6,"score":2.6370879589743277},{"id":"burao_2763","citySlug":"burao","name":"Playa Central","category":"playa","lat":9.517699628996823,"lng":45.541786713831655,"avgVisitMinutes":88,"estimatedCostEur":15,"score":4.618894119858494},{"id":"burao_5077","citySlug":"burao","name":"Playa Norte","category":"playa","lat":9.525350955796949,"lng":45.541934779482645,"avgVisitMinutes":70,"estimatedCostEur":20,"score":4.914911507088589},{"id":"buaale_7852","citySlug":"buaale","name":"Zona Comercial","category":"ocio","lat":1.083735729212347,"lng":42.58970076275005,"avgVisitMinutes":33,"estimatedCostEur":22,"score":2.0796830774754698},{"id":"buaale_4643","citySlug":"buaale","name":"Parque Central","category":"ocio","lat":1.088495096153007,"lng":42.582314511518184,"avgVisitMinutes":27,"estimatedCostEur":16,"score":4.612763080019234},{"id":"buaale_4667","citySlug":"buaale","name":"Centro de Arte de Bu’aale","category":"cultura","lat":1.0889812900701985,"lng":42.57633650361926,"avgVisitMinutes":54,"estimatedCostEur":5,"score":4.957158123504122},{"id":"buaale_5015","citySlug":"buaale","name":"Mercado Gastronómico","category":"gastronomia","lat":1.0873789406381897,"lng":42.58033779202561,"avgVisitMinutes":23,"estimatedCostEur":4,"score":1.3818964093959245},{"id":"buaale_7672","citySlug":"buaale","name":"Iglesia de Bu’aale","category":"historia","lat":1.0765061858206464,"lng":42.5771961068269,"avgVisitMinutes":81,"estimatedCostEur":22,"score":2.9940329709707894},{"id":"buaale_7128","citySlug":"buaale","name":"Ruta de Tapas","category":"gastronomia","lat":1.091952716712096,"lng":42.587447230636535,"avgVisitMinutes":70,"estimatedCostEur":15,"score":1.9821225787830095},{"id":"buaale_9019","citySlug":"buaale","name":"Playa Central","category":"playa","lat":1.076528997639855,"lng":42.57837234059452,"avgVisitMinutes":40,"estimatedCostEur":4,"score":2.4316639923760657},{"id":"bosaso_3684","citySlug":"bosaso","name":"Restaurante Típico de Bosaso","category":"gastronomia","lat":11.285882041325616,"lng":49.17600743331421,"avgVisitMinutes":56,"estimatedCostEur":22,"score":4.891525709616586},{"id":"bosaso_5887","citySlug":"bosaso","name":"Teatro Municipal","category":"cultura","lat":11.277991071543761,"lng":49.17921274078458,"avgVisitMinutes":41,"estimatedCostEur":11,"score":1.4309575694844439},{"id":"bosaso_8992","citySlug":"bosaso","name":"Centro Histórico","category":"historia","lat":11.277656177498217,"lng":49.18649121027897,"avgVisitMinutes":73,"estimatedCostEur":15,"score":4.9381057586530925},{"id":"bosaso_5588","citySlug":"bosaso","name":"Paseo Principal","category":"ocio","lat":11.285734226549476,"lng":49.17890642697195,"avgVisitMinutes":25,"estimatedCostEur":20,"score":3.3749602706270534},{"id":"bosaso_3515","citySlug":"bosaso","name":"Playa Sur","category":"playa","lat":11.279997715454217,"lng":49.17938721080468,"avgVisitMinutes":75,"estimatedCostEur":8,"score":1.638660474556131},{"id":"bosaso_8476","citySlug":"bosaso","name":"Murallas de Bosaso","category":"historia","lat":11.287782336345016,"lng":49.18707666344097,"avgVisitMinutes":39,"estimatedCostEur":20,"score":2.861319467787609},{"id":"bosaso_5684","citySlug":"bosaso","name":"Centro de Arte de Bosaso","category":"cultura","lat":11.276680493853343,"lng":49.18421860176017,"avgVisitMinutes":25,"estimatedCostEur":2,"score":3.6849590095022773},{"id":"bosaso_5676","citySlug":"bosaso","name":"Vista Alta de Bosaso","category":"mirador","lat":11.284736153652538,"lng":49.18904365555484,"avgVisitMinutes":23,"estimatedCostEur":1,"score":1.9932149523448348},{"id":"borama_7841","citySlug":"borama","name":"Mirador de Borama","category":"mirador","lat":9.939786138028396,"lng":43.174123782093766,"avgVisitMinutes":24,"estimatedCostEur":7,"score":1.2935332618134652},{"id":"borama_8946","citySlug":"borama","name":"Vista Alta de Borama","category":"mirador","lat":9.932301635586697,"lng":43.1902498376131,"avgVisitMinutes":83,"estimatedCostEur":1,"score":4.482451124955156},{"id":"borama_3009","citySlug":"borama","name":"Zona Comercial","category":"ocio","lat":9.93040290625151,"lng":43.17780415854862,"avgVisitMinutes":48,"estimatedCostEur":3,"score":4.035244443302595},{"id":"borama_8599","citySlug":"borama","name":"Playa Norte","category":"playa","lat":9.934211735178035,"lng":43.190300024281335,"avgVisitMinutes":39,"estimatedCostEur":5,"score":4.13450636484121},{"id":"borama_6090","citySlug":"borama","name":"Parque Central","category":"ocio","lat":9.942911380956005,"lng":43.1808787675571,"avgVisitMinutes":51,"estimatedCostEur":9,"score":1.97117616286308},{"id":"bereeda_9663","citySlug":"bereeda","name":"Playa Central","category":"playa","lat":11.869729604125244,"lng":51.05051176191536,"avgVisitMinutes":67,"estimatedCostEur":19,"score":4.078604687861077},{"id":"bereeda_4726","citySlug":"bereeda","name":"Centro de Arte de Bereeda","category":"cultura","lat":11.866457134776534,"lng":51.05427562242859,"avgVisitMinutes":25,"estimatedCostEur":21,"score":2.804431259844725},{"id":"bereeda_9724","citySlug":"bereeda","name":"Parque Central","category":"ocio","lat":11.876398079500932,"lng":51.05657922690809,"avgVisitMinutes":34,"estimatedCostEur":10,"score":4.852954751459207},{"id":"bereeda_7085","citySlug":"bereeda","name":"Playa Norte","category":"playa","lat":11.86059398049875,"lng":51.067885732990376,"avgVisitMinutes":87,"estimatedCostEur":3,"score":3.7675247134994048},{"id":"bereeda_9666","citySlug":"bereeda","name":"Playa Norte","category":"playa","lat":11.864601370485044,"lng":51.04951488405205,"avgVisitMinutes":35,"estimatedCostEur":21,"score":3.8032165778483424},{"id":"bereeda_9405","citySlug":"bereeda","name":"Galería de Arte","category":"cultura","lat":11.87776688401296,"lng":51.051161181212784,"avgVisitMinutes":35,"estimatedCostEur":3,"score":0.9673893862684992},{"id":"bereeda_4228","citySlug":"bereeda","name":"Centro de Arte de Bereeda","category":"cultura","lat":11.874405776528171,"lng":51.05378418018578,"avgVisitMinutes":23,"estimatedCostEur":15,"score":4.939509089173846},{"id":"bereeda_2775","citySlug":"bereeda","name":"Restaurante Típico de Bereeda","category":"gastronomia","lat":11.860676689370763,"lng":51.04875439840534,"avgVisitMinutes":39,"estimatedCostEur":0,"score":1.431561926492161},{"id":"berbera_9244","citySlug":"berbera","name":"Zona Comercial","category":"ocio","lat":10.43379821318336,"lng":45.02232019847176,"avgVisitMinutes":79,"estimatedCostEur":24,"score":2.9165656135229048},{"id":"berbera_9208","citySlug":"berbera","name":"Punto Panorámico","category":"mirador","lat":10.430628299184503,"lng":45.01534682214704,"avgVisitMinutes":26,"estimatedCostEur":17,"score":3.1143291280868155},{"id":"berbera_7399","citySlug":"berbera","name":"Parque Central","category":"ocio","lat":10.44588049868995,"lng":45.02090657391066,"avgVisitMinutes":79,"estimatedCostEur":11,"score":4.75697500805485},{"id":"berbera_2702","citySlug":"berbera","name":"Mercado Gastronómico","category":"gastronomia","lat":10.440880763428137,"lng":45.02185821237323,"avgVisitMinutes":46,"estimatedCostEur":24,"score":4.989706677854588},{"id":"berbera_9962","citySlug":"berbera","name":"Restaurante Típico de Berbera","category":"gastronomia","lat":10.43260824537763,"lng":45.01315933522425,"avgVisitMinutes":80,"estimatedCostEur":24,"score":3.242791683326943},{"id":"berbera_1806","citySlug":"berbera","name":"Mirador de Berbera","category":"mirador","lat":10.440619254050008,"lng":45.010824888176494,"avgVisitMinutes":53,"estimatedCostEur":9,"score":0.5601663434026096},{"id":"beledweyne_5309","citySlug":"beledweyne","name":"Museo Cultural de Beledweyne","category":"cultura","lat":4.730319336158687,"lng":45.20967384201354,"avgVisitMinutes":43,"estimatedCostEur":22,"score":2.34275409244188},{"id":"beledweyne_2462","citySlug":"beledweyne","name":"Parque Central","category":"ocio","lat":4.739924419196904,"lng":45.201506204884915,"avgVisitMinutes":27,"estimatedCostEur":23,"score":3.007060131069771},{"id":"beledweyne_4833","citySlug":"beledweyne","name":"Teatro Municipal","category":"cultura","lat":4.74279390599675,"lng":45.20317356203939,"avgVisitMinutes":43,"estimatedCostEur":17,"score":1.6371513808349656},{"id":"beledweyne_9862","citySlug":"beledweyne","name":"Ruta de Tapas","category":"gastronomia","lat":4.7451784723917365,"lng":45.207647970923446,"avgVisitMinutes":39,"estimatedCostEur":17,"score":3.0451350183953823},{"id":"beledweyne_8596","citySlug":"beledweyne","name":"Ruta de Tapas","category":"gastronomia","lat":4.728916562841346,"lng":45.201152812724395,"avgVisitMinutes":26,"estimatedCostEur":1,"score":3.7955272787096423},{"id":"beledweyne_3975","citySlug":"beledweyne","name":"Punto Panorámico","category":"mirador","lat":4.73312639499045,"lng":45.196548340995236,"avgVisitMinutes":20,"estimatedCostEur":2,"score":2.5804619247520995},{"id":"beledweyne_3661","citySlug":"beledweyne","name":"Zona Comercial","category":"ocio","lat":4.731264579523261,"lng":45.2036167727739,"avgVisitMinutes":40,"estimatedCostEur":15,"score":4.096837776789602},{"id":"beledweyne_2229","citySlug":"beledweyne","name":"Vista Alta de Beledweyne","category":"mirador","lat":4.741793832276274,"lng":45.200460650811976,"avgVisitMinutes":83,"estimatedCostEur":3,"score":1.0038512908581219},{"id":"baidoa_3821","citySlug":"baidoa","name":"Mercado Gastronómico","category":"gastronomia","lat":3.1061765505394265,"lng":43.650890300145996,"avgVisitMinutes":53,"estimatedCostEur":16,"score":1.7580921716220357},{"id":"baidoa_3903","citySlug":"baidoa","name":"Playa Central","category":"playa","lat":3.1045397652561793,"lng":43.64016549438298,"avgVisitMinutes":62,"estimatedCostEur":16,"score":0.9967169132229677},{"id":"baidoa_8940","citySlug":"baidoa","name":"Restaurante Típico de Baidoa","category":"gastronomia","lat":3.116204897246485,"lng":43.65932588652726,"avgVisitMinutes":53,"estimatedCostEur":9,"score":2.1367645390187944},{"id":"baidoa_6041","citySlug":"baidoa","name":"Murallas de Baidoa","category":"historia","lat":3.1097559343859724,"lng":43.64098298326432,"avgVisitMinutes":62,"estimatedCostEur":7,"score":3.2258132943965907},{"id":"baidoa_6677","citySlug":"baidoa","name":"Mirador de Baidoa","category":"mirador","lat":3.114876351475937,"lng":43.64711169234838,"avgVisitMinutes":53,"estimatedCostEur":8,"score":1.7525399876686394},{"id":"baidoa_2213","citySlug":"baidoa","name":"Playa Norte","category":"playa","lat":3.108689696284704,"lng":43.641346592860664,"avgVisitMinutes":42,"estimatedCostEur":22,"score":1.89419976112772},{"id":"baidoa_9598","citySlug":"baidoa","name":"Galería de Arte","category":"cultura","lat":3.1151301470233133,"lng":43.65850541277852,"avgVisitMinutes":60,"estimatedCostEur":4,"score":4.856193728336126},{"id":"baidoa_4549","citySlug":"baidoa","name":"Paseo Principal","category":"ocio","lat":3.120373406657949,"lng":43.648940846249715,"avgVisitMinutes":67,"estimatedCostEur":22,"score":3.174232413420976},{"id":"baidoa_2273","citySlug":"baidoa","name":"Mercado Gastronómico","category":"gastronomia","lat":3.1195554244550476,"lng":43.6515550635325,"avgVisitMinutes":66,"estimatedCostEur":10,"score":4.687867508447534},{"id":"baidoa_7387","citySlug":"baidoa","name":"Museo Cultural de Baidoa","category":"cultura","lat":3.109451599533735,"lng":43.64035436444629,"avgVisitMinutes":40,"estimatedCostEur":13,"score":1.1660884200820003},{"id":"bargaal_2435","citySlug":"bargaal","name":"Punto Panorámico","category":"mirador","lat":11.278655584871734,"lng":51.078812714407015,"avgVisitMinutes":54,"estimatedCostEur":22,"score":2.404169090695862},{"id":"bargaal_9541","citySlug":"bargaal","name":"Vista Alta de Bargaal","category":"mirador","lat":11.293695453261993,"lng":51.07214425070382,"avgVisitMinutes":39,"estimatedCostEur":0,"score":2.086596504051772},{"id":"bargaal_4432","citySlug":"bargaal","name":"Mercado Gastronómico","category":"gastronomia","lat":11.29422462368537,"lng":51.081260935563165,"avgVisitMinutes":26,"estimatedCostEur":8,"score":1.9310468029049654},{"id":"bargaal_7602","citySlug":"bargaal","name":"Restaurante Típico de Bargaal","category":"gastronomia","lat":11.283014593380647,"lng":51.069318108358594,"avgVisitMinutes":21,"estimatedCostEur":5,"score":1.7354245528991217},{"id":"bargaal_3329","citySlug":"bargaal","name":"Mirador de Bargaal","category":"mirador","lat":11.28285418670658,"lng":51.0683481072021,"avgVisitMinutes":26,"estimatedCostEur":17,"score":3.5845783902800172},{"id":"bargaal_9065","citySlug":"bargaal","name":"Vista Alta de Bargaal","category":"mirador","lat":11.278452051052717,"lng":51.08018651744368,"avgVisitMinutes":46,"estimatedCostEur":25,"score":1.0895780870385678},{"id":"bargaal_3845","citySlug":"bargaal","name":"Iglesia de Bargaal","category":"historia","lat":11.276836069312177,"lng":51.07180731949588,"avgVisitMinutes":25,"estimatedCostEur":14,"score":1.39954501954926},{"id":"bargaal_2558","citySlug":"bargaal","name":"Restaurante Típico de Bargaal","category":"gastronomia","lat":11.295056614968033,"lng":51.07427727318792,"avgVisitMinutes":45,"estimatedCostEur":2,"score":2.5582577713834964},{"id":"bargaal_8078","citySlug":"bargaal","name":"Playa Norte","category":"playa","lat":11.278288864461745,"lng":51.084045750740245,"avgVisitMinutes":71,"estimatedCostEur":10,"score":2.3418983666003426},{"id":"bargaal_4319","citySlug":"bargaal","name":"Iglesia de Bargaal","category":"historia","lat":11.285550883842147,"lng":51.073316682515014,"avgVisitMinutes":47,"estimatedCostEur":15,"score":4.116454832438585},{"id":"bargaal_7473","citySlug":"bargaal","name":"Playa Central","category":"playa","lat":11.296188156534178,"lng":51.075176697690615,"avgVisitMinutes":85,"estimatedCostEur":21,"score":3.426862605498615},{"id":"bandarbeyla_5513","citySlug":"bandarbeyla","name":"Vista Alta de Bandarbeyla","category":"mirador","lat":9.50186830950986,"lng":50.81843384932085,"avgVisitMinutes":47,"estimatedCostEur":11,"score":0.6463600623115585},{"id":"bandarbeyla_8597","citySlug":"bandarbeyla","name":"Paseo Principal","category":"ocio","lat":9.492786519941927,"lng":50.806770334929546,"avgVisitMinutes":77,"estimatedCostEur":14,"score":3.059092082071281},