{"country":"SS","pois":[{"id":"yirol_7286","citySlug":"yirol","name":"Punto Panorámico","category":"mirador","lat":6.560437500789923,"lng":30.492339089287114,"avgVisitMinutes":49,"estimatedCostEur":12,"score":3.22341275328905},{"id":"yirol_7164","citySlug":"yirol","name":"Mirador de Yirol","category":"mirador","lat":6.5448389361076496,"lng":30.50772253692892,"avgVisitMinutes":31,"estimatedCostEur":16,"score":3.591127972416678},{"id":"yirol_3300","citySlug":"yirol","name":"Mirador de Yirol","category":"mirador","lat":6.558996251104472,"lng":30.50526557011968,"avgVisitMinutes":62,"estimatedCostEur":5,"score":4.50241465561144},{"id":"yirol_8799","citySlug":"yirol","name":"Castillo de Yirol","category":"historia","lat":6.558805814175947,"lng":30.49414582019023,"avgVisitMinutes":20,"estimatedCostEur":11,"score":3.34361636171597},{"id":"yirol_4486","citySlug":"yirol","name":"Punto Panorámico","category":"mirador","lat":6.5607804827012925,"lng":30.50182826875314,"avgVisitMinutes":31,"estimatedCostEur":17,"score":4.377679099504114},{"id":"yirol_7444","citySlug":"yirol","name":"Restaurante Típico de Yirol","category":"gastronomia","lat":6.558048266175024,"lng":30.4945349003877,"avgVisitMinutes":76,"estimatedCostEur":6,"score":4.355255242671466},{"id":"yirol_9431","citySlug":"yirol","name":"Mercado Gastronómico","category":"gastronomia","lat":6.552327065816196,"lng":30.493342125623176,"avgVisitMinutes":34,"estimatedCostEur":8,"score":1.8610795010909689},{"id":"yirol_6315","citySlug":"yirol","name":"Restaurante Típico de Yirol","category":"gastronomia","lat":6.560815055425329,"lng":30.505906694136716,"avgVisitMinutes":66,"estimatedCostEur":24,"score":2.426272460903756},{"id":"yirol_5224","citySlug":"yirol","name":"Iglesia de Yirol","category":"historia","lat":6.5526788981784225,"lng":30.49353279002914,"avgVisitMinutes":46,"estimatedCostEur":17,"score":3.579914179866413},{"id":"yei_2016","citySlug":"yei","name":"Playa Central","category":"playa","lat":4.094050696647437,"lng":30.678408839735653,"avgVisitMinutes":58,"estimatedCostEur":18,"score":2.314709412894541},{"id":"yei_9411","citySlug":"yei","name":"Galería de Arte","category":"cultura","lat":4.0850043472951825,"lng":30.684105869051574,"avgVisitMinutes":54,"estimatedCostEur":24,"score":1.76945435010171},{"id":"yei_3927","citySlug":"yei","name":"Mercado Gastronómico","category":"gastronomia","lat":4.103175948565523,"lng":30.68487607957304,"avgVisitMinutes":38,"estimatedCostEur":5,"score":1.9482014301621349},{"id":"yei_2235","citySlug":"yei","name":"Playa Sur","category":"playa","lat":4.090873686461978,"lng":30.680474347244136,"avgVisitMinutes":64,"estimatedCostEur":1,"score":3.310188783777808},{"id":"yei_7920","citySlug":"yei","name":"Murallas de Yei","category":"historia","lat":4.097407383845242,"lng":30.669701306465893,"avgVisitMinutes":34,"estimatedCostEur":0,"score":1.5633180985172583},{"id":"yei_8908","citySlug":"yei","name":"Centro de Arte de Yei","category":"cultura","lat":4.091193003998588,"lng":30.674761279205537,"avgVisitMinutes":90,"estimatedCostEur":22,"score":0.9113408003437992},{"id":"yei_1798","citySlug":"yei","name":"Playa Central","category":"playa","lat":4.0912051504828835,"lng":30.67020077436855,"avgVisitMinutes":57,"estimatedCostEur":5,"score":4.514092295123463},{"id":"yambio_8479","citySlug":"yambio","name":"Playa Sur","category":"playa","lat":4.562982012533143,"lng":28.398655278438614,"avgVisitMinutes":75,"estimatedCostEur":3,"score":1.3757780046063237},{"id":"yambio_9485","citySlug":"yambio","name":"Playa Central","category":"playa","lat":4.56605562429969,"lng":28.39349275108449,"avgVisitMinutes":87,"estimatedCostEur":11,"score":4.063558268382174},{"id":"yambio_6837","citySlug":"yambio","name":"Playa Norte","category":"playa","lat":4.5748930520901805,"lng":28.40366460349058,"avgVisitMinutes":87,"estimatedCostEur":1,"score":3.47008046110155},{"id":"yambio_6408","citySlug":"yambio","name":"Punto Panorámico","category":"mirador","lat":4.573800106559993,"lng":28.397101235300976,"avgVisitMinutes":80,"estimatedCostEur":10,"score":4.942048599127586},{"id":"yambio_4830","citySlug":"yambio","name":"Mirador de Yambio","category":"mirador","lat":4.565100348283831,"lng":28.40389384521423,"avgVisitMinutes":64,"estimatedCostEur":16,"score":1.3813720669935734},{"id":"winejok_7704","citySlug":"winejok","name":"Galería de Arte","category":"cultura","lat":9.014858416714691,"lng":27.576231630545163,"avgVisitMinutes":30,"estimatedCostEur":17,"score":2.688827030664043},{"id":"winejok_6662","citySlug":"winejok","name":"Mercado Gastronómico","category":"gastronomia","lat":9.021292957245928,"lng":27.57902217246456,"avgVisitMinutes":31,"estimatedCostEur":13,"score":1.7284192296270495},{"id":"winejok_3073","citySlug":"winejok","name":"Mirador de Winejok","category":"mirador","lat":9.006922575163836,"lng":27.562847077942994,"avgVisitMinutes":89,"estimatedCostEur":7,"score":3.964307432058937},{"id":"winejok_6676","citySlug":"winejok","name":"Restaurante Típico de Winejok","category":"gastronomia","lat":9.007790485215223,"lng":27.566631674988617,"avgVisitMinutes":39,"estimatedCostEur":7,"score":1.453859593958113},{"id":"winejok_1637","citySlug":"winejok","name":"Galería de Arte","category":"cultura","lat":9.015017359792646,"lng":27.56718115667461,"avgVisitMinutes":45,"estimatedCostEur":17,"score":4.1137671940375355},{"id":"winejok_5681","citySlug":"winejok","name":"Mirador de Winejok","category":"mirador","lat":9.017754227732446,"lng":27.574307535497486,"avgVisitMinutes":31,"estimatedCostEur":18,"score":2.8622379201216392},{"id":"wau_7401","citySlug":"wau","name":"Vista Alta de Wau","category":"mirador","lat":7.699352986172589,"lng":27.98319940898978,"avgVisitMinutes":86,"estimatedCostEur":17,"score":1.4826700065687148},{"id":"wau_1440","citySlug":"wau","name":"Paseo Principal","category":"ocio","lat":7.709678228222037,"lng":27.99720293026559,"avgVisitMinutes":79,"estimatedCostEur":25,"score":4.184446972504226},{"id":"wau_8534","citySlug":"wau","name":"Museo Cultural de Wau","category":"cultura","lat":7.707630319080809,"lng":27.988951997147073,"avgVisitMinutes":73,"estimatedCostEur":11,"score":3.284715739028393},{"id":"wau_1037","citySlug":"wau","name":"Playa Sur","category":"playa","lat":7.710292987515501,"lng":27.988739537876217,"avgVisitMinutes":66,"estimatedCostEur":1,"score":3.5056647215167684},{"id":"wau_6496","citySlug":"wau","name":"Parque Central","category":"ocio","lat":7.70720953517818,"lng":27.98308945846155,"avgVisitMinutes":69,"estimatedCostEur":23,"score":0.5181469452224636},{"id":"wau_9012","citySlug":"wau","name":"Playa Central","category":"playa","lat":7.707901621315207,"lng":27.980355220773582,"avgVisitMinutes":36,"estimatedCostEur":21,"score":3.253187196779934},{"id":"wau_1369","citySlug":"wau","name":"Mercado Gastronómico","category":"gastronomia","lat":7.698920301327901,"lng":27.989064194993244,"avgVisitMinutes":84,"estimatedCostEur":15,"score":4.893566325184077},{"id":"wau_6012","citySlug":"wau","name":"Mirador de Wau","category":"mirador","lat":7.7097639406096246,"lng":27.990294043920315,"avgVisitMinutes":38,"estimatedCostEur":21,"score":4.2820239094409445},{"id":"aweil_1076","citySlug":"aweil","name":"Castillo de Aweil","category":"historia","lat":8.754457279677322,"lng":27.400608912344197,"avgVisitMinutes":78,"estimatedCostEur":25,"score":4.795294344805237},{"id":"aweil_1980","citySlug":"aweil","name":"Centro Histórico","category":"historia","lat":8.760012337383728,"lng":27.386288537104026,"avgVisitMinutes":24,"estimatedCostEur":7,"score":3.623140675598365},{"id":"aweil_9949","citySlug":"aweil","name":"Iglesia de Aweil","category":"historia","lat":8.763815712933022,"lng":27.396125010238173,"avgVisitMinutes":67,"estimatedCostEur":3,"score":2.5130977996864168},{"id":"aweil_2649","citySlug":"aweil","name":"Ruta de Tapas","category":"gastronomia","lat":8.771230415502577,"lng":27.401485818228274,"avgVisitMinutes":75,"estimatedCostEur":24,"score":3.8290596768917213},{"id":"aweil_5249","citySlug":"aweil","name":"Playa Norte","category":"playa","lat":8.755363621429819,"lng":27.396733773701023,"avgVisitMinutes":80,"estimatedCostEur":17,"score":4.772909650536344},{"id":"aweil_2427","citySlug":"aweil","name":"Paseo Principal","category":"ocio","lat":8.760922298097858,"lng":27.391612930312114,"avgVisitMinutes":90,"estimatedCostEur":23,"score":4.691612823812261},{"id":"aweil_7736","citySlug":"aweil","name":"Playa Central","category":"playa","lat":8.769766935015646,"lng":27.39865326262744,"avgVisitMinutes":58,"estimatedCostEur":3,"score":2.95896097285273},{"id":"aweil_8854","citySlug":"aweil","name":"Playa Central","category":"playa","lat":8.754375176289564,"lng":27.382019420631533,"avgVisitMinutes":59,"estimatedCostEur":22,"score":1.5842895826353223},{"id":"aweil_5754","citySlug":"aweil","name":"Ruta de Tapas","category":"gastronomia","lat":8.760403727347587,"lng":27.398897251821463,"avgVisitMinutes":63,"estimatedCostEur":10,"score":4.478234682295694},{"id":"aweil_1561","citySlug":"aweil","name":"Zona Comercial","category":"ocio","lat":8.76736022382945,"lng":27.39149449054852,"avgVisitMinutes":25,"estimatedCostEur":9,"score":1.280007284405395},{"id":"aweil_9163","citySlug":"aweil","name":"Museo Local de Aweil","category":"historia","lat":8.768725845171113,"lng":27.39355790629742,"avgVisitMinutes":42,"estimatedCostEur":11,"score":4.705905834593274},{"id":"torit_6711","citySlug":"torit","name":"Punto Panorámico","category":"mirador","lat":4.414876423579255,"lng":32.564010807735876,"avgVisitMinutes":27,"estimatedCostEur":25,"score":2.6321956432472766},{"id":"torit_6019","citySlug":"torit","name":"Museo Cultural de Torit","category":"cultura","lat":4.417745454884224,"lng":32.572848514730744,"avgVisitMinutes":49,"estimatedCostEur":24,"score":1.4059068776899155},{"id":"torit_6541","citySlug":"torit","name":"Murallas de Torit","category":"historia","lat":4.402382450002427,"lng":32.5641993425745,"avgVisitMinutes":70,"estimatedCostEur":11,"score":4.895319565763284},{"id":"torit_2778","citySlug":"torit","name":"Playa Norte","category":"playa","lat":4.402308620165723,"lng":32.57998037873375,"avgVisitMinutes":84,"estimatedCostEur":0,"score":2.5806693966876644},{"id":"torit_1450","citySlug":"torit","name":"Ruta de Tapas","category":"gastronomia","lat":4.420615960461989,"lng":32.57863770212453,"avgVisitMinutes":73,"estimatedCostEur":0,"score":3.4276502937925986},{"id":"torit_5161","citySlug":"torit","name":"Ruta de Tapas","category":"gastronomia","lat":4.411475920585931,"lng":32.5611670550702,"avgVisitMinutes":42,"estimatedCostEur":14,"score":0.943681040958285},{"id":"torit_9362","citySlug":"torit","name":"Museo Cultural de Torit","category":"cultura","lat":4.417685450947072,"lng":32.56783893594807,"avgVisitMinutes":53,"estimatedCostEur":16,"score":2.508203394830574},{"id":"torit_8971","citySlug":"torit","name":"Parque Central","category":"ocio","lat":4.4039973603155484,"lng":32.573985858274725,"avgVisitMinutes":39,"estimatedCostEur":12,"score":4.258563752576302},{"id":"torit_3561","citySlug":"torit","name":"Iglesia de Torit","category":"historia","lat":4.415807675449345,"lng":32.56373096112703,"avgVisitMinutes":61,"estimatedCostEur":11,"score":3.3634438223755856},{"id":"tonj_8521","citySlug":"tonj","name":"Ruta de Tapas","category":"gastronomia","lat":7.277098258283184,"lng":28.670677894396263,"avgVisitMinutes":78,"estimatedCostEur":2,"score":0.7282427658357888},{"id":"tonj_6715","citySlug":"tonj","name":"Restaurante Típico de Tonj","category":"gastronomia","lat":7.279098297932398,"lng":28.682730152576376,"avgVisitMinutes":85,"estimatedCostEur":3,"score":0.7071833299711732},{"id":"tonj_2694","citySlug":"tonj","name":"Mercado Gastronómico","category":"gastronomia","lat":7.280518512584642,"lng":28.668083222541345,"avgVisitMinutes":65,"estimatedCostEur":13,"score":1.2995439171264394},{"id":"tonj_6462","citySlug":"tonj","name":"Paseo Principal","category":"ocio","lat":7.273847499044453,"lng":28.683440002504547,"avgVisitMinutes":62,"estimatedCostEur":7,"score":4.210680513354565},{"id":"tonj_5824","citySlug":"tonj","name":"Paseo Principal","category":"ocio","lat":7.281543212873893,"lng":28.667517524605152,"avgVisitMinutes":57,"estimatedCostEur":13,"score":3.181444197681091},{"id":"tambura_6501","citySlug":"tambura","name":"Vista Alta de Tambura","category":"mirador","lat":5.608107524762365,"lng":27.475676341449883,"avgVisitMinutes":79,"estimatedCostEur":18,"score":1.8650286764784398},{"id":"tambura_8211","citySlug":"tambura","name":"Centro Histórico","category":"historia","lat":5.600203123138024,"lng":27.469827990858327,"avgVisitMinutes":49,"estimatedCostEur":18,"score":2.289612435798576},{"id":"tambura_4231","citySlug":"tambura","name":"Mirador de Tambura","category":"mirador","lat":5.594299583342384,"lng":27.45782653179826,"avgVisitMinutes":59,"estimatedCostEur":23,"score":3.3281122783846415},{"id":"tambura_2468","citySlug":"tambura","name":"Centro de Arte de Tambura","category":"cultura","lat":5.594023299996211,"lng":27.456962910334976,"avgVisitMinutes":25,"estimatedCostEur":16,"score":1.5533594013198389},{"id":"tambura_7042","citySlug":"tambura","name":"Mirador de Tambura","category":"mirador","lat":5.609234904143337,"lng":27.461015687009063,"avgVisitMinutes":33,"estimatedCostEur":0,"score":4.106584810487378},{"id":"tambura_2669","citySlug":"tambura","name":"Museo Local de Tambura","category":"historia","lat":5.607342977625462,"lng":27.47508089044533,"avgVisitMinutes":84,"estimatedCostEur":7,"score":1.9984331160071123},{"id":"tambura_9377","citySlug":"tambura","name":"Mercado Gastronómico","category":"gastronomia","lat":5.6019997301610855,"lng":27.46207816541595,"avgVisitMinutes":65,"estimatedCostEur":20,"score":2.5287110220192663},{"id":"tambura_4367","citySlug":"tambura","name":"Galería de Arte","category":"cultura","lat":5.607744501450732,"lng":27.4674502039776,"avgVisitMinutes":58,"estimatedCostEur":1,"score":4.617555942833431},{"id":"tambura_5648","citySlug":"tambura","name":"Centro de Arte de Tambura","category":"cultura","lat":5.6030212152956205,"lng":27.471504723098487,"avgVisitMinutes":77,"estimatedCostEur":21,"score":1.3144008969476733},{"id":"tambura_7362","citySlug":"tambura","name":"Playa Norte","category":"playa","lat":5.5925460341372615,"lng":27.474731759500585,"avgVisitMinutes":21,"estimatedCostEur":10,"score":3.82457893540974},{"id":"tambura_3597","citySlug":"tambura","name":"Mirador de Tambura","category":"mirador","lat":5.606323942946967,"lng":27.457618294447503,"avgVisitMinutes":37,"estimatedCostEur":14,"score":3.8420977269551946},{"id":"rumbek_6785","citySlug":"rumbek","name":"Teatro Municipal","category":"cultura","lat":6.814857850724099,"lng":29.67671042457774,"avgVisitMinutes":64,"estimatedCostEur":3,"score":3.495946978161647},{"id":"rumbek_9792","citySlug":"rumbek","name":"Restaurante Típico de Rumbek","category":"gastronomia","lat":6.814644535577466,"lng":29.671010750971444,"avgVisitMinutes":43,"estimatedCostEur":12,"score":4.7512320233379945},{"id":"rumbek_9661","citySlug":"rumbek","name":"Ruta de Tapas","category":"gastronomia","lat":6.811158222545119,"lng":29.675830134702178,"avgVisitMinutes":36,"estimatedCostEur":4,"score":1.378050181227428},{"id":"rumbek_3909","citySlug":"rumbek","name":"Castillo de Rumbek","category":"historia","lat":6.801919262679318,"lng":29.6873001250021,"avgVisitMinutes":58,"estimatedCostEur":11,"score":4.344602445944698},{"id":"rumbek_2937","citySlug":"rumbek","name":"Mirador de Rumbek","category":"mirador","lat":6.8145287279398135,"lng":29.686150902641366,"avgVisitMinutes":80,"estimatedCostEur":3,"score":0.9211323067580827},{"id":"raja_8015","citySlug":"raja","name":"Galería de Arte","category":"cultura","lat":8.473685804463267,"lng":25.68306858242831,"avgVisitMinutes":24,"estimatedCostEur":20,"score":0.5249207680362},{"id":"raja_9397","citySlug":"raja","name":"Paseo Principal","category":"ocio","lat":8.467233218521027,"lng":25.669654381207565,"avgVisitMinutes":21,"estimatedCostEur":15,"score":1.8045383048067039},{"id":"raja_3388","citySlug":"raja","name":"Centro Histórico","category":"historia","lat":8.46763246735901,"lng":25.67077194529452,"avgVisitMinutes":34,"estimatedCostEur":25,"score":3.3936488086279155},{"id":"raja_4340","citySlug":"raja","name":"Centro Histórico","category":"historia","lat":8.473934555885556,"lng":25.682470197299427,"avgVisitMinutes":83,"estimatedCostEur":3,"score":2.385060500789341},{"id":"raja_6758","citySlug":"raja","name":"Centro de Arte de Raja","category":"cultura","lat":8.472210115571999,"lng":25.671933146430163,"avgVisitMinutes":37,"estimatedCostEur":2,"score":0.7132564340510317},{"id":"raja_4795","citySlug":"raja","name":"Zona Comercial","category":"ocio","lat":8.464276031158686,"lng":25.68698552352559,"avgVisitMinutes":70,"estimatedCostEur":2,"score":4.006215364179086},{"id":"raja_4595","citySlug":"raja","name":"Iglesia de Raja","category":"historia","lat":8.467804197977268,"lng":25.68028546180266,"avgVisitMinutes":43,"estimatedCostEur":9,"score":1.2186396267077146},{"id":"raja_1008","citySlug":"raja","name":"Murallas de Raja","category":"historia","lat":8.457555841743682,"lng":25.66911818005454,"avgVisitMinutes":49,"estimatedCostEur":3,"score":2.4160305291195456},{"id":"maridi_5454","citySlug":"maridi","name":"Zona Comercial","category":"ocio","lat":4.912404294026044,"lng":29.46371067870953,"avgVisitMinutes":57,"estimatedCostEur":18,"score":4.120771366459044},{"id":"maridi_1644","citySlug":"maridi","name":"Galería de Arte","category":"cultura","lat":4.9159342081834225,"lng":29.46276653758228,"avgVisitMinutes":20,"estimatedCostEur":22,"score":1.5288889615777466},{"id":"maridi_3760","citySlug":"maridi","name":"Museo Local de Maridi","category":"historia","lat":4.918237572904859,"lng":29.465484535141872,"avgVisitMinutes":34,"estimatedCostEur":3,"score":2.829134956480295},{"id":"maridi_2746","citySlug":"maridi","name":"Playa Central","category":"playa","lat":4.920474720572737,"lng":29.463235077306553,"avgVisitMinutes":62,"estimatedCostEur":2,"score":4.437498220437073},{"id":"maridi_9243","citySlug":"maridi","name":"Ruta de Tapas","category":"gastronomia","lat":4.922731270001339,"lng":29.465005972576222,"avgVisitMinutes":89,"estimatedCostEur":2,"score":4.617052485667131},{"id":"maridi_3036","citySlug":"maridi","name":"Centro Histórico","category":"historia","lat":4.90939151466183,"lng":29.4745683028486,"avgVisitMinutes":58,"estimatedCostEur":19,"score":1.3680593436708544},{"id":"maridi_9591","citySlug":"maridi","name":"Ruta de Tapas","category":"gastronomia","lat":4.916415739671465,"lng":29.46677871727661,"avgVisitMinutes":32,"estimatedCostEur":23,"score":1.708254086289469},{"id":"malakal_7713","citySlug":"malakal","name":"Playa Central","category":"playa","lat":9.540254737994466,"lng":31.66735733274549,"avgVisitMinutes":48,"estimatedCostEur":24,"score":4.080566342232563},{"id":"malakal_6230","citySlug":"malakal","name":"Playa Central","category":"playa","lat":9.541291648123016,"lng":31.662777155447763,"avgVisitMinutes":35,"estimatedCostEur":12,"score":0.697171066306993},{"id":"malakal_4419","citySlug":"malakal","name":"Galería de Arte","category":"cultura","lat":9.527040948601044,"lng":31.66157022187735,"avgVisitMinutes":23,"estimatedCostEur":4,"score":0.6208218077407363},{"id":"malakal_2614","citySlug":"malakal","name":"Ruta de Tapas","category":"gastronomia","lat":9.533305637730441,"lng":31.653680429671773,"avgVisitMinutes":64,"estimatedCostEur":16,"score":1.5757855746189913},{"id":"malakal_1704","citySlug":"malakal","name":"Punto Panorámico","category":"mirador","lat":9.541083184595157,"lng":31.660692805691443,"avgVisitMinutes":25,"estimatedCostEur":9,"score":1.224931950526818},{"id":"malakal_8702","citySlug":"malakal","name":"Museo Local de Malakal","category":"historia","lat":9.537468263186327,"lng":31.660823302172982,"avgVisitMinutes":26,"estimatedCostEur":22,"score":4.0015770506627995},{"id":"malakal_8929","citySlug":"malakal","name":"Museo Local de Malakal","category":"historia","lat":9.538969861017005,"lng":31.67017059766912,"avgVisitMinutes":34,"estimatedCostEur":6,"score":4.079990007577014},{"id":"malakal_7507","citySlug":"malakal","name":"Punto Panorámico","category":"mirador","lat":9.526148525426587,"lng":31.657995343778925,"avgVisitMinutes":76,"estimatedCostEur":23,"score":0.7239643592515161},{"id":"malakal_4171","citySlug":"malakal","name":"Playa Sur","category":"playa","lat":9.5368249773648,"lng":31.67038514923598,"avgVisitMinutes":68,"estimatedCostEur":8,"score":0.6195039033405068},{"id":"leer_9222","citySlug":"leer","name":"Restaurante Típico de Leer","category":"gastronomia","lat":8.31086005554594,"lng":30.13614684978426,"avgVisitMinutes":49,"estimatedCostEur":20,"score":2.5876336980871613},{"id":"leer_4355","citySlug":"leer","name":"Castillo de Leer","category":"historia","lat":8.309940981371156,"lng":30.14885642268117,"avgVisitMinutes":45,"estimatedCostEur":7,"score":4.927754012337968},{"id":"leer_3953","citySlug":"leer","name":"Restaurante Típico de Leer","category":"gastronomia","lat":8.306920548933519,"lng":30.13966094273626,"avgVisitMinutes":39,"estimatedCostEur":14,"score":2.14969848312334},{"id":"leer_3671","citySlug":"leer","name":"Galería de Arte","category":"cultura","lat":8.300179691663102,"lng":30.149618972252274,"avgVisitMinutes":35,"estimatedCostEur":18,"score":1.4541181778439056},{"id":"leer_5609","citySlug":"leer","name":"Castillo de Leer","category":"historia","lat":8.306626679385394,"lng":30.131323375321983,"avgVisitMinutes":64,"estimatedCostEur":14,"score":1.9985961909695},{"id":"leer_5012","citySlug":"leer","name":"Teatro Municipal","category":"cultura","lat":8.293219706407301,"lng":30.135353375681877,"avgVisitMinutes":30,"estimatedCostEur":19,"score":2.8356363245755425},{"id":"leer_3111","citySlug":"leer","name":"Playa Sur","category":"playa","lat":8.29713014868013,"lng":30.137102001176736,"avgVisitMinutes":70,"estimatedCostEur":10,"score":2.0032010086492162},{"id":"leer_9303","citySlug":"leer","name":"Mercado Gastronómico","category":"gastronomia","lat":8.29975107820742,"lng":30.136756892595994,"avgVisitMinutes":41,"estimatedCostEur":12,"score":1.8020146397122654},{"id":"kuacjok_7564","citySlug":"kuacjok","name":"Mirador de Kuacjok","category":"mirador","lat":8.296044325946243,"lng":27.97583579044514,"avgVisitMinutes":62,"estimatedCostEur":10,"score":4.878438522033461},{"id":"kuacjok_3635","citySlug":"kuacjok","name":"Punto Panorámico","category":"mirador","lat":8.309626936537844,"lng":27.98741736585067,"avgVisitMinutes":68,"estimatedCostEur":3,"score":3.1805764536784302},{"id":"kuacjok_4151","citySlug":"kuacjok","name":"Zona Comercial","category":"ocio","lat":8.30783699806288,"lng":27.975376088029222,"avgVisitMinutes":26,"estimatedCostEur":0,"score":2.02122142778106},{"id":"kuacjok_3008","citySlug":"kuacjok","name":"Centro de Arte de Kuacjok","category":"cultura","lat":8.299563688297916,"lng":27.986576481015,"avgVisitMinutes":75,"estimatedCostEur":7,"score":0.638036671440468},{"id":"kuacjok_5380","citySlug":"kuacjok","name":"Mirador de Kuacjok","category":"mirador","lat":8.295520975635498,"lng":27.977532599630045,"avgVisitMinutes":48,"estimatedCostEur":0,"score":0.7169617741690946},{"id":"kuacjok_8917","citySlug":"kuacjok","name":"Punto Panorámico","category":"mirador","lat":8.305185000749553,"lng":27.984725957038744,"avgVisitMinutes":29,"estimatedCostEur":20,"score":2.512937110081712},{"id":"kuacjok_3581","citySlug":"kuacjok","name":"Restaurante Típico de Kuacjok","category":"gastronomia","lat":8.30657288503587,"lng":27.973699505250387,"avgVisitMinutes":32,"estimatedCostEur":4,"score":2.391383318349658},{"id":"kodok_5830","citySlug":"kodok","name":"Centro de Arte de Kodok","category":"cultura","lat":9.896813211656509,"lng":32.11058843845366,"avgVisitMinutes":89,"estimatedCostEur":19,"score":2.3197634632783823},{"id":"kodok_8436","citySlug":"kodok","name":"Ruta de Tapas","category":"gastronomia","lat":9.889273496196601,"lng":32.11674168032665,"avgVisitMinutes":41,"estimatedCostEur":13,"score":1.0238515761576175},{"id":"kodok_1388","citySlug":"kodok","name":"Museo Local de Kodok","category":"historia","lat":9.897773918736368,"lng":32.11195351571634,"avgVisitMinutes":72,"estimatedCostEur":18,"score":3.6672072412309706},{"id":"kodok_5708","citySlug":"kodok","name":"Playa Sur","category":"playa","lat":9.898077053812235,"lng":32.117588027337334,"avgVisitMinutes":54,"estimatedCostEur":21,"score":1.5371406883909067},{"id":"kodok_8240","citySlug":"kodok","name":"Zona Comercial","category":"ocio","lat":9.885742449945074,"lng":32.114597731555804,"avgVisitMinutes":34,"estimatedCostEur":7,"score":1.693581465996262},{"id":"kodok_2073","citySlug":"kodok","name":"Iglesia de Kodok","category":"historia","lat":9.897649340586083,"lng":32.10797544647741,"avgVisitMinutes":80,"estimatedCostEur":21,"score":4.298217013863118},{"id":"kodok_3277","citySlug":"kodok","name":"Parque Central","category":"ocio","lat":9.891904907284026,"lng":32.10322950111379,"avgVisitMinutes":59,"estimatedCostEur":14,"score":3.0646686530946265},{"id":"kapoeta_4055","citySlug":"kapoeta","name":"Museo Cultural de Kapoeta","category":"cultura","lat":4.778811772239455,"lng":33.584257518815264,"avgVisitMinutes":61,"estimatedCostEur":11,"score":3.547257565454423},{"id":"kapoeta_4784","citySlug":"kapoeta","name":"Parque Central","category":"ocio","lat":4.762599139100588,"lng":33.592309355960545,"avgVisitMinutes":60,"estimatedCostEur":6,"score":2.396826519343124},{"id":"kapoeta_4828","citySlug":"kapoeta","name":"Playa Central","category":"playa","lat":4.780833623466422,"lng":33.596784719011,"avgVisitMinutes":79,"estimatedCostEur":0,"score":3.0947867654741383},{"id":"kapoeta_4301","citySlug":"kapoeta","name":"Paseo Principal","category":"ocio","lat":4.779382407501033,"lng":33.58426969747788,"avgVisitMinutes":42,"estimatedCostEur":1,"score":4.330593600302646},{"id":"kapoeta_8055","citySlug":"kapoeta","name":"Centro de Arte de Kapoeta","category":"cultura","lat":4.767387845843636,"lng":33.59517065360227,"avgVisitMinutes":29,"estimatedCostEur":25,"score":2.020321794678609},{"id":"kapoeta_9963","citySlug":"kapoeta","name":"Parque Central","category":"ocio","lat":4.777834241293011,"lng":33.58509578393993,"avgVisitMinutes":71,"estimatedCostEur":15,"score":4.838013345152114},{"id":"kapoeta_7708","citySlug":"kapoeta","name":"Paseo Principal","category":"ocio","lat":4.7782327855984175,"lng":33.59015060784624,"avgVisitMinutes":62,"estimatedCostEur":22,"score":2.703936204637665},{"id":"kapoeta_5340","citySlug":"kapoeta","name":"Parque Central","category":"ocio","lat":4.76495989893017,"lng":33.59791735882734,"avgVisitMinutes":49,"estimatedCostEur":20,"score":3.8945522262195076},{"id":"kapoeta_7347","citySlug":"kapoeta","name":"Restaurante Típico de Kapoeta","category":"gastronomia","lat":4.764383856146163,"lng":33.60020312200933,"avgVisitMinutes":47,"estimatedCostEur":8,"score":1.4782452348168513},{"id":"kapoeta_6252","citySlug":"kapoeta","name":"Punto Panorámico","category":"mirador","lat":4.782045149912489,"lng":33.58533710515449,"avgVisitMinutes":28,"estimatedCostEur":15,"score":2.8907361176889697},{"id":"kapoeta_1553","citySlug":"kapoeta","name":"Teatro Municipal","category":"cultura","lat":4.768864379558745,"lng":33.596495424177704,"avgVisitMinutes":73,"estimatedCostEur":18,"score":1.3589964499545815},{"id":"kapoeta_6342","citySlug":"kapoeta","name":"Paseo Principal","category":"ocio","lat":4.769026892705332,"lng":33.588401103875874,"avgVisitMinutes":22,"estimatedCostEur":5,"score":1.226631583044574},{"id":"kafia-kingi_2613","citySlug":"kafia-kingi","name":"Iglesia de Kafia Kingi","category":"historia","lat":9.266439863088689,"lng":24.414653518702732,"avgVisitMinutes":73,"estimatedCostEur":16,"score":1.4069774062471405},{"id":"kafia-kingi_6652","citySlug":"kafia-kingi","name":"Ruta de Tapas","category":"gastronomia","lat":9.281713948042295,"lng":24.416237394823852,"avgVisitMinutes":67,"estimatedCostEur":7,"score":2.6491783064009313},{"id":"kafia-kingi_5567","citySlug":"kafia-kingi","name":"Centro Histórico","category":"historia","lat":9.275278764830457,"lng":24.41583150134436,"avgVisitMinutes":68,"estimatedCostEur":1,"score":2.0544008863835},{"id":"kafia-kingi_2230","citySlug":"kafia-kingi","name":"Restaurante Típico de Kafia Kingi","category":"gastronomia","lat":9.278836278379295,"lng":24.410192000276684,"avgVisitMinutes":69,"estimatedCostEur":13,"score":2.3530041751809656},{"id":"kafia-kingi_4842","citySlug":"kafia-kingi","name":"Centro Histórico","category":"historia","lat":9.266877366396184,"lng":24.41942352226011,"avgVisitMinutes":79,"estimatedCostEur":10,"score":2.75296460591654},{"id":"kafia-kingi_7569","citySlug":"kafia-kingi","name":"Centro Histórico","category":"historia","lat":9.265805033425004,"lng":24.41904418957915,"avgVisitMinutes":59,"estimatedCostEur":18,"score":2.835032916888136},{"id":"kafia-kingi_4491","citySlug":"kafia-kingi","name":"Playa Central","category":"playa","lat":9.275439806805284,"lng":24.415582842546794,"avgVisitMinutes":85,"estimatedCostEur":5,"score":2.982499167419268},{"id":"kafia-kingi_9587","citySlug":"kafia-kingi","name":"Playa Sur","category":"playa","lat":9.265926301297307,"lng":24.40702516549013,"avgVisitMinutes":88,"estimatedCostEur":0,"score":3.8822740221119365},{"id":"juba_2469","citySlug":"juba","name":"Mirador de Juba","category":"mirador","lat":4.850688764232239,"lng":31.59139379548768,"avgVisitMinutes":79,"estimatedCostEur":2,"score":2.087612649272575},{"id":"juba_2458","citySlug":"juba","name":"Galería de Arte","category":"cultura","lat":4.856963588443029,"lng":31.57676712098057,"avgVisitMinutes":49,"estimatedCostEur":0,"score":3.9473564848726284},{"id":"juba_5191","citySlug":"juba","name":"Playa Sur","category":"playa","lat":4.859678357977439,"lng":31.580428753354955,"avgVisitMinutes":61,"estimatedCostEur":14,"score":2.675670975529211},{"id":"juba_5744","citySlug":"juba","name":"Zona Comercial","category":"ocio","lat":4.850520027547305,"lng":31.585948062334158,"avgVisitMinutes":49,"estimatedCostEur":3,"score":2.0931390447456364},{"id":"juba_1348","citySlug":"juba","name":"Punto Panorámico","category":"mirador","lat":4.849678035504791,"lng":31.580041856594544,"avgVisitMinutes":29,"estimatedCostEur":7,"score":1.9647413611437596},{"id":"juba_8911","citySlug":"juba","name":"Playa Sur","category":"playa","lat":4.847121715957045,"lng":31.586346407814137,"avgVisitMinutes":37,"estimatedCostEur":2,"score":4.901544735466715},{"id":"gogrial_4712","citySlug":"gogrial","name":"Iglesia de Gogrial","category":"historia","lat":8.53939136726784,"lng":28.09594871369616,"avgVisitMinutes":22,"estimatedCostEur":24,"score":4.759121147345914},{"id":"gogrial_9439","citySlug":"gogrial","name":"Centro Histórico","category":"historia","lat":8.540702632169598,"lng":28.091609297095644,"avgVisitMinutes":63,"estimatedCostEur":6,"score":2.2682645957656566},{"id":"gogrial_5324","citySlug":"gogrial","name":"Museo Local de Gogrial","category":"historia","lat":8.524311136056154,"lng":28.106669212484736,"avgVisitMinutes":26,"estimatedCostEur":23,"score":2.0233315400350547},{"id":"gogrial_9403","citySlug":"gogrial","name":"Restaurante Típico de Gogrial","category":"gastronomia","lat":8.534527733814029,"lng":28.098356220025895,"avgVisitMinutes":70,"estimatedCostEur":2,"score":4.08899701872282},{"id":"gogrial_1509","citySlug":"gogrial","name":"Museo Local de Gogrial","category":"historia","lat":8.538026531137044,"lng":28.107440915795852,"avgVisitMinutes":44,"estimatedCostEur":12,"score":2.9230964414868117},{"id":"gogrial_6418","citySlug":"gogrial","name":"Punto Panorámico","category":"mirador","lat":8.52729064209719,"lng":28.1078326255914,"avgVisitMinutes":60,"estimatedCostEur":21,"score":2.1829120159999933},{"id":"pajok_3155","citySlug":"pajok","name":"Museo Cultural de Pajok","category":"cultura","lat":3.8666112368651038,"lng":32.47263798030436,"avgVisitMinutes":79,"estimatedCostEur":23,"score":2.2590777553865404},{"id":"pajok_4036","citySlug":"pajok","name":"Centro Histórico","category":"historia","lat":3.8593266247976197,"lng":32.49181996166366,"avgVisitMinutes":28,"estimatedCostEur":8,"score":4.456747523819265},{"id":"pajok_3941","citySlug":"pajok","name":"Playa Norte","category":"playa","lat":3.8587685657913364,"lng":32.484072228225415,"avgVisitMinutes":30,"estimatedCostEur":13,"score":0.7772958633992592},{"id":"pajok_1392","citySlug":"pajok","name":"Centro de Arte de Pajok","category":"cultura","lat":3.8591007146824703,"lng":32.47280602620357,"avgVisitMinutes":31,"estimatedCostEur":1,"score":3.9430905887738694},{"id":"pajok_6764","citySlug":"pajok","name":"Museo Cultural de Pajok","category":"cultura","lat":3.8662279574744343,"lng":32.491209985568425,"avgVisitMinutes":20,"estimatedCostEur":25,"score":1.48672383808092},{"id":"pajok_5403","citySlug":"pajok","name":"Teatro Municipal","category":"cultura","lat":3.8664546920614002,"lng":32.48619734600475,"avgVisitMinutes":21,"estimatedCostEur":6,"score":2.1651827543850506},{"id":"pajok_7479","citySlug":"pajok","name":"Playa Central","category":"playa","lat":3.872902531807819,"lng":32.488406779569345,"avgVisitMinutes":20,"estimatedCostEur":3,"score":1.86919504361471},{"id":"pajok_4881","citySlug":"pajok","name":"Mirador de Pajok","category":"mirador","lat":3.857401453162397,"lng":32.482287279078434,"avgVisitMinutes":68,"estimatedCostEur":20,"score":2.4504659339938892},{"id":"pajok_6558","citySlug":"pajok","name":"Galería de Arte","category":"cultura","lat":3.8629296244729106,"lng":32.47214736211336,"avgVisitMinutes":53,"estimatedCostEur":1,"score":4.869415402041412},{"id":"pajok_3315","citySlug":"pajok","name":"Museo Local de Pajok","category":"historia","lat":3.870803026412448,"lng":32.478844293874126,"avgVisitMinutes":69,"estimatedCostEur":25,"score":1.8263842782328268},{"id":"pajok_5757","citySlug":"pajok","name":"Centro Histórico","category":"historia","lat":3.8602529128262155,"lng":32.4742255937938,"avgVisitMinutes":68,"estimatedCostEur":3,"score":1.5404309872451096},{"id":"pajok_7528","citySlug":"pajok","name":"Ruta de Tapas","category":"gastronomia","lat":3.859600205170434,"lng":32.472224991666536,"avgVisitMinutes":76,"estimatedCostEur":17,"score":1.0071569989780447},{"id":"bor_7684","citySlug":"bor","name":"Museo Cultural de Bor","category":"cultura","lat":6.2058337277570015,"lng":31.566055179224875,"avgVisitMinutes":40,"estimatedCostEur":2,"score":1.9683570494091336},{"id":"bor_1737","citySlug":"bor","name":"Parque Central","category":"ocio","lat":6.206295106194402,"lng":31.55539963357363,"avgVisitMinutes":52,"estimatedCostEur":1,"score":3.7968630974196884},{"id":"bor_3349","citySlug":"bor","name":"Playa Sur","category":"playa","lat":6.203852973463859,"lng":31.566114511279565,"avgVisitMinutes":56,"estimatedCostEur":10,"score":3.1178771861438963},{"id":"bor_9624","citySlug":"bor","name":"Playa Norte","category":"playa","lat":6.20560746631197,"lng":31.552807127173345,"avgVisitMinutes":35,"estimatedCostEur":21,"score":3.1480083496606985},{"id":"bor_4706","citySlug":"bor","name":"Zona Comercial","category":"ocio","lat":6.204419023782697,"lng":31.565184748032127,"avgVisitMinutes":72,"estimatedCostEur":20,"score":4.1597673013418115},{"id":"bor_2360","citySlug":"bor","name":"Ruta de Tapas","category":"gastronomia","lat":6.2040393717676565,"lng":31.562234073219766,"avgVisitMinutes":37,"estimatedCostEur":21,"score":4.1377050184990365},{"id":"bor_4800","citySlug":"bor","name":"Teatro Municipal","category":"cultura","lat":6.2017128970349225,"lng":31.561590838680594,"avgVisitMinutes":38,"estimatedCostEur":8,"score":3.1034167057071573},{"id":"bor_1718","citySlug":"bor","name":"Restaurante Típico de Bor","category":"gastronomia","lat":6.207632847364966,"lng":31.559488850267734,"avgVisitMinutes":21,"estimatedCostEur":13,"score":2.8645504991256927},{"id":"bor_5510","citySlug":"bor","name":"Parque Central","category":"ocio","lat":6.207461078920998,"lng":31.55279004901691,"avgVisitMinutes":34,"estimatedCostEur":3,"score":3.74595797351905},{"id":"bor_1019","citySlug":"bor","name":"Playa Central","category":"playa","lat":6.208356979756658,"lng":31.556923561089963,"avgVisitMinutes":78,"estimatedCostEur":11,"score":0.7866328868417294},{"id":"bor_5200","citySlug":"bor","name":"Playa Central","category":"playa","lat":6.21399814150724,"lng":31.555232311359237,"avgVisitMinutes":20,"estimatedCostEur":4,"score":4.3046873733858515},{"id":"bentiu_1370","citySlug":"bentiu","name":"Zona Comercial","category":"ocio","lat":9.257297669843835,"lng":29.802517924677797,"avgVisitMinutes":20,"estimatedCostEur":5,"score":3.490900967127072},{"id":"bentiu_3470","citySlug":"bentiu","name":"Playa Norte","category":"playa","lat":9.249919980221211,"lng":29.804644057157166,"avgVisitMinutes":44,"estimatedCostEur":12,"score":2.200976227347348},{"id":"bentiu_4642","citySlug":"bentiu","name":"Teatro Municipal","category":"cultura","lat":9.253669685601073,"lng":29.801233504052835,"avgVisitMinutes":35,"estimatedCostEur":14,"score":4.165398264736633},{"id":"bentiu_2862","citySlug":"bentiu","name":"Vista Alta de Bentiu","category":"mirador","lat":9.25399508742648,"lng":29.797036285348266,"avgVisitMinutes":43,"estimatedCostEur":20,"score":0.6291774488675687},{"id":"bentiu_6774","citySlug":"bentiu","name":"Punto Panorámico","category":"mirador","lat":9.265063713379954,"lng":29.80121254551542,"avgVisitMinutes":25,"estimatedCostEur":11,"score":4.186147837410983},{"id":"bentiu_5295","citySlug":"bentiu","name":"Ruta de Tapas","category":"gastronomia","lat":9.25459633222266,"lng":29.79775806802464,"avgVisitMinutes":39,"estimatedCostEur":20,"score":3.821614792131504},{"id":"bentiu_2725","citySlug":"bentiu","name":"Parque Central","category":"ocio","lat":9.260645416474548,"lng":29.80428015087047,"avgVisitMinutes":57,"estimatedCostEur":4,"score":4.476522316990916},{"id":"bentiu_8696","citySlug":"bentiu","name":"Restaurante Típico de Bentiu","category":"gastronomia","lat":9.252186304118041,"lng":29.802733312495125,"avgVisitMinutes":60,"estimatedCostEur":25,"score":4.535758544027573}]}