{"country":"ST","pois":[{"id":"sundi_4001","citySlug":"sundi","name":"Playa Sur","category":"playa","lat":1.6767574252231996,"lng":7.385083560223666,"avgVisitMinutes":66,"estimatedCostEur":14,"score":1.1080230686123662},{"id":"sundi_7423","citySlug":"sundi","name":"Playa Sur","category":"playa","lat":1.6702670079922808,"lng":7.3838468891667866,"avgVisitMinutes":63,"estimatedCostEur":22,"score":3.1076366195442056},{"id":"sundi_4382","citySlug":"sundi","name":"Galería de Arte","category":"cultura","lat":1.66860497873101,"lng":7.389047208737101,"avgVisitMinutes":26,"estimatedCostEur":10,"score":0.5850036892413102},{"id":"sundi_6592","citySlug":"sundi","name":"Mirador de Sundi","category":"mirador","lat":1.671405294192229,"lng":7.377283481563858,"avgVisitMinutes":22,"estimatedCostEur":3,"score":1.9821158232993656},{"id":"sundi_1183","citySlug":"sundi","name":"Paseo Principal","category":"ocio","lat":1.6679100816136052,"lng":7.38892162417176,"avgVisitMinutes":28,"estimatedCostEur":16,"score":4.238103627605151},{"id":"sao-tome_2716","citySlug":"sao-tome","name":"Galería de Arte","category":"cultura","lat":0.3341499487786716,"lng":6.739012389587123,"avgVisitMinutes":70,"estimatedCostEur":14,"score":0.881772088748821},{"id":"sao-tome_1104","citySlug":"sao-tome","name":"Museo Cultural de São Tomé","category":"cultura","lat":0.34720430080205533,"lng":6.72583134077702,"avgVisitMinutes":29,"estimatedCostEur":3,"score":3.407344382518835},{"id":"sao-tome_7221","citySlug":"sao-tome","name":"Teatro Municipal","category":"cultura","lat":0.3363489640593149,"lng":6.721734750619748,"avgVisitMinutes":58,"estimatedCostEur":11,"score":1.6338768761228997},{"id":"sao-tome_1161","citySlug":"sao-tome","name":"Playa Central","category":"playa","lat":0.34496990592437565,"lng":6.724486713164361,"avgVisitMinutes":71,"estimatedCostEur":2,"score":2.9554874308311776},{"id":"sao-tome_2377","citySlug":"sao-tome","name":"Restaurante Típico de São Tomé","category":"gastronomia","lat":0.3395254480760737,"lng":6.727302228176562,"avgVisitMinutes":55,"estimatedCostEur":8,"score":2.641186049625047},{"id":"sao-tome_9551","citySlug":"sao-tome","name":"Vista Alta de São Tomé","category":"mirador","lat":0.3438142164829527,"lng":6.730396728752094,"avgVisitMinutes":53,"estimatedCostEur":18,"score":2.6440430673109097},{"id":"santo-antonio_8344","citySlug":"santo-antonio","name":"Vista Alta de Santo António","category":"mirador","lat":1.647859438665907,"lng":7.419719797169866,"avgVisitMinutes":47,"estimatedCostEur":2,"score":3.677666604490581},{"id":"santo-antonio_8560","citySlug":"santo-antonio","name":"Restaurante Típico de Santo António","category":"gastronomia","lat":1.6405434723050092,"lng":7.419474124591279,"avgVisitMinutes":50,"estimatedCostEur":4,"score":2.428698808279517},{"id":"santo-antonio_2864","citySlug":"santo-antonio","name":"Parque Central","category":"ocio","lat":1.6345223418196417,"lng":7.428645519798123,"avgVisitMinutes":73,"estimatedCostEur":22,"score":2.8548865068593727},{"id":"santo-antonio_1690","citySlug":"santo-antonio","name":"Teatro Municipal","category":"cultura","lat":1.6422422596753912,"lng":7.425086699613094,"avgVisitMinutes":41,"estimatedCostEur":17,"score":0.9121945074900797},{"id":"santo-antonio_8194","citySlug":"santo-antonio","name":"Restaurante Típico de Santo António","category":"gastronomia","lat":1.6487518456360684,"lng":7.4125423987330965,"avgVisitMinutes":51,"estimatedCostEur":9,"score":4.834299628202709},{"id":"santo-antonio_6519","citySlug":"santo-antonio","name":"Vista Alta de Santo António","category":"mirador","lat":1.648235698608974,"lng":7.4251445800072915,"avgVisitMinutes":87,"estimatedCostEur":3,"score":3.837593412958113},{"id":"santo-antonio_2886","citySlug":"santo-antonio","name":"Ruta de Tapas","category":"gastronomia","lat":1.6464197845959365,"lng":7.427046105431845,"avgVisitMinutes":81,"estimatedCostEur":0,"score":4.231973108562144},{"id":"santo-antonio_9628","citySlug":"santo-antonio","name":"Museo Local de Santo António","category":"historia","lat":1.6433482364320928,"lng":7.424867841662171,"avgVisitMinutes":28,"estimatedCostEur":17,"score":1.184490804023019},{"id":"santo-antonio_7358","citySlug":"santo-antonio","name":"Playa Norte","category":"playa","lat":1.6475204135023294,"lng":7.422240277233742,"avgVisitMinutes":21,"estimatedCostEur":1,"score":2.3860503610435746},{"id":"santo-antonio_2647","citySlug":"santo-antonio","name":"Museo Local de Santo António","category":"historia","lat":1.6342343318256598,"lng":7.424960608014006,"avgVisitMinutes":64,"estimatedCostEur":12,"score":2.1822405375453755},{"id":"santo-antonio_8242","citySlug":"santo-antonio","name":"Vista Alta de Santo António","category":"mirador","lat":1.6298016626300025,"lng":7.410994920909031,"avgVisitMinutes":88,"estimatedCostEur":5,"score":3.307815258130049},{"id":"santo-amaro_6090","citySlug":"santo-amaro","name":"Paseo Principal","category":"ocio","lat":0.3570905974715981,"lng":6.6837910350265135,"avgVisitMinutes":34,"estimatedCostEur":3,"score":2.0701091314378086},{"id":"santo-amaro_8535","citySlug":"santo-amaro","name":"Mercado Gastronómico","category":"gastronomia","lat":0.3738898936840165,"lng":6.68931300091998,"avgVisitMinutes":49,"estimatedCostEur":14,"score":2.6799039242214966},{"id":"santo-amaro_8428","citySlug":"santo-amaro","name":"Centro Histórico","category":"historia","lat":0.36547182447562,"lng":6.681846323027661,"avgVisitMinutes":38,"estimatedCostEur":24,"score":3.2699344717836567},{"id":"santo-amaro_9912","citySlug":"santo-amaro","name":"Mercado Gastronómico","category":"gastronomia","lat":0.36916436265003,"lng":6.687564636965444,"avgVisitMinutes":53,"estimatedCostEur":6,"score":4.938380363767731},{"id":"santo-amaro_7491","citySlug":"santo-amaro","name":"Punto Panorámico","category":"mirador","lat":0.36888264644016466,"lng":6.689419686276527,"avgVisitMinutes":77,"estimatedCostEur":9,"score":4.634634952640417},{"id":"santo-amaro_8950","citySlug":"santo-amaro","name":"Centro de Arte de Santo Amaro","category":"cultura","lat":0.35788824160387045,"lng":6.693549900305169,"avgVisitMinutes":37,"estimatedCostEur":9,"score":4.310568060000328},{"id":"santo-amaro_6548","citySlug":"santo-amaro","name":"Centro Histórico","category":"historia","lat":0.3737751561848083,"lng":6.68661895695941,"avgVisitMinutes":52,"estimatedCostEur":13,"score":2.5907121695278925},{"id":"santo-amaro_3600","citySlug":"santo-amaro","name":"Playa Sur","category":"playa","lat":0.3730247829607825,"lng":6.6979634218043715,"avgVisitMinutes":35,"estimatedCostEur":10,"score":1.8588881936572546},{"id":"santa-trindade_7763","citySlug":"santa-trindade","name":"Castillo de Santa Trindade","category":"historia","lat":1.614088087291283,"lng":7.393051403278281,"avgVisitMinutes":29,"estimatedCostEur":13,"score":4.223088703484585},{"id":"santa-trindade_7311","citySlug":"santa-trindade","name":"Teatro Municipal","category":"cultura","lat":1.6171252144521182,"lng":7.381426225936145,"avgVisitMinutes":85,"estimatedCostEur":18,"score":1.8030162267899084},{"id":"santa-trindade_3693","citySlug":"santa-trindade","name":"Restaurante Típico de Santa Trindade","category":"gastronomia","lat":1.6102806970071302,"lng":7.392507471376728,"avgVisitMinutes":74,"estimatedCostEur":21,"score":0.8174929259241676},{"id":"santa-trindade_3956","citySlug":"santa-trindade","name":"Galería de Arte","category":"cultura","lat":1.6206961166830962,"lng":7.401157567546271,"avgVisitMinutes":53,"estimatedCostEur":8,"score":3.0765197873834085},{"id":"santa-trindade_4576","citySlug":"santa-trindade","name":"Paseo Principal","category":"ocio","lat":1.6248661696916282,"lng":7.400791422391436,"avgVisitMinutes":22,"estimatedCostEur":7,"score":2.9290271947586315},{"id":"santa-trindade_2970","citySlug":"santa-trindade","name":"Playa Central","category":"playa","lat":1.6225472445752336,"lng":7.386949495082557,"avgVisitMinutes":84,"estimatedCostEur":15,"score":1.5836640488418212},{"id":"santa-trindade_3684","citySlug":"santa-trindade","name":"Ruta de Tapas","category":"gastronomia","lat":1.6109269185763193,"lng":7.3984442533801325,"avgVisitMinutes":65,"estimatedCostEur":5,"score":3.1725578706537148},{"id":"santa-trindade_3630","citySlug":"santa-trindade","name":"Playa Sur","category":"playa","lat":1.6163911111488487,"lng":7.396356805427912,"avgVisitMinutes":89,"estimatedCostEur":4,"score":2.6387853324502393},{"id":"santa-trindade_6639","citySlug":"santa-trindade","name":"Ruta de Tapas","category":"gastronomia","lat":1.6205345622233323,"lng":7.39293853094308,"avgVisitMinutes":65,"estimatedCostEur":20,"score":4.107130977324528},{"id":"santa-trindade_9078","citySlug":"santa-trindade","name":"Restaurante Típico de Santa Trindade","category":"gastronomia","lat":1.6249981391090096,"lng":7.388004929509384,"avgVisitMinutes":33,"estimatedCostEur":24,"score":2.9952676104186775},{"id":"santa-clara_9477","citySlug":"santa-clara","name":"Centro de Arte de Santa Clara","category":"cultura","lat":0.3495527184195244,"lng":6.616538964978064,"avgVisitMinutes":74,"estimatedCostEur":11,"score":2.406630088345876},{"id":"santa-clara_4121","citySlug":"santa-clara","name":"Paseo Principal","category":"ocio","lat":0.3468831769837717,"lng":6.620424277548709,"avgVisitMinutes":35,"estimatedCostEur":19,"score":4.846987099639027},{"id":"santa-clara_1964","citySlug":"santa-clara","name":"Playa Central","category":"playa","lat":0.35138545021845424,"lng":6.616078278831854,"avgVisitMinutes":25,"estimatedCostEur":19,"score":4.400204962922166},{"id":"santa-clara_5968","citySlug":"santa-clara","name":"Zona Comercial","category":"ocio","lat":0.35921705081803557,"lng":6.625392493025737,"avgVisitMinutes":33,"estimatedCostEur":10,"score":4.416671727419125},{"id":"santa-clara_4384","citySlug":"santa-clara","name":"Playa Central","category":"playa","lat":0.35266466410520314,"lng":6.611586697037533,"avgVisitMinutes":65,"estimatedCostEur":7,"score":3.156137979334537},{"id":"santa-clara_4778","citySlug":"santa-clara","name":"Playa Sur","category":"playa","lat":0.3497917018893061,"lng":6.617388068219368,"avgVisitMinutes":80,"estimatedCostEur":5,"score":0.9030256186405796},{"id":"santa-clara_5945","citySlug":"santa-clara","name":"Parque Central","category":"ocio","lat":0.3531048786269267,"lng":6.608825356544653,"avgVisitMinutes":44,"estimatedCostEur":23,"score":3.375865842995551},{"id":"santa-clara_6176","citySlug":"santa-clara","name":"Punto Panorámico","category":"mirador","lat":0.35180919364800894,"lng":6.6141294986609696,"avgVisitMinutes":61,"estimatedCostEur":18,"score":4.586038907175833},{"id":"santa-clara_8599","citySlug":"santa-clara","name":"Parque Central","category":"ocio","lat":0.34745103716171777,"lng":6.6145462576917815,"avgVisitMinutes":79,"estimatedCostEur":7,"score":0.9309512196109622},{"id":"rosema_1211","citySlug":"rosema","name":"Centro Histórico","category":"historia","lat":0.351254107495332,"lng":6.571712914806638,"avgVisitMinutes":85,"estimatedCostEur":10,"score":3.877608081054408},{"id":"rosema_2648","citySlug":"rosema","name":"Mirador de Rosema","category":"mirador","lat":0.3474124237229772,"lng":6.572519082477719,"avgVisitMinutes":83,"estimatedCostEur":13,"score":1.7329848134614623},{"id":"rosema_4456","citySlug":"rosema","name":"Vista Alta de Rosema","category":"mirador","lat":0.35342486062238004,"lng":6.57365846095797,"avgVisitMinutes":55,"estimatedCostEur":2,"score":4.350049144335768},{"id":"rosema_1455","citySlug":"rosema","name":"Museo Local de Rosema","category":"historia","lat":0.34924602937126936,"lng":6.568372522959141,"avgVisitMinutes":85,"estimatedCostEur":16,"score":4.268911180010594},{"id":"rosema_9108","citySlug":"rosema","name":"Centro Histórico","category":"historia","lat":0.34986087813179495,"lng":6.564517647806476,"avgVisitMinutes":71,"estimatedCostEur":5,"score":3.7480219488701327},{"id":"rosema_2784","citySlug":"rosema","name":"Playa Central","category":"playa","lat":0.35642270677645776,"lng":6.578805899359877,"avgVisitMinutes":79,"estimatedCostEur":3,"score":1.3079281641852534},{"id":"rosema_2353","citySlug":"rosema","name":"Murallas de Rosema","category":"historia","lat":0.35056403389558916,"lng":6.576340233567071,"avgVisitMinutes":81,"estimatedCostEur":8,"score":0.9242670264470388},{"id":"agostinho-neto_6118","citySlug":"agostinho-neto","name":"Vista Alta de Agostinho Neto","category":"mirador","lat":0.3754330937657404,"lng":6.64756351067923,"avgVisitMinutes":68,"estimatedCostEur":8,"score":3.577664874867607},{"id":"agostinho-neto_8373","citySlug":"agostinho-neto","name":"Playa Sur","category":"playa","lat":0.3590718424352645,"lng":6.650502368633542,"avgVisitMinutes":46,"estimatedCostEur":2,"score":2.201839331999859},{"id":"agostinho-neto_6141","citySlug":"agostinho-neto","name":"Vista Alta de Agostinho Neto","category":"mirador","lat":0.3687626836916618,"lng":6.6465747438984355,"avgVisitMinutes":30,"estimatedCostEur":16,"score":2.6762034958661065},{"id":"agostinho-neto_5407","citySlug":"agostinho-neto","name":"Parque Central","category":"ocio","lat":0.3597898093710979,"lng":6.634902120705364,"avgVisitMinutes":53,"estimatedCostEur":4,"score":2.083530691185087},{"id":"agostinho-neto_8845","citySlug":"agostinho-neto","name":"Museo Cultural de Agostinho Neto","category":"cultura","lat":0.36964472290199807,"lng":6.635537883606081,"avgVisitMinutes":69,"estimatedCostEur":5,"score":4.538395033542869},{"id":"agostinho-neto_8874","citySlug":"agostinho-neto","name":"Iglesia de Agostinho Neto","category":"historia","lat":0.37212088913013835,"lng":6.648538739917412,"avgVisitMinutes":67,"estimatedCostEur":7,"score":0.7908791452819098},{"id":"agostinho-neto_1201","citySlug":"agostinho-neto","name":"Museo Local de Agostinho Neto","category":"historia","lat":0.3745252129090935,"lng":6.6390286079528735,"avgVisitMinutes":22,"estimatedCostEur":1,"score":1.4910726409033064},{"id":"agostinho-neto_5537","citySlug":"agostinho-neto","name":"Playa Sur","category":"playa","lat":0.37694029175208715,"lng":6.644314019448673,"avgVisitMinutes":81,"estimatedCostEur":12,"score":2.0374836441523625},{"id":"agostinho-neto_6412","citySlug":"agostinho-neto","name":"Centro Histórico","category":"historia","lat":0.3581353473497507,"lng":6.635378587200607,"avgVisitMinutes":30,"estimatedCostEur":5,"score":3.1379918244723126},{"id":"agostinho-neto_2942","citySlug":"agostinho-neto","name":"Iglesia de Agostinho Neto","category":"historia","lat":0.3685959249635466,"lng":6.638113879939049,"avgVisitMinutes":27,"estimatedCostEur":10,"score":1.2074603237325117},{"id":"agostinho-neto_7361","citySlug":"agostinho-neto","name":"Vista Alta de Agostinho Neto","category":"mirador","lat":0.36511598661930356,"lng":6.642816148539891,"avgVisitMinutes":26,"estimatedCostEur":23,"score":3.1307709790016176},{"id":"agostinho-neto_6683","citySlug":"agostinho-neto","name":"Museo Cultural de Agostinho Neto","category":"cultura","lat":0.3722437308568808,"lng":6.6512126618216625,"avgVisitMinutes":37,"estimatedCostEur":18,"score":1.5172587729470788},{"id":"ribeira-funda_2705","citySlug":"ribeira-funda","name":"Punto Panorámico","category":"mirador","lat":0.36518354724500673,"lng":6.587504825780049,"avgVisitMinutes":36,"estimatedCostEur":14,"score":3.730703891677433},{"id":"ribeira-funda_3445","citySlug":"ribeira-funda","name":"Playa Norte","category":"playa","lat":0.3686659174065375,"lng":6.5763715445417015,"avgVisitMinutes":71,"estimatedCostEur":22,"score":1.294273584441044},{"id":"ribeira-funda_8512","citySlug":"ribeira-funda","name":"Teatro Municipal","category":"cultura","lat":0.3614461583934243,"lng":6.581872413239662,"avgVisitMinutes":38,"estimatedCostEur":14,"score":1.451136586351665},{"id":"ribeira-funda_8953","citySlug":"ribeira-funda","name":"Parque Central","category":"ocio","lat":0.3613382699691846,"lng":6.569507999230459,"avgVisitMinutes":47,"estimatedCostEur":1,"score":2.5963193583703887},{"id":"ribeira-funda_5361","citySlug":"ribeira-funda","name":"Murallas de Ribeira Funda","category":"historia","lat":0.3781637231164596,"lng":6.577112071935309,"avgVisitMinutes":72,"estimatedCostEur":5,"score":0.892358246409843},{"id":"ribeira-funda_8101","citySlug":"ribeira-funda","name":"Punto Panorámico","category":"mirador","lat":0.36056279461376384,"lng":6.580318401964895,"avgVisitMinutes":75,"estimatedCostEur":11,"score":3.9361929548992194},{"id":"ribeira-funda_4425","citySlug":"ribeira-funda","name":"Zona Comercial","category":"ocio","lat":0.37755115456878313,"lng":6.5709340403606715,"avgVisitMinutes":63,"estimatedCostEur":10,"score":1.9117070024578093},{"id":"ribeira-funda_3131","citySlug":"ribeira-funda","name":"Playa Sur","category":"playa","lat":0.37191729862533796,"lng":6.5822744137881415,"avgVisitMinutes":40,"estimatedCostEur":17,"score":3.7173594209587417},{"id":"ribeira-funda_1570","citySlug":"ribeira-funda","name":"Centro Histórico","category":"historia","lat":0.36407659463540254,"lng":6.569320760417956,"avgVisitMinutes":34,"estimatedCostEur":21,"score":0.6205372045025908},{"id":"ribeira-funda_7375","citySlug":"ribeira-funda","name":"Centro de Arte de Ribeira Funda","category":"cultura","lat":0.36057902572446876,"lng":6.569384185163391,"avgVisitMinutes":68,"estimatedCostEur":12,"score":0.5832694915931463},{"id":"ribeira-funda_4462","citySlug":"ribeira-funda","name":"Paseo Principal","category":"ocio","lat":0.37306378878684754,"lng":6.580383235104536,"avgVisitMinutes":49,"estimatedCostEur":25,"score":3.9647170896863555},{"id":"ribeira-afonso_5553","citySlug":"ribeira-afonso","name":"Vista Alta de Ribeira Afonso","category":"mirador","lat":0.20242597891235273,"lng":6.704912680654982,"avgVisitMinutes":46,"estimatedCostEur":13,"score":2.6365910438992763},{"id":"ribeira-afonso_6927","citySlug":"ribeira-afonso","name":"Vista Alta de Ribeira Afonso","category":"mirador","lat":0.19300782149377127,"lng":6.7009856291020276,"avgVisitMinutes":67,"estimatedCostEur":21,"score":3.0860859070032993},{"id":"ribeira-afonso_6214","citySlug":"ribeira-afonso","name":"Zona Comercial","category":"ocio","lat":0.19207818552271547,"lng":6.706822662543051,"avgVisitMinutes":53,"estimatedCostEur":20,"score":3.098855158986298},{"id":"ribeira-afonso_9149","citySlug":"ribeira-afonso","name":"Iglesia de Ribeira Afonso","category":"historia","lat":0.20161800362654522,"lng":6.699977065361991,"avgVisitMinutes":38,"estimatedCostEur":11,"score":1.151504158134839},{"id":"ribeira-afonso_4405","citySlug":"ribeira-afonso","name":"Punto Panorámico","category":"mirador","lat":0.1937677270141795,"lng":6.6998635820905745,"avgVisitMinutes":27,"estimatedCostEur":8,"score":1.0579618057740694},{"id":"ribeira-afonso_2291","citySlug":"ribeira-afonso","name":"Mirador de Ribeira Afonso","category":"mirador","lat":0.19858047950958935,"lng":6.705951279806808,"avgVisitMinutes":72,"estimatedCostEur":17,"score":3.359379744758037},{"id":"porto-alegre_1751","citySlug":"porto-alegre","name":"Murallas de Porto Alegre","category":"historia","lat":0.043579632059319105,"lng":6.530357566247737,"avgVisitMinutes":65,"estimatedCostEur":19,"score":0.8234793639514275},{"id":"porto-alegre_7295","citySlug":"porto-alegre","name":"Galería de Arte","category":"cultura","lat":0.04439201401975025,"lng":6.539859142025233,"avgVisitMinutes":49,"estimatedCostEur":11,"score":1.1227100299495287},{"id":"porto-alegre_8057","citySlug":"porto-alegre","name":"Galería de Arte","category":"cultura","lat":0.0286200368393177,"lng":6.537669380864199,"avgVisitMinutes":80,"estimatedCostEur":9,"score":3.3051353080917156},{"id":"porto-alegre_5193","citySlug":"porto-alegre","name":"Playa Norte","category":"playa","lat":0.025110399490691576,"lng":6.534098605250597,"avgVisitMinutes":69,"estimatedCostEur":12,"score":3.72523215461712},{"id":"porto-alegre_5756","citySlug":"porto-alegre","name":"Restaurante Típico de Porto Alegre","category":"gastronomia","lat":0.02609405788780235,"lng":6.531093322661813,"avgVisitMinutes":28,"estimatedCostEur":13,"score":0.6198018229267255},{"id":"porto-alegre_7651","citySlug":"porto-alegre","name":"Parque Central","category":"ocio","lat":0.033429792357889815,"lng":6.538646856614491,"avgVisitMinutes":32,"estimatedCostEur":0,"score":1.2485699001511423},{"id":"porto-alegre_4668","citySlug":"porto-alegre","name":"Museo Cultural de Porto Alegre","category":"cultura","lat":0.044052356459400664,"lng":6.527747520384791,"avgVisitMinutes":37,"estimatedCostEur":0,"score":1.394061480322483},{"id":"porto-alegre_8479","citySlug":"porto-alegre","name":"Parque Central","category":"ocio","lat":0.034145376318353536,"lng":6.542280270634426,"avgVisitMinutes":51,"estimatedCostEur":4,"score":3.9228297889295263},{"id":"porto-alegre_3593","citySlug":"porto-alegre","name":"Centro de Arte de Porto Alegre","category":"cultura","lat":0.031054202173421874,"lng":6.541279770598337,"avgVisitMinutes":87,"estimatedCostEur":17,"score":4.1148236959123805},{"id":"porto-alegre_3176","citySlug":"porto-alegre","name":"Museo Local de Porto Alegre","category":"historia","lat":0.03326119200187795,"lng":6.524073215668405,"avgVisitMinutes":40,"estimatedCostEur":7,"score":4.591706673835578},{"id":"ponta-figo_1796","citySlug":"ponta-figo","name":"Playa Central","category":"playa","lat":0.3491865592485741,"lng":6.538106625725685,"avgVisitMinutes":69,"estimatedCostEur":21,"score":0.5030420221474494},{"id":"ponta-figo_8787","citySlug":"ponta-figo","name":"Centro de Arte de Ponta Figo","category":"cultura","lat":0.34741365717387124,"lng":6.541398254496796,"avgVisitMinutes":53,"estimatedCostEur":7,"score":3.0418028579089285},{"id":"ponta-figo_4330","citySlug":"ponta-figo","name":"Paseo Principal","category":"ocio","lat":0.34534959908761315,"lng":6.542816172679881,"avgVisitMinutes":43,"estimatedCostEur":21,"score":0.7917659018982406},{"id":"ponta-figo_5648","citySlug":"ponta-figo","name":"Parque Central","category":"ocio","lat":0.35296778083606933,"lng":6.551825910345351,"avgVisitMinutes":58,"estimatedCostEur":25,"score":2.4073516729029762},{"id":"ponta-figo_5210","citySlug":"ponta-figo","name":"Mirador de Ponta Figo","category":"mirador","lat":0.34990027074566166,"lng":6.540996987799337,"avgVisitMinutes":42,"estimatedCostEur":8,"score":4.50310041066586},{"id":"ponta-figo_3682","citySlug":"ponta-figo","name":"Restaurante Típico de Ponta Figo","category":"gastronomia","lat":0.3455080361000624,"lng":6.538837429423321,"avgVisitMinutes":61,"estimatedCostEur":21,"score":1.7528887261655302},{"id":"nova-estrela_9704","citySlug":"nova-estrela","name":"Ruta de Tapas","category":"gastronomia","lat":1.6246629964268515,"lng":7.434403116218297,"avgVisitMinutes":25,"estimatedCostEur":17,"score":3.704397081899569},{"id":"nova-estrela_9162","citySlug":"nova-estrela","name":"Playa Norte","category":"playa","lat":1.609988566341976,"lng":7.424299978199307,"avgVisitMinutes":25,"estimatedCostEur":20,"score":0.5009110167040445},{"id":"nova-estrela_6616","citySlug":"nova-estrela","name":"Playa Sur","category":"playa","lat":1.6150945888479313,"lng":7.431836071056647,"avgVisitMinutes":52,"estimatedCostEur":25,"score":2.1668611346754814},{"id":"nova-estrela_2508","citySlug":"nova-estrela","name":"Museo Cultural de Nova Estrela","category":"cultura","lat":1.6236444193318231,"lng":7.435259542340444,"avgVisitMinutes":79,"estimatedCostEur":1,"score":2.8660598319987134},{"id":"nova-estrela_9564","citySlug":"nova-estrela","name":"Punto Panorámico","category":"mirador","lat":1.6130651855905545,"lng":7.440170838996536,"avgVisitMinutes":55,"estimatedCostEur":10,"score":4.767637098580045},{"id":"neves_1143","citySlug":"neves","name":"Vista Alta de Neves","category":"mirador","lat":0.36591117482570856,"lng":6.543419920309361,"avgVisitMinutes":36,"estimatedCostEur":16,"score":2.227922423323025},{"id":"neves_4347","citySlug":"neves","name":"Ruta de Tapas","category":"gastronomia","lat":0.3556133223758708,"lng":6.555591277681763,"avgVisitMinutes":75,"estimatedCostEur":15,"score":4.578661435144797},{"id":"neves_3843","citySlug":"neves","name":"Ruta de Tapas","category":"gastronomia","lat":0.35337460399783066,"lng":6.542320256001297,"avgVisitMinutes":47,"estimatedCostEur":16,"score":4.858155388262722},{"id":"neves_3921","citySlug":"neves","name":"Playa Central","category":"playa","lat":0.3467995620308875,"lng":6.548340874718096,"avgVisitMinutes":79,"estimatedCostEur":7,"score":4.990943198783109},{"id":"neves_6951","citySlug":"neves","name":"Vista Alta de Neves","category":"mirador","lat":0.34743319358990615,"lng":6.544613333525898,"avgVisitMinutes":85,"estimatedCostEur":3,"score":1.8905179661051688},{"id":"neves_7113","citySlug":"neves","name":"Galería de Arte","category":"cultura","lat":0.3524599415500989,"lng":6.553947923189288,"avgVisitMinutes":75,"estimatedCostEur":14,"score":1.9541833677732745},{"id":"monte-cafe_1202","citySlug":"monte-cafe","name":"Galería de Arte","category":"cultura","lat":0.31006591535660205,"lng":6.6430512399183845,"avgVisitMinutes":40,"estimatedCostEur":19,"score":0.702116433662958},{"id":"monte-cafe_1136","citySlug":"monte-cafe","name":"Iglesia de Monte Café","category":"historia","lat":0.2979959956732192,"lng":6.6493405206299565,"avgVisitMinutes":49,"estimatedCostEur":22,"score":4.530912927732722},{"id":"monte-cafe_8598","citySlug":"monte-cafe","name":"Parque Central","category":"ocio","lat":0.30145920975948787,"lng":6.6428049569085665,"avgVisitMinutes":69,"estimatedCostEur":11,"score":4.6174376163987985},{"id":"monte-cafe_6347","citySlug":"monte-cafe","name":"Parque Central","category":"ocio","lat":0.3000590575542917,"lng":6.635630364732774,"avgVisitMinutes":83,"estimatedCostEur":22,"score":1.1042535224759946},{"id":"monte-cafe_8859","citySlug":"monte-cafe","name":"Playa Norte","category":"playa","lat":0.3076545616129482,"lng":6.647644941226187,"avgVisitMinutes":66,"estimatedCostEur":12,"score":2.4906809036199773},{"id":"monte-cafe_9916","citySlug":"monte-cafe","name":"Paseo Principal","category":"ocio","lat":0.3022533928128968,"lng":6.648833558336324,"avgVisitMinutes":81,"estimatedCostEur":9,"score":4.8697229953376855},{"id":"milagrosa_4428","citySlug":"milagrosa","name":"Teatro Municipal","category":"cultura","lat":0.28462738142690863,"lng":6.650525451694411,"avgVisitMinutes":27,"estimatedCostEur":0,"score":4.315520064646793},{"id":"milagrosa_2530","citySlug":"milagrosa","name":"Playa Central","category":"playa","lat":0.2786483007227851,"lng":6.65714191006818,"avgVisitMinutes":61,"estimatedCostEur":25,"score":4.821960859275669},{"id":"milagrosa_2068","citySlug":"milagrosa","name":"Murallas de Milagrosa","category":"historia","lat":0.28911413242415257,"lng":6.652297912251875,"avgVisitMinutes":45,"estimatedCostEur":17,"score":2.886190268166911},{"id":"milagrosa_2342","citySlug":"milagrosa","name":"Mirador de Milagrosa","category":"mirador","lat":0.2755956924539337,"lng":6.650406186156535,"avgVisitMinutes":86,"estimatedCostEur":6,"score":0.7981038786542293},{"id":"milagrosa_9929","citySlug":"milagrosa","name":"Ruta de Tapas","category":"gastronomia","lat":0.2773209941594569,"lng":6.665910903728797,"avgVisitMinutes":82,"estimatedCostEur":15,"score":4.717851140455422},{"id":"madalena_8797","citySlug":"madalena","name":"Centro Histórico","category":"historia","lat":0.3374720999609349,"lng":6.660503427327806,"avgVisitMinutes":73,"estimatedCostEur":25,"score":2.9087621730690554},{"id":"madalena_1603","citySlug":"madalena","name":"Ruta de Tapas","category":"gastronomia","lat":0.3221548281161704,"lng":6.671203350540245,"avgVisitMinutes":44,"estimatedCostEur":5,"score":2.5611335450282606},{"id":"madalena_8102","citySlug":"madalena","name":"Teatro Municipal","category":"cultura","lat":0.3294464136766603,"lng":6.6595075927071266,"avgVisitMinutes":79,"estimatedCostEur":12,"score":1.083365079418604},{"id":"madalena_4743","citySlug":"madalena","name":"Playa Sur","category":"playa","lat":0.3266913416151973,"lng":6.666818115742312,"avgVisitMinutes":46,"estimatedCostEur":16,"score":4.447782551615937},{"id":"madalena_5199","citySlug":"madalena","name":"Parque Central","category":"ocio","lat":0.3292496674982498,"lng":6.669178932325033,"avgVisitMinutes":81,"estimatedCostEur":24,"score":1.9485628885586557},{"id":"madalena_4845","citySlug":"madalena","name":"Punto Panorámico","category":"mirador","lat":0.33641178886031264,"lng":6.675558786553769,"avgVisitMinutes":28,"estimatedCostEur":21,"score":3.8431053324399533},{"id":"madalena_5378","citySlug":"madalena","name":"Centro de Arte de Madalena","category":"cultura","lat":0.3233719928360882,"lng":6.661342290900854,"avgVisitMinutes":67,"estimatedCostEur":9,"score":0.5163772798057675},{"id":"lemos_9759","citySlug":"lemos","name":"Mercado Gastronómico","category":"gastronomia","lat":0.3081274957613445,"lng":6.692070017578942,"avgVisitMinutes":68,"estimatedCostEur":20,"score":1.4957480278410173},{"id":"lemos_4381","citySlug":"lemos","name":"Vista Alta de Lemos","category":"mirador","lat":0.2940976262792608,"lng":6.6910675436947145,"avgVisitMinutes":36,"estimatedCostEur":21,"score":3.334094911543607},{"id":"lemos_5200","citySlug":"lemos","name":"Playa Central","category":"playa","lat":0.2953019889060314,"lng":6.693111379853109,"avgVisitMinutes":30,"estimatedCostEur":15,"score":4.98640334118671},{"id":"lemos_1868","citySlug":"lemos","name":"Parque Central","category":"ocio","lat":0.3025971871649193,"lng":6.705290787084819,"avgVisitMinutes":68,"estimatedCostEur":0,"score":0.6521439444772663},{"id":"lemos_5836","citySlug":"lemos","name":"Playa Norte","category":"playa","lat":0.29807006637624445,"lng":6.704724010778608,"avgVisitMinutes":74,"estimatedCostEur":15,"score":4.766175294997386},{"id":"lemos_6985","citySlug":"lemos","name":"Centro Histórico","category":"historia","lat":0.29201058041820527,"lng":6.704273741842613,"avgVisitMinutes":50,"estimatedCostEur":3,"score":1.4386777786076823},{"id":"lemos_4201","citySlug":"lemos","name":"Mirador de Lemos","category":"mirador","lat":0.2915646513110096,"lng":6.690500035898665,"avgVisitMinutes":74,"estimatedCostEur":14,"score":0.9283169228444978},{"id":"lemos_1447","citySlug":"lemos","name":"Centro Histórico","category":"historia","lat":0.30815357565083595,"lng":6.688917263104732,"avgVisitMinutes":77,"estimatedCostEur":12,"score":1.606980627792256},{"id":"lemos_1567","citySlug":"lemos","name":"Paseo Principal","category":"ocio","lat":0.2925941730966612,"lng":6.707437462686655,"avgVisitMinutes":72,"estimatedCostEur":0,"score":4.756257607248563},{"id":"lemos_2758","citySlug":"lemos","name":"Castillo de Lemos","category":"historia","lat":0.3038188856821073,"lng":6.703350819102203,"avgVisitMinutes":26,"estimatedCostEur":6,"score":2.2324007602751057},{"id":"lemba_3034","citySlug":"lemba","name":"Zona Comercial","category":"ocio","lat":0.24217399483330557,"lng":6.471516283139439,"avgVisitMinutes":69,"estimatedCostEur":15,"score":2.8840019568717965},{"id":"lemba_9477","citySlug":"lemba","name":"Paseo Principal","category":"ocio","lat":0.255200256471939,"lng":6.467100559592462,"avgVisitMinutes":85,"estimatedCostEur":1,"score":2.324846547037234},{"id":"lemba_8679","citySlug":"lemba","name":"Punto Panorámico","category":"mirador","lat":0.2550377118470223,"lng":6.457161461449733,"avgVisitMinutes":71,"estimatedCostEur":11,"score":4.9948738400280925},{"id":"lemba_2346","citySlug":"lemba","name":"Mirador de Lembá","category":"mirador","lat":0.24447956493904122,"lng":6.470987789734875,"avgVisitMinutes":20,"estimatedCostEur":15,"score":2.7920745996655514},{"id":"lemba_5910","citySlug":"lemba","name":"Museo Local de Lembá","category":"historia","lat":0.24800167753042743,"lng":6.461054447997259,"avgVisitMinutes":39,"estimatedCostEur":0,"score":3.2840211276912292},{"id":"lemba_5985","citySlug":"lemba","name":"Playa Central","category":"playa","lat":0.24561975064682848,"lng":6.474064453240584,"avgVisitMinutes":30,"estimatedCostEur":25,"score":3.2636610917922884},{"id":"fernao-dias_1270","citySlug":"fernao-dias","name":"Centro Histórico","category":"historia","lat":0.40152311566633087,"lng":6.677338016217552,"avgVisitMinutes":24,"estimatedCostEur":14,"score":2.066401007094094},{"id":"fernao-dias_7998","citySlug":"fernao-dias","name":"Parque Central","category":"ocio","lat":0.4150813789541505,"lng":6.682054969024418,"avgVisitMinutes":59,"estimatedCostEur":17,"score":4.053382640996004},{"id":"fernao-dias_1662","citySlug":"fernao-dias","name":"Mirador de Fernão Dias","category":"mirador","lat":0.3983959515942878,"lng":6.671702315682583,"avgVisitMinutes":65,"estimatedCostEur":4,"score":2.1006193341833805},{"id":"fernao-dias_8356","citySlug":"fernao-dias","name":"Mirador de Fernão Dias","category":"mirador","lat":0.4073554869548912,"lng":6.678705048280474,"avgVisitMinutes":35,"estimatedCostEur":15,"score":1.943949414546558},{"id":"fernao-dias_9608","citySlug":"fernao-dias","name":"Vista Alta de Fernão Dias","category":"mirador","lat":0.4133285842242453,"lng":6.671440746260866,"avgVisitMinutes":35,"estimatedCostEur":19,"score":2.0700103324242174},{"id":"fernao-dias_5281","citySlug":"fernao-dias","name":"Vista Alta de Fernão Dias","category":"mirador","lat":0.4091463194451035,"lng":6.681640301824611,"avgVisitMinutes":41,"estimatedCostEur":11,"score":1.70204814383696},{"id":"fernao-dias_2885","citySlug":"fernao-dias","name":"Mirador de Fernão Dias","category":"mirador","lat":0.40946438564107185,"lng":6.67387242515429,"avgVisitMinutes":41,"estimatedCostEur":2,"score":1.2156852024986686},{"id":"fernao-dias_8370","citySlug":"fernao-dias","name":"Castillo de Fernão Dias","category":"historia","lat":0.414263274987165,"lng":6.679859754891772,"avgVisitMinutes":29,"estimatedCostEur":19,"score":4.352120234789244},{"id":"fernao-dias_3732","citySlug":"fernao-dias","name":"Museo Cultural de Fernão Dias","category":"cultura","lat":0.40520128475098605,"lng":6.680409098436611,"avgVisitMinutes":51,"estimatedCostEur":13,"score":2.5034921923493454},{"id":"fernao-dias_8554","citySlug":"fernao-dias","name":"Punto Panorámico","category":"mirador","lat":0.4055219617125783,"lng":6.669269053687842,"avgVisitMinutes":52,"estimatedCostEur":16,"score":4.797523252265396},{"id":"fernao-dias_6867","citySlug":"fernao-dias","name":"Mercado Gastronómico","category":"gastronomia","lat":0.3972303289475164,"lng":6.671918340282739,"avgVisitMinutes":60,"estimatedCostEur":0,"score":1.4240892989599239},{"id":"dona-eugenia_5102","citySlug":"dona-eugenia","name":"Galería de Arte","category":"cultura","lat":0.13219516211995838,"lng":6.606756848291273,"avgVisitMinutes":40,"estimatedCostEur":23,"score":4.87507208749828},{"id":"dona-eugenia_7840","citySlug":"dona-eugenia","name":"Zona Comercial","category":"ocio","lat":0.13643522178699782,"lng":6.608766485515674,"avgVisitMinutes":90,"estimatedCostEur":10,"score":2.06360258403211},{"id":"dona-eugenia_9356","citySlug":"dona-eugenia","name":"Mercado Gastronómico","category":"gastronomia","lat":0.134609036652948,"lng":6.608146856348322,"avgVisitMinutes":50,"estimatedCostEur":22,"score":3.244335705610332},{"id":"dona-eugenia_3535","citySlug":"dona-eugenia","name":"Museo Local de Dona Eugénia","category":"historia","lat":0.13244770597243358,"lng":6.616101862884704,"avgVisitMinutes":37,"estimatedCostEur":13,"score":0.8922533845004301},{"id":"dona-eugenia_9894","citySlug":"dona-eugenia","name":"Playa Central","category":"playa","lat":0.14167649889491546,"lng":6.611233858279131,"avgVisitMinutes":31,"estimatedCostEur":21,"score":1.7006037763445108},{"id":"dona-eugenia_1102","citySlug":"dona-eugenia","name":"Playa Sur","category":"playa","lat":0.14367831787759394,"lng":6.617398032295482,"avgVisitMinutes":61,"estimatedCostEur":16,"score":0.525245074539076},{"id":"diogo-vaz_5392","citySlug":"diogo-vaz","name":"Museo Cultural de Diogo Vaz","category":"cultura","lat":0.32701209317451896,"lng":6.498333825188986,"avgVisitMinutes":74,"estimatedCostEur":2,"score":4.130298622207379},{"id":"diogo-vaz_5126","citySlug":"diogo-vaz","name":"Museo Local de Diogo Vaz","category":"historia","lat":0.3148068838189026,"lng":6.494031315929292,"avgVisitMinutes":62,"estimatedCostEur":17,"score":0.6587393535305588},{"id":"diogo-vaz_6132","citySlug":"diogo-vaz","name":"Museo Cultural de Diogo Vaz","category":"cultura","lat":0.31279706367066934,"lng":6.502015770696121,"avgVisitMinutes":36,"estimatedCostEur":17,"score":4.716655388752697},{"id":"diogo-vaz_4670","citySlug":"diogo-vaz","name":"Playa Central","category":"playa","lat":0.315676088308786,"lng":6.500118245588001,"avgVisitMinutes":46,"estimatedCostEur":18,"score":2.8445306330940845},{"id":"diogo-vaz_4828","citySlug":"diogo-vaz","name":"Vista Alta de Diogo Vaz","category":"mirador","lat":0.31408057211917834,"lng":6.492094388518641,"avgVisitMinutes":52,"estimatedCostEur":0,"score":4.540972983857686},{"id":"diogo-vaz_2213","citySlug":"diogo-vaz","name":"Restaurante Típico de Diogo Vaz","category":"gastronomia","lat":0.30710785248671607,"lng":6.507777892140571,"avgVisitMinutes":66,"estimatedCostEur":19,"score":0.6036104138536651},{"id":"diogo-vaz_8225","citySlug":"diogo-vaz","name":"Playa Sur","category":"playa","lat":0.31192927014149946,"lng":6.505392177910631,"avgVisitMinutes":29,"estimatedCostEur":6,"score":4.433534024228125},{"id":"diogo-vaz_2839","citySlug":"diogo-vaz","name":"Vista Alta de Diogo Vaz","category":"mirador","lat":0.31634631006226926,"lng":6.4899641876698775,"avgVisitMinutes":43,"estimatedCostEur":0,"score":1.3201327940907583},{"id":"diogo-vaz_8504","citySlug":"diogo-vaz","name":"Ruta de Tapas","category":"gastronomia","lat":0.31343025011793524,"lng":6.4962405774174625,"avgVisitMinutes":75,"estimatedCostEur":10,"score":1.883864215919139},{"id":"diogo-vaz_8277","citySlug":"diogo-vaz","name":"Playa Norte","category":"playa","lat":0.32052303391874426,"lng":6.488852518615008,"avgVisitMinutes":59,"estimatedCostEur":11,"score":3.5413536224390385},{"id":"canavial_2946","citySlug":"canavial","name":"Restaurante Típico de Canavial","category":"gastronomia","lat":0.38415396677594127,"lng":6.648331454868178,"avgVisitMinutes":46,"estimatedCostEur":19,"score":4.922414684689137},{"id":"canavial_4114","citySlug":"canavial","name":"Ruta de Tapas","category":"gastronomia","lat":0.39164043175480423,"lng":6.651712237371357,"avgVisitMinutes":68,"estimatedCostEur":12,"score":3.600569564641257},{"id":"canavial_8473","citySlug":"canavial","name":"Galería de Arte","category":"cultura","lat":0.3964424469175849,"lng":6.653197339320815,"avgVisitMinutes":87,"estimatedCostEur":18,"score":1.96988152155657},{"id":"canavial_9238","citySlug":"canavial","name":"Playa Norte","category":"playa","lat":0.3867002661266638,"lng":6.65629395916232,"avgVisitMinutes":53,"estimatedCostEur":14,"score":4.317646463042891},{"id":"canavial_9350","citySlug":"canavial","name":"Paseo Principal","category":"ocio","lat":0.3888556563513212,"lng":6.6530856508617395,"avgVisitMinutes":43,"estimatedCostEur":7,"score":1.561686351245866},{"id":"canavial_5275","citySlug":"canavial","name":"Mirador de Canavial","category":"mirador","lat":0.39836542709103545,"lng":6.648324335696977,"avgVisitMinutes":34,"estimatedCostEur":8,"score":3.661791836257708},{"id":"canavial_9032","citySlug":"canavial","name":"Vista Alta de Canavial","category":"mirador","lat":0.38701493259078673,"lng":6.647746168378973,"avgVisitMinutes":71,"estimatedCostEur":22,"score":3.1672998871783573},{"id":"canavial_2799","citySlug":"canavial","name":"Vista Alta de Canavial","category":"mirador","lat":0.38066416886312854,"lng":6.6584500168239,"avgVisitMinutes":45,"estimatedCostEur":4,"score":4.846454187839461},{"id":"canavial_7785","citySlug":"canavial","name":"Vista Alta de Canavial","category":"mirador","lat":0.37991355080722355,"lng":6.653027495269296,"avgVisitMinutes":55,"estimatedCostEur":13,"score":3.7591891034518903},{"id":"canavial_6839","citySlug":"canavial","name":"Iglesia de Canavial","category":"historia","lat":0.38525262555110246,"lng":6.650009983470798,"avgVisitMinutes":82,"estimatedCostEur":24,"score":0.5471891905765122},{"id":"canavial_1786","citySlug":"canavial","name":"Mirador de Canavial","category":"mirador","lat":0.39408218272150963,"lng":6.650161923031737,"avgVisitMinutes":33,"estimatedCostEur":11,"score":4.609248490719131},{"id":"canavial_1668","citySlug":"canavial","name":"Parque Central","category":"ocio","lat":0.38966799474370983,"lng":6.664396774232367,"avgVisitMinutes":58,"estimatedCostEur":24,"score":4.557011340917405},{"id":"caldeiras_7159","citySlug":"caldeiras","name":"Galería de Arte","category":"cultura","lat":0.3396785318381821,"lng":6.629260229157478,"avgVisitMinutes":88,"estimatedCostEur":1,"score":0.8235836743009515},{"id":"caldeiras_7590","citySlug":"caldeiras","name":"Castillo de Caldeiras","category":"historia","lat":0.34018244410864384,"lng":6.6368251917242596,"avgVisitMinutes":66,"estimatedCostEur":17,"score":1.6142191807481119},{"id":"caldeiras_5819","citySlug":"caldeiras","name":"Restaurante Típico de Caldeiras","category":"gastronomia","lat":0.34831479423712913,"lng":6.638874411899681,"avgVisitMinutes":36,"estimatedCostEur":1,"score":4.654003091838977},{"id":"caldeiras_3328","citySlug":"caldeiras","name":"Paseo Principal","category":"ocio","lat":0.35656230283529444,"lng":6.628524291210632,"avgVisitMinutes":33,"estimatedCostEur":15,"score":2.759735333157963},{"id":"caldeiras_6145","citySlug":"caldeiras","name":"Murallas de Caldeiras","category":"historia","lat":0.3414361924019833,"lng":6.6334361167943205,"avgVisitMinutes":35,"estimatedCostEur":8,"score":3.4647112386033356},{"id":"caldeiras_7927","citySlug":"caldeiras","name":"Teatro Municipal","category":"cultura","lat":0.34947809455742984,"lng":6.628141406584187,"avgVisitMinutes":72,"estimatedCostEur":16,"score":2.6772779532233435},{"id":"caixao-grande_2240","citySlug":"caixao-grande","name":"Mirador de Caixão Grande","category":"mirador","lat":0.29266951517600914,"lng":6.716722850121263,"avgVisitMinutes":23,"estimatedCostEur":1,"score":1.5798727973782776},{"id":"caixao-grande_8074","citySlug":"caixao-grande","name":"Playa Sur","category":"playa","lat":0.2890150448315495,"lng":6.700614411293306,"avgVisitMinutes":68,"estimatedCostEur":15,"score":0.7853397694692459},{"id":"caixao-grande_7968","citySlug":"caixao-grande","name":"Mercado Gastronómico","category":"gastronomia","lat":0.292419640568228,"lng":6.705966901153867,"avgVisitMinutes":59,"estimatedCostEur":25,"score":4.562335997511356},{"id":"caixao-grande_1418","citySlug":"caixao-grande","name":"Playa Central","category":"playa","lat":0.28853315849149586,"lng":6.715628115796994,"avgVisitMinutes":41,"estimatedCostEur":16,"score":2.040221065835359},{"id":"caixao-grande_4373","citySlug":"caixao-grande","name":"Restaurante Típico de Caixão Grande","category":"gastronomia","lat":0.3023706434872445,"lng":6.704004370874923,"avgVisitMinutes":68,"estimatedCostEur":11,"score":0.8342219683141934},{"id":"caixao-grande_4763","citySlug":"caixao-grande","name":"Parque Central","category":"ocio","lat":0.3053791738940901,"lng":6.705565079439741,"avgVisitMinutes":63,"estimatedCostEur":12,"score":3.3500527154924473},{"id":"caixao-grande_5223","citySlug":"caixao-grande","name":"Punto Panorámico","category":"mirador","lat":0.28789063931134723,"lng":6.714703917760309,"avgVisitMinutes":43,"estimatedCostEur":14,"score":1.6719805511455592},{"id":"caixao-grande_2760","citySlug":"caixao-grande","name":"Paseo Principal","category":"ocio","lat":0.3051982722505918,"lng":6.713643350759502,"avgVisitMinutes":75,"estimatedCostEur":17,"score":0.8535884757371388},{"id":"ubabudo_8356","citySlug":"ubabudo","name":"Ruta de Tapas","category":"gastronomia","lat":0.2548286164126535,"lng":6.700154893059747,"avgVisitMinutes":84,"estimatedCostEur":23,"score":4.493420022026123},{"id":"ubabudo_3246","citySlug":"ubabudo","name":"Centro de Arte de Ubabudo","category":"cultura","lat":0.2654895496187973,"lng":6.697682686227474,"avgVisitMinutes":88,"estimatedCostEur":23,"score":0.6352060297354849},{"id":"ubabudo_7567","citySlug":"ubabudo","name":"Restaurante Típico de Ubabudo","category":"gastronomia","lat":0.2556516823125995,"lng":6.707838902364507,"avgVisitMinutes":51,"estimatedCostEur":25,"score":4.242340320103416},{"id":"ubabudo_1365","citySlug":"ubabudo","name":"Centro Histórico","category":"historia","lat":0.2585359520297096,"lng":6.694542661180911,"avgVisitMinutes":84,"estimatedCostEur":20,"score":2.384654775369631},{"id":"ubabudo_1110","citySlug":"ubabudo","name":"Restaurante Típico de Ubabudo","category":"gastronomia","lat":0.270073829382939,"lng":6.692467314820577,"avgVisitMinutes":35,"estimatedCostEur":7,"score":1.8706496133246724},{"id":"ubabudo_3239","citySlug":"ubabudo","name":"Galería de Arte","category":"cultura","lat":0.2566462318157228,"lng":6.695173233078759,"avgVisitMinutes":73,"estimatedCostEur":6,"score":2.0344757568869385},{"id":"ubabudo_7362","citySlug":"ubabudo","name":"Parque Central","category":"ocio","lat":0.2689026865337702,"lng":6.693743672524676,"avgVisitMinutes":79,"estimatedCostEur":2,"score":3.3574824908356407},{"id":"ubabudo_9500","citySlug":"ubabudo","name":"Centro de Arte de Ubabudo","category":"cultura","lat":0.2618027621996305,"lng":6.7055893904197585,"avgVisitMinutes":68,"estimatedCostEur":3,"score":4.192224787343941},{"id":"ubabudo_9171","citySlug":"ubabudo","name":"Playa Norte","category":"playa","lat":0.2564117920175281,"lng":6.699797140548565,"avgVisitMinutes":62,"estimatedCostEur":10,"score":0.6754886816051937},{"id":"ubabudo_5909","citySlug":"ubabudo","name":"Mercado Gastronómico","category":"gastronomia","lat":0.26007699348522406,"lng":6.7090645251207475,"avgVisitMinutes":63,"estimatedCostEur":2,"score":2.2480358110621026},{"id":"ubabudo_6624","citySlug":"ubabudo","name":"Galería de Arte","category":"cultura","lat":0.25355726489398245,"lng":6.698803126787619,"avgVisitMinutes":37,"estimatedCostEur":11,"score":3.778386460442416},{"id":"bombom_4370","citySlug":"bombom","name":"Vista Alta de Bombom","category":"mirador","lat":0.31613085242474026,"lng":6.722652747268044,"avgVisitMinutes":81,"estimatedCostEur":13,"score":4.651843180403},{"id":"bombom_8787","citySlug":"bombom","name":"Vista Alta de Bombom","category":"mirador","lat":0.31838616526902713,"lng":6.7304872846641235,"avgVisitMinutes":59,"estimatedCostEur":12,"score":4.7610873927878865},{"id":"bombom_7488","citySlug":"bombom","name":"Centro de Arte de Bombom","category":"cultura","lat":0.3148558537300236,"lng":6.72713664152982,"avgVisitMinutes":29,"estimatedCostEur":14,"score":4.74832665189268},{"id":"bombom_7730","citySlug":"bombom","name":"Playa Central","category":"playa","lat":0.3105629371152272,"lng":6.727688095042057,"avgVisitMinutes":25,"estimatedCostEur":11,"score":4.53485128822292},{"id":"bombom_8172","citySlug":"bombom","name":"Punto Panorámico","category":"mirador","lat":0.3167336803539373,"lng":6.722933226613531,"avgVisitMinutes":80,"estimatedCostEur":6,"score":3.7637766277477307},{"id":"bombom_2726","citySlug":"bombom","name":"Playa Central","category":"playa","lat":0.3175857203974875,"lng":6.736070662477941,"avgVisitMinutes":81,"estimatedCostEur":7,"score":3.479634171354982},{"id":"bombom_9340","citySlug":"bombom","name":"Museo Local de Bombom","category":"historia","lat":0.3137654283939509,"lng":6.73253640927596,"avgVisitMinutes":54,"estimatedCostEur":4,"score":0.5639715770622586},{"id":"bombom_4687","citySlug":"bombom","name":"Playa Sur","category":"playa","lat":0.30246677806140804,"lng":6.7319754223731385,"avgVisitMinutes":28,"estimatedCostEur":9,"score":0.616539137035791},{"id":"bombom_5911","citySlug":"bombom","name":"Mercado Gastronómico","category":"gastronomia","lat":0.311692004891962,"lng":6.721255451829703,"avgVisitMinutes":54,"estimatedCostEur":7,"score":3.912615772192595},{"id":"bombom_4519","citySlug":"bombom","name":"Castillo de Bombom","category":"historia","lat":0.318202448252411,"lng":6.733368068298105,"avgVisitMinutes":73,"estimatedCostEur":8,"score":4.7417492809096515},{"id":"bombom_2178","citySlug":"bombom","name":"Paseo Principal","category":"ocio","lat":0.3163276503381392,"lng":6.721542644324097,"avgVisitMinutes":45,"estimatedCostEur":0,"score":1.8495032109843967},{"id":"boa-entrada_9624","citySlug":"boa-entrada","name":"Museo Local de Boa Entrada","category":"historia","lat":0.3559319082321788,"lng":6.663317505798513,"avgVisitMinutes":74,"estimatedCostEur":7,"score":0.9753445703244199},{"id":"boa-entrada_4806","citySlug":"boa-entrada","name":"Iglesia de Boa Entrada","category":"historia","lat":0.35464734742947884,"lng":6.660706233919575,"avgVisitMinutes":87,"estimatedCostEur":5,"score":3.245440919688773},{"id":"boa-entrada_9682","citySlug":"boa-entrada","name":"Murallas de Boa Entrada","category":"historia","lat":0.35665395142486656,"lng":6.672168551376556,"avgVisitMinutes":63,"estimatedCostEur":16,"score":0.8035867187082726},{"id":"boa-entrada_8298","citySlug":"boa-entrada","name":"Ruta de Tapas","category":"gastronomia","lat":0.3519642773479179,"lng":6.654262483978755,"avgVisitMinutes":79,"estimatedCostEur":12,"score":0.855395436417847},{"id":"boa-entrada_8222","citySlug":"boa-entrada","name":"Galería de Arte","category":"cultura","lat":0.34986127540511075,"lng":6.671948384493512,"avgVisitMinutes":29,"estimatedCostEur":23,"score":4.8298288972445835},{"id":"boa-entrada_4234","citySlug":"boa-entrada","name":"Galería de Arte","category":"cultura","lat":0.35776742494896646,"lng":6.66545622016578,"avgVisitMinutes":47,"estimatedCostEur":4,"score":3.518134465763056},{"id":"bela-vista_4015","citySlug":"bela-vista","name":"Paseo Principal","category":"ocio","lat":0.35621674729145647,"lng":6.682774345342004,"avgVisitMinutes":68,"estimatedCostEur":12,"score":4.534035315447698},{"id":"bela-vista_5660","citySlug":"bela-vista","name":"Centro Histórico","category":"historia","lat":0.35473920773573414,"lng":6.693708390658195,"avgVisitMinutes":39,"estimatedCostEur":11,"score":1.8711758357341584},{"id":"bela-vista_3561","citySlug":"bela-vista","name":"Museo Cultural de Bela Vista","category":"cultura","lat":0.36627330666162977,"lng":6.682998107506251,"avgVisitMinutes":37,"estimatedCostEur":0,"score":3.19019629451097},{"id":"bela-vista_7596","citySlug":"bela-vista","name":"Museo Local de Bela Vista","category":"historia","lat":0.3606707266383829,"lng":6.6887767866781696,"avgVisitMinutes":51,"estimatedCostEur":8,"score":1.1414269932545569},{"id":"bela-vista_1244","citySlug":"bela-vista","name":"Teatro Municipal","category":"cultura","lat":0.3658655087965165,"lng":6.689944612781411,"avgVisitMinutes":87,"estimatedCostEur":9,"score":3.0866341216486557},{"id":"bela-vista_3949","citySlug":"bela-vista","name":"Ruta de Tapas","category":"gastronomia","lat":0.3679179677154103,"lng":6.688127606653575,"avgVisitMinutes":69,"estimatedCostEur":19,"score":4.623957338395215},{"id":"bela-vista_1028","citySlug":"bela-vista","name":"Playa Sur","category":"playa","lat":0.3670066244519472,"lng":6.6971017121819685,"avgVisitMinutes":61,"estimatedCostEur":13,"score":3.142809568645148},{"id":"bela-vista_3278","citySlug":"bela-vista","name":"Zona Comercial","category":"ocio","lat":0.36840152743501997,"lng":6.688931946451939,"avgVisitMinutes":36,"estimatedCostEur":13,"score":1.3713413589125083},{"id":"bela-vista_4393","citySlug":"bela-vista","name":"Mercado Gastronómico","category":"gastronomia","lat":0.3525027873634611,"lng":6.68383677062093,"avgVisitMinutes":31,"estimatedCostEur":25,"score":2.803752192277055},{"id":"bela-vista_1179","citySlug":"bela-vista","name":"Ruta de Tapas","category":"gastronomia","lat":0.35276466245491667,"lng":6.682340944040072,"avgVisitMinutes":30,"estimatedCostEur":23,"score":1.7076744476376402},{"id":"bela-vista_2942","citySlug":"bela-vista","name":"Ruta de Tapas","category":"gastronomia","lat":0.3553773074310225,"lng":6.6927822011266995,"avgVisitMinutes":84,"estimatedCostEur":13,"score":2.996171028254911},{"id":"agua-ize_7906","citySlug":"agua-ize","name":"Vista Alta de Água Izé","category":"mirador","lat":0.2234903581821309,"lng":6.7185859795973455,"avgVisitMinutes":28,"estimatedCostEur":6,"score":1.8002316764727955},{"id":"agua-ize_4514","citySlug":"agua-ize","name":"Parque Central","category":"ocio","lat":0.20984374453036778,"lng":6.72554681846722,"avgVisitMinutes":49,"estimatedCostEur":21,"score":1.7122401710459914},{"id":"agua-ize_2655","citySlug":"agua-ize","name":"Mirador de Água Izé","category":"mirador","lat":0.21385493732886246,"lng":6.718028274390666,"avgVisitMinutes":44,"estimatedCostEur":5,"score":4.72712091669561},{"id":"agua-ize_2883","citySlug":"agua-ize","name":"Iglesia de Água Izé","category":"historia","lat":0.21620929919702533,"lng":6.736570575058526,"avgVisitMinutes":66,"estimatedCostEur":11,"score":1.2479466329288735},{"id":"agua-ize_4320","citySlug":"agua-ize","name":"Zona Comercial","category":"ocio","lat":0.21520363303479786,"lng":6.734279645148454,"avgVisitMinutes":31,"estimatedCostEur":19,"score":2.8261233552622684},{"id":"agua-ize_3424","citySlug":"agua-ize","name":"Playa Sur","category":"playa","lat":0.21755883094034234,"lng":6.725509264529462,"avgVisitMinutes":89,"estimatedCostEur":21,"score":4.40796744351628},{"id":"agua-ize_4467","citySlug":"agua-ize","name":"Playa Norte","category":"playa","lat":0.22060369121394077,"lng":6.721123797617671,"avgVisitMinutes":39,"estimatedCostEur":19,"score":3.057865791257215},{"id":"agua-ize_7556","citySlug":"agua-ize","name":"Playa Central","category":"playa","lat":0.22932411083804463,"lng":6.728083913715958,"avgVisitMinutes":30,"estimatedCostEur":12,"score":1.5774704423984627},{"id":"anselmo-andrade_5968","citySlug":"anselmo-andrade","name":"Ruta de Tapas","category":"gastronomia","lat":0.23500487919020482,"lng":6.684645632367127,"avgVisitMinutes":35,"estimatedCostEur":21,"score":3.2045483355478463},{"id":"anselmo-andrade_5017","citySlug":"anselmo-andrade","name":"Paseo Principal","category":"ocio","lat":0.2340941206183524,"lng":6.685503472064249,"avgVisitMinutes":44,"estimatedCostEur":25,"score":3.657838312428154},{"id":"anselmo-andrade_2398","citySlug":"anselmo-andrade","name":"Galería de Arte","category":"cultura","lat":0.22705133796715052,"lng":6.685627923501891,"avgVisitMinutes":57,"estimatedCostEur":23,"score":3.9100448078205865},{"id":"anselmo-andrade_7285","citySlug":"anselmo-andrade","name":"Museo Local de Anselmo Andrade","category":"historia","lat":0.2314371649793881,"lng":6.6983009912003,"avgVisitMinutes":27,"estimatedCostEur":6,"score":0.7258063326938222},{"id":"anselmo-andrade_6323","citySlug":"anselmo-andrade","name":"Parque Central","category":"ocio","lat":0.23305936716382483,"lng":6.686460518085369,"avgVisitMinutes":79,"estimatedCostEur":17,"score":2.9612185467939067},{"id":"anselmo-andrade_8222","citySlug":"anselmo-andrade","name":"Museo Local de Anselmo Andrade","category":"historia","lat":0.23574263450497587,"lng":6.688116692281796,"avgVisitMinutes":62,"estimatedCostEur":5,"score":2.030741920877944},{"id":"folha-fede_6884","citySlug":"folha-fede","name":"Centro de Arte de Folha Fede","category":"cultura","lat":0.28317418593114024,"lng":6.674899604987145,"avgVisitMinutes":20,"estimatedCostEur":20,"score":3.1488135879913743},{"id":"folha-fede_9681","citySlug":"folha-fede","name":"Centro de Arte de Folha Fede","category":"cultura","lat":0.2793435681120992,"lng":6.682819669841551,"avgVisitMinutes":60,"estimatedCostEur":7,"score":2.235135778752105},{"id":"folha-fede_2852","citySlug":"folha-fede","name":"Vista Alta de Folha Fede","category":"mirador","lat":0.2824226252792405,"lng":6.682045423975592,"avgVisitMinutes":22,"estimatedCostEur":0,"score":4.995051042409289},{"id":"folha-fede_8784","citySlug":"folha-fede","name":"Playa Norte","category":"playa","lat":0.27809203025313817,"lng":6.680133106164618,"avgVisitMinutes":45,"estimatedCostEur":10,"score":4.184058795075854},{"id":"folha-fede_7182","citySlug":"folha-fede","name":"Iglesia de Folha Fede","category":"historia","lat":0.2817652458635324,"lng":6.687467206181357,"avgVisitMinutes":34,"estimatedCostEur":21,"score":1.807787827660758},{"id":"almeirim_7420","citySlug":"almeirim","name":"Punto Panorámico","category":"mirador","lat":0.3075883862561242,"lng":6.708666217791999,"avgVisitMinutes":42,"estimatedCostEur":17,"score":1.1785970612185679},{"id":"almeirim_7662","citySlug":"almeirim","name":"Punto Panorámico","category":"mirador","lat":0.3176087253264946,"lng":6.710627535975689,"avgVisitMinutes":42,"estimatedCostEur":12,"score":2.2492044892700966},{"id":"almeirim_5026","citySlug":"almeirim","name":"Iglesia de Almeirim","category":"historia","lat":0.3103418493200669,"lng":6.71491788966613,"avgVisitMinutes":26,"estimatedCostEur":2,"score":1.2968816400950636},{"id":"almeirim_1241","citySlug":"almeirim","name":"Zona Comercial","category":"ocio","lat":0.30871360838833767,"lng":6.7078378349805305,"avgVisitMinutes":44,"estimatedCostEur":1,"score":4.611055508428849},{"id":"almeirim_7570","citySlug":"almeirim","name":"Galería de Arte","category":"cultura","lat":0.3190491994253045,"lng":6.719045992655063,"avgVisitMinutes":63,"estimatedCostEur":12,"score":1.1349398604583887},{"id":"almeirim_4702","citySlug":"almeirim","name":"Iglesia de Almeirim","category":"historia","lat":0.31572734755609055,"lng":6.708802578230089,"avgVisitMinutes":64,"estimatedCostEur":9,"score":0.8661672200254212},{"id":"almeirim_3492","citySlug":"almeirim","name":"Parque Central","category":"ocio","lat":0.31268234765810105,"lng":6.713013395493509,"avgVisitMinutes":38,"estimatedCostEur":21,"score":3.4189993587373424},{"id":"almeirim_4644","citySlug":"almeirim","name":"Murallas de Almeirim","category":"historia","lat":0.31357292978586,"lng":6.725215823326555,"avgVisitMinutes":79,"estimatedCostEur":11,"score":1.437215483889906},{"id":"almeirim_5751","citySlug":"almeirim","name":"Punto Panorámico","category":"mirador","lat":0.3140446476691872,"lng":6.724409204322752,"avgVisitMinutes":60,"estimatedCostEur":9,"score":2.019543671977424},{"id":"micolo_5293","citySlug":"micolo","name":"Parque Central","category":"ocio","lat":0.39530481235430903,"lng":6.684672372698447,"avgVisitMinutes":59,"estimatedCostEur":3,"score":3.3448991586071797},{"id":"micolo_8037","citySlug":"micolo","name":"Galería de Arte","category":"cultura","lat":0.3977575363100883,"lng":6.687546743078172,"avgVisitMinutes":68,"estimatedCostEur":10,"score":1.1247232155507272},{"id":"micolo_5679","citySlug":"micolo","name":"Zona Comercial","category":"ocio","lat":0.3981417157590747,"lng":6.679018299316588,"avgVisitMinutes":63,"estimatedCostEur":19,"score":3.19735396900641},{"id":"micolo_2541","citySlug":"micolo","name":"Punto Panorámico","category":"mirador","lat":0.40203027581820666,"lng":6.688657202009755,"avgVisitMinutes":88,"estimatedCostEur":18,"score":1.7533079017708517},{"id":"micolo_8668","citySlug":"micolo","name":"Iglesia de Micolo","category":"historia","lat":0.4026572269104027,"lng":6.686255373464942,"avgVisitMinutes":74,"estimatedCostEur":0,"score":3.6660753863106086},{"id":"micolo_3352","citySlug":"micolo","name":"Playa Norte","category":"playa","lat":0.4126043399854795,"lng":6.6859865081870815,"avgVisitMinutes":76,"estimatedCostEur":8,"score":3.0685138632619093},{"id":"micolo_7996","citySlug":"micolo","name":"Playa Central","category":"playa","lat":0.4100327344367022,"lng":6.69838976798321,"avgVisitMinutes":49,"estimatedCostEur":16,"score":1.947731899259598},{"id":"micolo_4294","citySlug":"micolo","name":"Paseo Principal","category":"ocio","lat":0.39937462512368793,"lng":6.685509418906439,"avgVisitMinutes":85,"estimatedCostEur":5,"score":2.1817385044632633},{"id":"micolo_1104","citySlug":"micolo","name":"Playa Central","category":"playa","lat":0.39376884930853684,"lng":6.694393983051978,"avgVisitMinutes":72,"estimatedCostEur":16,"score":1.431005000801616},{"id":"micolo_9049","citySlug":"micolo","name":"Restaurante Típico de Micolo","category":"gastronomia","lat":0.4125966959773813,"lng":6.686326302565724,"avgVisitMinutes":22,"estimatedCostEur":21,"score":2.6202116977846392},{"id":"micolo_4177","citySlug":"micolo","name":"Playa Sur","category":"playa","lat":0.41305155872621646,"lng":6.695843168656062,"avgVisitMinutes":72,"estimatedCostEur":18,"score":1.0683793994913957},{"id":"micolo_4422","citySlug":"micolo","name":"Ruta de Tapas","category":"gastronomia","lat":0.4093927685882786,"lng":6.692633958026631,"avgVisitMinutes":35,"estimatedCostEur":10,"score":2.9291152127675226},{"id":"generosa_4337","citySlug":"generosa","name":"Restaurante Típico de Generosa","category":"gastronomia","lat":0.33748224980998326,"lng":6.543188711214192,"avgVisitMinutes":46,"estimatedCostEur":20,"score":0.994353204811355},{"id":"generosa_2339","citySlug":"generosa","name":"Centro de Arte de Generosa","category":"cultura","lat":0.3489001090337261,"lng":6.54721677314672,"avgVisitMinutes":70,"estimatedCostEur":17,"score":4.816762573755561},{"id":"generosa_2293","citySlug":"generosa","name":"Playa Central","category":"playa","lat":0.3561999873810716,"lng":6.543166225760182,"avgVisitMinutes":33,"estimatedCostEur":7,"score":3.8011377975722134},{"id":"generosa_4962","citySlug":"generosa","name":"Museo Local de Generosa","category":"historia","lat":0.3454682180750043,"lng":6.552069579049135,"avgVisitMinutes":77,"estimatedCostEur":9,"score":2.6497899737319277},{"id":"generosa_5636","citySlug":"generosa","name":"Zona Comercial","category":"ocio","lat":0.3477718097064028,"lng":6.557062984771852,"avgVisitMinutes":82,"estimatedCostEur":9,"score":1.5784525176206476},{"id":"generosa_1320","citySlug":"generosa","name":"Centro de Arte de Generosa","category":"cultura","lat":0.3428616313308809,"lng":6.545511395156443,"avgVisitMinutes":74,"estimatedCostEur":5,"score":2.0564672698759594},{"id":"generosa_2391","citySlug":"generosa","name":"Punto Panorámico","category":"mirador","lat":0.3460874281219473,"lng":6.547798589711136,"avgVisitMinutes":52,"estimatedCostEur":5,"score":1.0396758745261154},{"id":"generosa_1272","citySlug":"generosa","name":"Mercado Gastronómico","category":"gastronomia","lat":0.3508012220359456,"lng":6.540990853614545,"avgVisitMinutes":60,"estimatedCostEur":9,"score":0.9419582256931343},{"id":"generosa_4424","citySlug":"generosa","name":"Murallas de Generosa","category":"historia","lat":0.35128439018343227,"lng":6.542316447237229,"avgVisitMinutes":71,"estimatedCostEur":23,"score":2.381510993830283},{"id":"generosa_7838","citySlug":"generosa","name":"Iglesia de Generosa","category":"historia","lat":0.3400258791187153,"lng":6.552913509402643,"avgVisitMinutes":43,"estimatedCostEur":17,"score":3.479463733150377},{"id":"generosa_2173","citySlug":"generosa","name":"Vista Alta de Generosa","category":"mirador","lat":0.340457893664052,"lng":6.55295561702348,"avgVisitMinutes":66,"estimatedCostEur":24,"score":4.471659500413544},{"id":"riboque-santana_4108","citySlug":"riboque-santana","name":"Playa Central","category":"playa","lat":0.2562006676250978,"lng":6.738951246387951,"avgVisitMinutes":44,"estimatedCostEur":21,"score":2.970689200073762},{"id":"riboque-santana_6991","citySlug":"riboque-santana","name":"Galería de Arte","category":"cultura","lat":0.24492159998075871,"lng":6.746590947179665,"avgVisitMinutes":44,"estimatedCostEur":17,"score":0.5700752917348557},{"id":"riboque-santana_2149","citySlug":"riboque-santana","name":"Galería de Arte","category":"cultura","lat":0.23811084762499812,"lng":6.727593118685128,"avgVisitMinutes":39,"estimatedCostEur":13,"score":1.716770073421676},{"id":"riboque-santana_9916","citySlug":"riboque-santana","name":"Paseo Principal","category":"ocio","lat":0.2564730188204356,"lng":6.740673596649251,"avgVisitMinutes":89,"estimatedCostEur":9,"score":4.922767293349296},{"id":"riboque-santana_9987","citySlug":"riboque-santana","name":"Punto Panorámico","category":"mirador","lat":0.24724697335545762,"lng":6.727455110239817,"avgVisitMinutes":66,"estimatedCostEur":7,"score":3.557094835256572},{"id":"porto-real_2329","citySlug":"porto-real","name":"Restaurante Típico de Porto Real","category":"gastronomia","lat":1.6289628003754801,"lng":7.392900251105799,"avgVisitMinutes":23,"estimatedCostEur":25,"score":3.163805636896503},{"id":"porto-real_2419","citySlug":"porto-real","name":"Castillo de Porto Real","category":"historia","lat":1.619281394297585,"lng":7.410185189580543,"avgVisitMinutes":52,"estimatedCostEur":1,"score":0.7512969330146864},{"id":"porto-real_7563","citySlug":"porto-real","name":"Ruta de Tapas","category":"gastronomia","lat":1.6188167341565862,"lng":7.394374676449366,"avgVisitMinutes":78,"estimatedCostEur":18,"score":3.6259980852361746},{"id":"porto-real_3070","citySlug":"porto-real","name":"Playa Norte","category":"playa","lat":1.6228992963521167,"lng":7.4111457523957895,"avgVisitMinutes":78,"estimatedCostEur":21,"score":4.70595515716613},{"id":"porto-real_7363","citySlug":"porto-real","name":"Castillo de Porto Real","category":"historia","lat":1.6245698015831729,"lng":7.395049145549859,"avgVisitMinutes":88,"estimatedCostEur":10,"score":3.290187684405455},{"id":"porto-real_7288","citySlug":"porto-real","name":"Punto Panorámico","category":"mirador","lat":1.6222329996008291,"lng":7.402229297689266,"avgVisitMinutes":21,"estimatedCostEur":1,"score":2.8678590267122144},{"id":"porto-real_1286","citySlug":"porto-real","name":"Centro de Arte de Porto Real","category":"cultura","lat":1.6154976170024797,"lng":7.409160355457262,"avgVisitMinutes":24,"estimatedCostEur":23,"score":1.9799071032379332},{"id":"porto-real_3049","citySlug":"porto-real","name":"Mercado Gastronómico","category":"gastronomia","lat":1.6238841047920918,"lng":7.4080134427955295,"avgVisitMinutes":22,"estimatedCostEur":22,"score":1.9080107568255258},{"id":"porto-real_9104","citySlug":"porto-real","name":"Teatro Municipal","category":"cultura","lat":1.6156833707435578,"lng":7.394312713389323,"avgVisitMinutes":90,"estimatedCostEur":9,"score":3.461840339483162},{"id":"almas_6131","citySlug":"almas","name":"Iglesia de Almas","category":"historia","lat":0.2936424653697029,"lng":6.749581755181652,"avgVisitMinutes":24,"estimatedCostEur":3,"score":2.0657677864277115},{"id":"almas_6400","citySlug":"almas","name":"Paseo Principal","category":"ocio","lat":0.3050308107881451,"lng":6.737841349779185,"avgVisitMinutes":29,"estimatedCostEur":10,"score":1.6034997974069392},{"id":"almas_1302","citySlug":"almas","name":"Ruta de Tapas","category":"gastronomia","lat":0.30900165277236347,"lng":6.7431778768955635,"avgVisitMinutes":89,"estimatedCostEur":8,"score":2.677952484049509},{"id":"almas_8861","citySlug":"almas","name":"Centro de Arte de Almas","category":"cultura","lat":0.29478951649939555,"lng":6.743904654045625,"avgVisitMinutes":69,"estimatedCostEur":20,"score":2.2573368874036177},{"id":"almas_3217","citySlug":"almas","name":"Mirador de Almas","category":"mirador","lat":0.297292004812717,"lng":6.753324831356514,"avgVisitMinutes":83,"estimatedCostEur":5,"score":0.7793475516417439},{"id":"almas_4290","citySlug":"almas","name":"Playa Norte","category":"playa","lat":0.29338121861406147,"lng":6.744883360811679,"avgVisitMinutes":26,"estimatedCostEur":2,"score":4.420026849404169},{"id":"batepa_9943","citySlug":"batepa","name":"Mirador de Batepá","category":"mirador","lat":0.2907196007680581,"lng":6.654145357965771,"avgVisitMinutes":49,"estimatedCostEur":5,"score":1.1840407947116378},{"id":"batepa_8298","citySlug":"batepa","name":"Playa Norte","category":"playa","lat":0.30817480923938884,"lng":6.669509552330402,"avgVisitMinutes":51,"estimatedCostEur":0,"score":4.2871730636543095},{"id":"batepa_6097","citySlug":"batepa","name":"Playa Norte","category":"playa","lat":0.3089754606306854,"lng":6.655444879571801,"avgVisitMinutes":25,"estimatedCostEur":17,"score":0.9309700666708429},{"id":"batepa_4570","citySlug":"batepa","name":"Centro Histórico","category":"historia","lat":0.30661619444762994,"lng":6.65486642926471,"avgVisitMinutes":74,"estimatedCostEur":24,"score":1.0087394523884905},{"id":"batepa_1182","citySlug":"batepa","name":"Playa Norte","category":"playa","lat":0.30319733736871984,"lng":6.657171628698851,"avgVisitMinutes":63,"estimatedCostEur":7,"score":4.8595048985292735},{"id":"belem_7180","citySlug":"belem","name":"Punto Panorámico","category":"mirador","lat":0.2989664620879802,"lng":6.679657433754366,"avgVisitMinutes":58,"estimatedCostEur":17,"score":2.9964350296463906},{"id":"belem_2166","citySlug":"belem","name":"Playa Norte","category":"playa","lat":0.2932370828644263,"lng":6.672755053926182,"avgVisitMinutes":74,"estimatedCostEur":19,"score":2.7312246186614493},{"id":"belem_1365","citySlug":"belem","name":"Mercado Gastronómico","category":"gastronomia","lat":0.308224724471377,"lng":6.681845980340634,"avgVisitMinutes":82,"estimatedCostEur":12,"score":0.7133807489319479},{"id":"belem_4849","citySlug":"belem","name":"Restaurante Típico de Belém","category":"gastronomia","lat":0.30550260128421336,"lng":6.673643200925799,"avgVisitMinutes":35,"estimatedCostEur":2,"score":4.894618832943671},{"id":"belem_4347","citySlug":"belem","name":"Punto Panorámico","category":"mirador","lat":0.3109006458008977,"lng":6.682061237647369,"avgVisitMinutes":44,"estimatedCostEur":12,"score":4.389020613451557},{"id":"belem_8564","citySlug":"belem","name":"Castillo de Belém","category":"historia","lat":0.30912059392587576,"lng":6.668813294853172,"avgVisitMinutes":49,"estimatedCostEur":8,"score":1.9192200242216702},{"id":"belem_1130","citySlug":"belem","name":"Iglesia de Belém","category":"historia","lat":0.30101943984402874,"lng":6.6777513145953895,"avgVisitMinutes":26,"estimatedCostEur":13,"score":2.9101426029398407},{"id":"belem_5490","citySlug":"belem","name":"Iglesia de Belém","category":"historia","lat":0.30840194590319,"lng":6.672710244607238,"avgVisitMinutes":37,"estimatedCostEur":25,"score":0.968594486103961},{"id":"belem_6963","citySlug":"belem","name":"Paseo Principal","category":"ocio","lat":0.3006266397602853,"lng":6.682520395521833,"avgVisitMinutes":65,"estimatedCostEur":24,"score":2.384517468039161},{"id":"belem_5477","citySlug":"belem","name":"Centro Histórico","category":"historia","lat":0.29903731475004863,"lng":6.666611297746081,"avgVisitMinutes":53,"estimatedCostEur":13,"score":0.8510830710455677},{"id":"belem_8958","citySlug":"belem","name":"Centro Histórico","category":"historia","lat":0.294770456228819,"lng":6.669832147716711,"avgVisitMinutes":32,"estimatedCostEur":16,"score":4.813489493640944},{"id":"capela_7024","citySlug":"capela","name":"Punto Panorámico","category":"mirador","lat":0.304343375462062,"lng":6.688486313795868,"avgVisitMinutes":36,"estimatedCostEur":7,"score":4.243346604917408},{"id":"capela_8609","citySlug":"capela","name":"Playa Central","category":"playa","lat":0.3107959648605592,"lng":6.684743213590199,"avgVisitMinutes":79,"estimatedCostEur":8,"score":4.3652325506281375},{"id":"capela_6875","citySlug":"capela","name":"Restaurante Típico de Capela","category":"gastronomia","lat":0.31134254973356823,"lng":6.680665967895094,"avgVisitMinutes":63,"estimatedCostEur":8,"score":2.8125483635825153},{"id":"capela_4140","citySlug":"capela","name":"Centro de Arte de Capela","category":"cultura","lat":0.2996991893062634,"lng":6.681497266247106,"avgVisitMinutes":49,"estimatedCostEur":7,"score":1.2335079497796853},{"id":"capela_3269","citySlug":"capela","name":"Punto Panorámico","category":"mirador","lat":0.31153518374874256,"lng":6.674105822324392,"avgVisitMinutes":85,"estimatedCostEur":20,"score":4.696900880943156},{"id":"capela_9963","citySlug":"capela","name":"Playa Norte","category":"playa","lat":0.31199277162687544,"lng":6.683229996341934,"avgVisitMinutes":53,"estimatedCostEur":4,"score":3.147188304514457},{"id":"capela_6448","citySlug":"capela","name":"Playa Norte","category":"playa","lat":0.2986566882729077,"lng":6.684534768418373,"avgVisitMinutes":29,"estimatedCostEur":1,"score":4.769335542256705},{"id":"capela_7206","citySlug":"capela","name":"Playa Central","category":"playa","lat":0.3062971957746153,"lng":6.687164664455026,"avgVisitMinutes":33,"estimatedCostEur":23,"score":3.4119192070974083},{"id":"capela_7582","citySlug":"capela","name":"Playa Norte","category":"playa","lat":0.30339250437967497,"lng":6.683530900695995,"avgVisitMinutes":47,"estimatedCostEur":13,"score":2.5470785491033734},{"id":"changra_5479","citySlug":"changra","name":"Playa Norte","category":"playa","lat":0.350285285487098,"lng":6.684273124945339,"avgVisitMinutes":63,"estimatedCostEur":21,"score":1.354300681227572},{"id":"changra_1168","citySlug":"changra","name":"Playa Norte","category":"playa","lat":0.34742984810253463,"lng":6.690322497364892,"avgVisitMinutes":72,"estimatedCostEur":8,"score":4.080071101870646},{"id":"changra_4837","citySlug":"changra","name":"Zona Comercial","category":"ocio","lat":0.34405464625793897,"lng":6.6882030835744,"avgVisitMinutes":23,"estimatedCostEur":1,"score":0.5679504539507889},{"id":"changra_3208","citySlug":"changra","name":"Restaurante Típico de Changra","category":"gastronomia","lat":0.3551600120237196,"lng":6.679342260231432,"avgVisitMinutes":42,"estimatedCostEur":1,"score":2.10725344893923},{"id":"changra_4430","citySlug":"changra","name":"Zona Comercial","category":"ocio","lat":0.35147198401339863,"lng":6.6874009490631225,"avgVisitMinutes":78,"estimatedCostEur":18,"score":0.5892061940570071},{"id":"changra_8663","citySlug":"changra","name":"Ruta de Tapas","category":"gastronomia","lat":0.3469866601866483,"lng":6.693037969341164,"avgVisitMinutes":48,"estimatedCostEur":4,"score":4.858096688960922},{"id":"changra_3483","citySlug":"changra","name":"Mercado Gastronómico","category":"gastronomia","lat":0.3494709036977925,"lng":6.688658781299687,"avgVisitMinutes":62,"estimatedCostEur":5,"score":1.0398272346640223},{"id":"changra_7253","citySlug":"changra","name":"Centro Histórico","category":"historia","lat":0.3523029263613968,"lng":6.679375591731766,"avgVisitMinutes":67,"estimatedCostEur":10,"score":3.9281188961088125},{"id":"changra_2377","citySlug":"changra","name":"Teatro Municipal","category":"cultura","lat":0.34912551763426836,"lng":6.685609837880475,"avgVisitMinutes":22,"estimatedCostEur":8,"score":1.1440026362993883},{"id":"changra_8986","citySlug":"changra","name":"Mercado Gastronómico","category":"gastronomia","lat":0.3526935013915385,"lng":6.6880363811767705,"avgVisitMinutes":36,"estimatedCostEur":24,"score":4.096886100586633},{"id":"changra_4718","citySlug":"changra","name":"Teatro Municipal","category":"cultura","lat":0.34070236834686723,"lng":6.690593635324272,"avgVisitMinutes":87,"estimatedCostEur":11,"score":1.2514447343430803},{"id":"changra_6200","citySlug":"changra","name":"Playa Sur","category":"playa","lat":0.3565293417005498,"lng":6.68378420434344,"avgVisitMinutes":81,"estimatedCostEur":9,"score":3.173868516894316},{"id":"cova-barro_3520","citySlug":"cova-barro","name":"Parque Central","category":"ocio","lat":0.31739369179827165,"lng":6.733960184760673,"avgVisitMinutes":40,"estimatedCostEur":9,"score":4.1242023335636},{"id":"cova-barro_6046","citySlug":"cova-barro","name":"Teatro Municipal","category":"cultura","lat":0.30544159039171087,"lng":6.7429179521708535,"avgVisitMinutes":75,"estimatedCostEur":21,"score":4.337027705473927},{"id":"cova-barro_4472","citySlug":"cova-barro","name":"Vista Alta de Cova Barro","category":"mirador","lat":0.3225925051411638,"lng":6.733742376459685,"avgVisitMinutes":51,"estimatedCostEur":15,"score":1.7194211517660072},{"id":"cova-barro_8740","citySlug":"cova-barro","name":"Centro de Arte de Cova Barro","category":"cultura","lat":0.30658613693196096,"lng":6.746819737628253,"avgVisitMinutes":90,"estimatedCostEur":22,"score":1.95638345184687},{"id":"cova-barro_2793","citySlug":"cova-barro","name":"Galería de Arte","category":"cultura","lat":0.31437390850174285,"lng":6.732708502374914,"avgVisitMinutes":72,"estimatedCostEur":10,"score":3.0719151781907836},{"id":"cova-barro_6798","citySlug":"cova-barro","name":"Iglesia de Cova Barro","category":"historia","lat":0.30808920966151104,"lng":6.729760770533928,"avgVisitMinutes":73,"estimatedCostEur":16,"score":3.388314947457264},{"id":"cova-barro_1746","citySlug":"cova-barro","name":"Playa Central","category":"playa","lat":0.31380390208922043,"lng":6.742739614616547,"avgVisitMinutes":49,"estimatedCostEur":19,"score":3.2475953816421828},{"id":"cova-barro_7046","citySlug":"cova-barro","name":"Centro Histórico","category":"historia","lat":0.318748623809091,"lng":6.72887453646401,"avgVisitMinutes":37,"estimatedCostEur":17,"score":3.10298940204861},{"id":"cova-barro_5105","citySlug":"cova-barro","name":"Playa Central","category":"playa","lat":0.3130524658024536,"lng":6.734718939361943,"avgVisitMinutes":35,"estimatedCostEur":7,"score":0.6478929894453413},{"id":"cova-barro_3418","citySlug":"cova-barro","name":"Restaurante Típico de Cova Barro","category":"gastronomia","lat":0.3115475830059393,"lng":6.736514368477469,"avgVisitMinutes":86,"estimatedCostEur":20,"score":4.633534243557259},{"id":"desejada_5393","citySlug":"desejada","name":"Iglesia de Desejada","category":"historia","lat":0.3497656688460742,"lng":6.663095910510554,"avgVisitMinutes":31,"estimatedCostEur":6,"score":1.3206519210369037},{"id":"desejada_8925","citySlug":"desejada","name":"Punto Panorámico","category":"mirador","lat":0.3653131625319121,"lng":6.666280218204581,"avgVisitMinutes":42,"estimatedCostEur":24,"score":3.667443847329218},{"id":"desejada_7916","citySlug":"desejada","name":"Centro Histórico","category":"historia","lat":0.3578334888411993,"lng":6.6732898860496395,"avgVisitMinutes":60,"estimatedCostEur":16,"score":3.640110620717806},{"id":"desejada_2489","citySlug":"desejada","name":"Playa Norte","category":"playa","lat":0.3501713507288719,"lng":6.67903998562138,"avgVisitMinutes":44,"estimatedCostEur":9,"score":3.6322486095000985},{"id":"desejada_9579","citySlug":"desejada","name":"Museo Local de Desejada","category":"historia","lat":0.3476465552117617,"lng":6.661954506530986,"avgVisitMinutes":57,"estimatedCostEur":20,"score":3.0498467018881112},{"id":"desejada_6179","citySlug":"desejada","name":"Vista Alta de Desejada","category":"mirador","lat":0.3556498557930086,"lng":6.676362979751143,"avgVisitMinutes":88,"estimatedCostEur":0,"score":3.4989533007163875},{"id":"diogo-simao_8089","citySlug":"diogo-simao","name":"Teatro Municipal","category":"cultura","lat":0.32292026908894544,"lng":6.6999513090054785,"avgVisitMinutes":73,"estimatedCostEur":13,"score":0.9721351878635492},{"id":"diogo-simao_4870","citySlug":"diogo-simao","name":"Museo Cultural de Diogo Simão","category":"cultura","lat":0.31812858835135727,"lng":6.6883628391726155,"avgVisitMinutes":51,"estimatedCostEur":9,"score":1.3356267247805462},{"id":"diogo-simao_9902","citySlug":"diogo-simao","name":"Playa Central","category":"playa","lat":0.32096655998080115,"lng":6.697913492042657,"avgVisitMinutes":44,"estimatedCostEur":12,"score":4.435849475877211},{"id":"diogo-simao_3794","citySlug":"diogo-simao","name":"Paseo Principal","category":"ocio","lat":0.31907086591497996,"lng":6.699771848533704,"avgVisitMinutes":26,"estimatedCostEur":12,"score":4.119281800138804},{"id":"diogo-simao_2201","citySlug":"diogo-simao","name":"Playa Norte","category":"playa","lat":0.3141969193066228,"lng":6.703568333042263,"avgVisitMinutes":63,"estimatedCostEur":17,"score":1.3740467276761232},{"id":"diogo-simao_1142","citySlug":"diogo-simao","name":"Galería de Arte","category":"cultura","lat":0.32308659082633256,"lng":6.695752757198628,"avgVisitMinutes":59,"estimatedCostEur":10,"score":4.39828596555577},{"id":"diogo-simao_9523","citySlug":"diogo-simao","name":"Playa Sur","category":"playa","lat":0.31678726643696464,"lng":6.686836109573736,"avgVisitMinutes":23,"estimatedCostEur":12,"score":2.382931298142974},{"id":"diogo-simao_3915","citySlug":"diogo-simao","name":"Castillo de Diogo Simão","category":"historia","lat":0.32454033248610953,"lng":6.684368589529456,"avgVisitMinutes":47,"estimatedCostEur":13,"score":1.8997050123087962},{"id":"diogo-simao_8970","citySlug":"diogo-simao","name":"Parque Central","category":"ocio","lat":0.3047477291385192,"lng":6.689432842097377,"avgVisitMinutes":41,"estimatedCostEur":13,"score":4.9275424510153245},{"id":"maianco_5109","citySlug":"maianco","name":"Teatro Municipal","category":"cultura","lat":0.3455323902596702,"lng":6.6768026134066085,"avgVisitMinutes":29,"estimatedCostEur":3,"score":3.7575645178813657},{"id":"maianco_1693","citySlug":"maianco","name":"Murallas de Maianço","category":"historia","lat":0.35704309682348,"lng":6.67028557447844,"avgVisitMinutes":75,"estimatedCostEur":2,"score":3.7066592330969548},{"id":"maianco_6211","citySlug":"maianco","name":"Restaurante Típico de Maianço","category":"gastronomia","lat":0.3394861021926236,"lng":6.667149059972097,"avgVisitMinutes":68,"estimatedCostEur":23,"score":2.9314008576066772},{"id":"maianco_7403","citySlug":"maianco","name":"Teatro Municipal","category":"cultura","lat":0.34466938094984684,"lng":6.680268730144414,"avgVisitMinutes":38,"estimatedCostEur":10,"score":2.8221287641794874},{"id":"maianco_4542","citySlug":"maianco","name":"Mirador de Maianço","category":"mirador","lat":0.34969617398464675,"lng":6.678027723600771,"avgVisitMinutes":79,"estimatedCostEur":5,"score":3.3917464900740453},{"id":"maianco_7876","citySlug":"maianco","name":"Parque Central","category":"ocio","lat":0.3555633683237936,"lng":6.66855014701198,"avgVisitMinutes":49,"estimatedCostEur":3,"score":2.739031361217532},{"id":"maianco_9544","citySlug":"maianco","name":"Parque Central","category":"ocio","lat":0.3578681392482831,"lng":6.672681450327943,"avgVisitMinutes":68,"estimatedCostEur":2,"score":1.7538798046322066},{"id":"maianco_9827","citySlug":"maianco","name":"Teatro Municipal","category":"cultura","lat":0.3453513140270329,"lng":6.665450821195823,"avgVisitMinutes":69,"estimatedCostEur":19,"score":3.633018578763938},{"id":"maianco_8062","citySlug":"maianco","name":"Punto Panorámico","category":"mirador","lat":0.35250012682901366,"lng":6.667245774791433,"avgVisitMinutes":57,"estimatedCostEur":22,"score":2.9055683231734806},{"id":"maianco_9053","citySlug":"maianco","name":"Galería de Arte","category":"cultura","lat":0.35187342517960996,"lng":6.665524499607027,"avgVisitMinutes":76,"estimatedCostEur":1,"score":3.5161087972669702},{"id":"maianco_7847","citySlug":"maianco","name":"Teatro Municipal","category":"cultura","lat":0.3467789215945813,"lng":6.66451557470121,"avgVisitMinutes":21,"estimatedCostEur":18,"score":4.1916593919607905},{"id":"malanza_8979","citySlug":"malanza","name":"Zona Comercial","category":"ocio","lat":0.04335875858223794,"lng":6.541148181495668,"avgVisitMinutes":69,"estimatedCostEur":3,"score":3.0452807210859074},{"id":"malanza_8698","citySlug":"malanza","name":"Museo Cultural de Malanza","category":"cultura","lat":0.047108757556511706,"lng":6.531533180064113,"avgVisitMinutes":29,"estimatedCostEur":3,"score":0.665277206203603},{"id":"malanza_5050","citySlug":"malanza","name":"Zona Comercial","category":"ocio","lat":0.041093815883735785,"lng":6.531005077547462,"avgVisitMinutes":77,"estimatedCostEur":13,"score":4.687098328241097},{"id":"malanza_6831","citySlug":"malanza","name":"Centro Histórico","category":"historia","lat":0.043028112613151426,"lng":6.530070677382107,"avgVisitMinutes":81,"estimatedCostEur":8,"score":1.4857148651583225},{"id":"malanza_1494","citySlug":"malanza","name":"Centro Histórico","category":"historia","lat":0.05491267635142602,"lng":6.534111101788545,"avgVisitMinutes":79,"estimatedCostEur":7,"score":1.2706024214421667},{"id":"malanza_1234","citySlug":"malanza","name":"Playa Norte","category":"playa","lat":0.044014020945623906,"lng":6.530365474386589,"avgVisitMinutes":89,"estimatedCostEur":25,"score":4.79963109853855},{"id":"malanza_1325","citySlug":"malanza","name":"Zona Comercial","category":"ocio","lat":0.04351941090557115,"lng":6.545398105534447,"avgVisitMinutes":77,"estimatedCostEur":23,"score":2.5598231262306337},{"id":"malanza_6633","citySlug":"malanza","name":"Mirador de Malanza","category":"mirador","lat":0.05170346829276487,"lng":6.541413696477203,"avgVisitMinutes":87,"estimatedCostEur":12,"score":1.8422663065856542},{"id":"margarida-manuel_5670","citySlug":"margarida-manuel","name":"Parque Central","category":"ocio","lat":0.3095442051524954,"lng":6.721855776469207,"avgVisitMinutes":82,"estimatedCostEur":1,"score":0.6870409884892743},{"id":"margarida-manuel_7820","citySlug":"margarida-manuel","name":"Centro Histórico","category":"historia","lat":0.30671310032069815,"lng":6.725402845737256,"avgVisitMinutes":54,"estimatedCostEur":23,"score":2.0824825346238143},{"id":"margarida-manuel_1467","citySlug":"margarida-manuel","name":"Playa Central","category":"playa","lat":0.3072759514649669,"lng":6.710825827508974,"avgVisitMinutes":73,"estimatedCostEur":15,"score":1.2685934574847009},{"id":"margarida-manuel_2588","citySlug":"margarida-manuel","name":"Punto Panorámico","category":"mirador","lat":0.3006259790457086,"lng":6.723818348829487,"avgVisitMinutes":36,"estimatedCostEur":17,"score":0.572572694918198},{"id":"margarida-manuel_5705","citySlug":"margarida-manuel","name":"Punto Panorámico","category":"mirador","lat":0.30033977971053333,"lng":6.7083871974512475,"avgVisitMinutes":67,"estimatedCostEur":24,"score":0.9583276744417726},{"id":"margarida-manuel_1524","citySlug":"margarida-manuel","name":"Mercado Gastronómico","category":"gastronomia","lat":0.3108051920459008,"lng":6.725145042777469,"avgVisitMinutes":47,"estimatedCostEur":20,"score":1.5306764879718593},{"id":"micondo_5177","citySlug":"micondo","name":"Museo Local de Micondo","category":"historia","lat":0.17958004815933867,"lng":6.678415775432549,"avgVisitMinutes":25,"estimatedCostEur":24,"score":4.154977932510834},{"id":"micondo_1617","citySlug":"micondo","name":"Playa Sur","category":"playa","lat":0.17439072194460717,"lng":6.679038805010099,"avgVisitMinutes":86,"estimatedCostEur":24,"score":2.4796238786289315},{"id":"micondo_4844","citySlug":"micondo","name":"Centro de Arte de Micondo","category":"cultura","lat":0.16593567819921454,"lng":6.683714571093434,"avgVisitMinutes":59,"estimatedCostEur":2,"score":4.005864418596329},{"id":"micondo_9692","citySlug":"micondo","name":"Parque Central","category":"ocio","lat":0.174286420729849,"lng":6.680508119504413,"avgVisitMinutes":47,"estimatedCostEur":18,"score":1.2686491402815343},{"id":"micondo_1792","citySlug":"micondo","name":"Castillo de Micondo","category":"historia","lat":0.1644665068255224,"lng":6.680199867875131,"avgVisitMinutes":40,"estimatedCostEur":20,"score":1.1815963087107737},{"id":"micondo_1787","citySlug":"micondo","name":"Museo Cultural de Micondo","category":"cultura","lat":0.17015237937336772,"lng":6.669583351043921,"avgVisitMinutes":83,"estimatedCostEur":0,"score":3.63636480449677},{"id":"micondo_6337","citySlug":"micondo","name":"Mercado Gastronómico","category":"gastronomia","lat":0.16860151348276686,"lng":6.677108448590377,"avgVisitMinutes":37,"estimatedCostEur":7,"score":2.213546976263333},{"id":"micondo_5593","citySlug":"micondo","name":"Punto Panorámico","category":"mirador","lat":0.1704191758316131,"lng":6.67645406596542,"avgVisitMinutes":24,"estimatedCostEur":5,"score":0.694146162157091},{"id":"micondo_4827","citySlug":"micondo","name":"Museo Cultural de Micondo","category":"cultura","lat":0.17768304464559853,"lng":6.684847630141741,"avgVisitMinutes":71,"estimatedCostEur":25,"score":2.830604671604914},{"id":"monta-alegre_3666","citySlug":"monta-alegre","name":"Ruta de Tapas","category":"gastronomia","lat":0.29879511163233863,"lng":6.7184000655744835,"avgVisitMinutes":59,"estimatedCostEur":9,"score":4.863067617707368},{"id":"monta-alegre_7462","citySlug":"monta-alegre","name":"Mirador de Monta Alegre","category":"mirador","lat":0.29407329824650713,"lng":6.71329832224219,"avgVisitMinutes":90,"estimatedCostEur":6,"score":2.7068027131612324},{"id":"monta-alegre_8320","citySlug":"monta-alegre","name":"Playa Central","category":"playa","lat":0.29537980506043704,"lng":6.717672554127582,"avgVisitMinutes":23,"estimatedCostEur":25,"score":2.479542547225481},{"id":"monta-alegre_2069","citySlug":"monta-alegre","name":"Museo Cultural de Monta Alegre","category":"cultura","lat":0.3023275415383013,"lng":6.7240501555505405,"avgVisitMinutes":25,"estimatedCostEur":15,"score":2.2666565239676917},{"id":"monta-alegre_6944","citySlug":"monta-alegre","name":"Playa Central","category":"playa","lat":0.31247375375939124,"lng":6.729281556958073,"avgVisitMinutes":78,"estimatedCostEur":15,"score":1.4304300481977401},{"id":"monta-alegre_9069","citySlug":"monta-alegre","name":"Paseo Principal","category":"ocio","lat":0.3008674765078689,"lng":6.716660110184985,"avgVisitMinutes":63,"estimatedCostEur":13,"score":4.012079257523328},{"id":"monta-alegre_9748","citySlug":"monta-alegre","name":"Zona Comercial","category":"ocio","lat":0.3052536040033775,"lng":6.724105410844478,"avgVisitMinutes":56,"estimatedCostEur":18,"score":4.245431588396069},{"id":"monta-alegre_5699","citySlug":"monta-alegre","name":"Mirador de Monta Alegre","category":"mirador","lat":0.29726209336768133,"lng":6.713272238910251,"avgVisitMinutes":77,"estimatedCostEur":21,"score":4.443460412167821},{"id":"monta-alegre_5971","citySlug":"monta-alegre","name":"Zona Comercial","category":"ocio","lat":0.29522457158052745,"lng":6.731971297415825,"avgVisitMinutes":24,"estimatedCostEur":4,"score":1.4000290128549433},{"id":"obo-izaquente_2263","citySlug":"obo-izaquente","name":"Murallas de Obo Izaquente","category":"historia","lat":0.3253086510474746,"lng":6.683779230866365,"avgVisitMinutes":75,"estimatedCostEur":12,"score":3.802627586750191},{"id":"obo-izaquente_7777","citySlug":"obo-izaquente","name":"Playa Sur","category":"playa","lat":0.31345670698427425,"lng":6.68652451784623,"avgVisitMinutes":85,"estimatedCostEur":2,"score":2.040857585275859},{"id":"obo-izaquente_5509","citySlug":"obo-izaquente","name":"Restaurante Típico de Obo Izaquente","category":"gastronomia","lat":0.3155577149629567,"lng":6.684387750949924,"avgVisitMinutes":74,"estimatedCostEur":10,"score":4.747148520709461},{"id":"obo-izaquente_2451","citySlug":"obo-izaquente","name":"Ruta de Tapas","category":"gastronomia","lat":0.3140870737233751,"lng":6.697738560052923,"avgVisitMinutes":66,"estimatedCostEur":1,"score":2.2560865872756404},{"id":"obo-izaquente_9938","citySlug":"obo-izaquente","name":"Museo Local de Obo Izaquente","category":"historia","lat":0.3172953443096885,"lng":6.695573580468784,"avgVisitMinutes":21,"estimatedCostEur":1,"score":2.427222925567202},{"id":"obo-izaquente_3127","citySlug":"obo-izaquente","name":"Ruta de Tapas","category":"gastronomia","lat":0.32196761808906665,"lng":6.682333616253339,"avgVisitMinutes":55,"estimatedCostEur":15,"score":4.922098502563391},{"id":"obo-izaquente_5440","citySlug":"obo-izaquente","name":"Museo Cultural de Obo Izaquente","category":"cultura","lat":0.3279731398911097,"lng":6.693611146776452,"avgVisitMinutes":49,"estimatedCostEur":7,"score":3.3670073563422576},{"id":"obo-izaquente_6769","citySlug":"obo-izaquente","name":"Teatro Municipal","category":"cultura","lat":0.3194040111759257,"lng":6.683802518421644,"avgVisitMinutes":76,"estimatedCostEur":9,"score":1.2380280575548186},{"id":"obolongo_9056","citySlug":"obolongo","name":"Castillo de Obolongo","category":"historia","lat":0.2989603612718152,"lng":6.690018046166603,"avgVisitMinutes":39,"estimatedCostEur":1,"score":2.806749241193342},{"id":"obolongo_4742","citySlug":"obolongo","name":"Restaurante Típico de Obolongo","category":"gastronomia","lat":0.2852195794694895,"lng":6.702390412025231,"avgVisitMinutes":75,"estimatedCostEur":12,"score":4.036824883383712},{"id":"obolongo_3339","citySlug":"obolongo","name":"Restaurante Típico de Obolongo","category":"gastronomia","lat":0.2900631840133762,"lng":6.69242763877732,"avgVisitMinutes":46,"estimatedCostEur":6,"score":4.116138278664986},{"id":"obolongo_7741","citySlug":"obolongo","name":"Vista Alta de Obolongo","category":"mirador","lat":0.2801934041072726,"lng":6.700103232734476,"avgVisitMinutes":76,"estimatedCostEur":2,"score":1.6082053340197533},{"id":"obolongo_6558","citySlug":"obolongo","name":"Playa Norte","category":"playa","lat":0.2880397176964234,"lng":6.683442822339476,"avgVisitMinutes":53,"estimatedCostEur":7,"score":3.9171379437719978},{"id":"ototo_4461","citySlug":"ototo","name":"Parque Central","category":"ocio","lat":0.32124835805261537,"lng":6.665566710129054,"avgVisitMinutes":71,"estimatedCostEur":8,"score":3.6319788345548583},{"id":"ototo_5026","citySlug":"ototo","name":"Mirador de Ototó","category":"mirador","lat":0.3101140963408323,"lng":6.673190239841122,"avgVisitMinutes":22,"estimatedCostEur":2,"score":0.6724796239438751},{"id":"ototo_8435","citySlug":"ototo","name":"Playa Sur","category":"playa","lat":0.3233907609301964,"lng":6.6585251457298265,"avgVisitMinutes":39,"estimatedCostEur":13,"score":4.675650865955558},{"id":"ototo_7621","citySlug":"ototo","name":"Mirador de Ototó","category":"mirador","lat":0.3120183731584815,"lng":6.662443421251894,"avgVisitMinutes":72,"estimatedCostEur":5,"score":1.5292387829228036},{"id":"ototo_8138","citySlug":"ototo","name":"Museo Cultural de Ototó","category":"cultura","lat":0.319874303811389,"lng":6.658181355353958,"avgVisitMinutes":85,"estimatedCostEur":14,"score":3.0250545939744597},{"id":"ototo_9486","citySlug":"ototo","name":"Teatro Municipal","category":"cultura","lat":0.31935157613041376,"lng":6.671890498727803,"avgVisitMinutes":51,"estimatedCostEur":4,"score":3.253792539002908},{"id":"ototo_6986","citySlug":"ototo","name":"Vista Alta de Ototó","category":"mirador","lat":0.32183116953905816,"lng":6.653580077361185,"avgVisitMinutes":64,"estimatedCostEur":14,"score":1.5293106052521415},{"id":"ototo_3327","citySlug":"ototo","name":"Galería de Arte","category":"cultura","lat":0.32196804653069505,"lng":6.661559008697811,"avgVisitMinutes":35,"estimatedCostEur":24,"score":0.7118888401141095},{"id":"pantufo_9589","citySlug":"pantufo","name":"Ruta de Tapas","category":"gastronomia","lat":0.3092846209108368,"lng":6.750386751344815,"avgVisitMinutes":62,"estimatedCostEur":3,"score":3.0095552422392373},{"id":"pantufo_5461","citySlug":"pantufo","name":"Mirador de Pantufo","category":"mirador","lat":0.32275872924149684,"lng":6.736757555914804,"avgVisitMinutes":73,"estimatedCostEur":10,"score":2.1540990615280893},{"id":"pantufo_8764","citySlug":"pantufo","name":"Mirador de Pantufo","category":"mirador","lat":0.321967466728146,"lng":6.736549426130414,"avgVisitMinutes":25,"estimatedCostEur":15,"score":4.376421068659381},{"id":"pantufo_4740","citySlug":"pantufo","name":"Paseo Principal","category":"ocio","lat":0.3128332314479729,"lng":6.75227880202592,"avgVisitMinutes":79,"estimatedCostEur":12,"score":2.310173098759005},{"id":"pantufo_8195","citySlug":"pantufo","name":"Centro Histórico","category":"historia","lat":0.32330545225042095,"lng":6.743542483335986,"avgVisitMinutes":75,"estimatedCostEur":4,"score":1.5380203863179858},{"id":"pantufo_1836","citySlug":"pantufo","name":"Mirador de Pantufo","category":"mirador","lat":0.3234093814252781,"lng":6.7462589050713735,"avgVisitMinutes":58,"estimatedCostEur":5,"score":1.0571885950806093},{"id":"pantufo_4859","citySlug":"pantufo","name":"Punto Panorámico","category":"mirador","lat":0.31827350486396244,"lng":6.743193167034027,"avgVisitMinutes":24,"estimatedCostEur":1,"score":3.702680895168606},{"id":"pantufo_6428","citySlug":"pantufo","name":"Playa Norte","category":"playa","lat":0.3245339775681971,"lng":6.735968012253819,"avgVisitMinutes":73,"estimatedCostEur":18,"score":0.7005471952959983},{"id":"pantufo_5850","citySlug":"pantufo","name":"Vista Alta de Pantufo","category":"mirador","lat":0.32241712871716455,"lng":6.745552482513877,"avgVisitMinutes":31,"estimatedCostEur":10,"score":3.5946702142995672},{"id":"pantufo_4979","citySlug":"pantufo","name":"Murallas de Pantufo","category":"historia","lat":0.322582579851507,"lng":6.751183781737244,"avgVisitMinutes":24,"estimatedCostEur":20,"score":1.8510957278665179},{"id":"pantufo_8600","citySlug":"pantufo","name":"Zona Comercial","category":"ocio","lat":0.3106666850997996,"lng":6.742349107375074,"avgVisitMinutes":43,"estimatedCostEur":10,"score":1.117688188717251},{"id":"pete-pete_1363","citySlug":"pete-pete","name":"Punto Panorámico","category":"mirador","lat":0.29811624612900767,"lng":6.7403843606204665,"avgVisitMinutes":61,"estimatedCostEur":10,"score":1.815568559709685},{"id":"pete-pete_8175","citySlug":"pete-pete","name":"Mirador de Pété-Pété","category":"mirador","lat":0.3000149367271289,"lng":6.738448585630827,"avgVisitMinutes":32,"estimatedCostEur":2,"score":1.3001418174568187},{"id":"pete-pete_1235","citySlug":"pete-pete","name":"Castillo de Pété-Pété","category":"historia","lat":0.29614241788040524,"lng":6.745082960814742,"avgVisitMinutes":38,"estimatedCostEur":12,"score":3.249632101911366},{"id":"pete-pete_7025","citySlug":"pete-pete","name":"Paseo Principal","category":"ocio","lat":0.29985879097302554,"lng":6.730718758789082,"avgVisitMinutes":54,"estimatedCostEur":6,"score":1.9548738266000831},{"id":"pete-pete_6292","citySlug":"pete-pete","name":"Museo Local de Pété-Pété","category":"historia","lat":0.3108063109637219,"lng":6.74545066121668,"avgVisitMinutes":61,"estimatedCostEur":18,"score":4.9005881291905204},{"id":"praia-morro-peixe_5897","citySlug":"praia-morro-peixe","name":"Mirador de Praia Morro Peixe","category":"mirador","lat":0.4083165798346899,"lng":6.644597389875137,"avgVisitMinutes":54,"estimatedCostEur":9,"score":2.842218851424055},{"id":"praia-morro-peixe_4705","citySlug":"praia-morro-peixe","name":"Playa Sur","category":"playa","lat":0.39931665471458117,"lng":6.637174448371027,"avgVisitMinutes":68,"estimatedCostEur":25,"score":3.2084494240409045},{"id":"praia-morro-peixe_1970","citySlug":"praia-morro-peixe","name":"Centro de Arte de Praia Morro Peixe","category":"cultura","lat":0.3967568910297327,"lng":6.640724334364168,"avgVisitMinutes":69,"estimatedCostEur":14,"score":2.7849083678663957},{"id":"praia-morro-peixe_1373","citySlug":"praia-morro-peixe","name":"Paseo Principal","category":"ocio","lat":0.4013247728761719,"lng":6.635194823793842,"avgVisitMinutes":51,"estimatedCostEur":12,"score":2.6615220565745537},{"id":"praia-morro-peixe_5184","citySlug":"praia-morro-peixe","name":"Playa Sur","category":"playa","lat":0.3999110921284041,"lng":6.641404345140205,"avgVisitMinutes":22,"estimatedCostEur":16,"score":3.089228455596497},{"id":"praia-morro-peixe_4239","citySlug":"praia-morro-peixe","name":"Punto Panorámico","category":"mirador","lat":0.39706890812678003,"lng":6.6382856577083205,"avgVisitMinutes":47,"estimatedCostEur":2,"score":3.4063344368422195},{"id":"praia-morro-peixe_7615","citySlug":"praia-morro-peixe","name":"Teatro Municipal","category":"cultura","lat":0.40791936907164855,"lng":6.637213951401408,"avgVisitMinutes":77,"estimatedCostEur":10,"score":2.341938414238234},{"id":"praia-morro-peixe_3439","citySlug":"praia-morro-peixe","name":"Murallas de Praia Morro Peixe","category":"historia","lat":0.40945118500786953,"lng":6.630939310675534,"avgVisitMinutes":22,"estimatedCostEur":11,"score":2.2976825976190627},{"id":"praia-morro-peixe_2400","citySlug":"praia-morro-peixe","name":"Mirador de Praia Morro Peixe","category":"mirador","lat":0.40863548619870155,"lng":6.642489297629577,"avgVisitMinutes":24,"estimatedCostEur":9,"score":2.6314975848786384},{"id":"praia-morro-peixe_7537","citySlug":"praia-morro-peixe","name":"Mercado Gastronómico","category":"gastronomia","lat":0.41124605664897435,"lng":6.646824909587369,"avgVisitMinutes":65,"estimatedCostEur":8,"score":1.9228545190819915},{"id":"praia-morro-peixe_3685","citySlug":"praia-morro-peixe","name":"Museo Cultural de Praia Morro Peixe","category":"cultura","lat":0.40624942086451227,"lng":6.635809388270566,"avgVisitMinutes":34,"estimatedCostEur":1,"score":2.488327284886834},{"id":"praia-morro-peixe_6375","citySlug":"praia-morro-peixe","name":"Iglesia de Praia Morro Peixe","category":"historia","lat":0.40598088251903525,"lng":6.635688558934857,"avgVisitMinutes":77,"estimatedCostEur":4,"score":1.7885898212094151},{"id":"ribeira-peixe_1013","citySlug":"ribeira-peixe","name":"Mercado Gastronómico","category":"gastronomia","lat":0.08210100825826372,"lng":6.618961194682328,"avgVisitMinutes":60,"estimatedCostEur":17,"score":4.355703698358549},