{"country":"SV","pois":[{"id":"zaragoza_2742","citySlug":"zaragoza","name":"Mercado Gastronómico","category":"gastronomia","lat":13.594276785779282,"lng":-89.28581095465212,"avgVisitMinutes":33,"estimatedCostEur":19,"score":4.9398265650208755},{"id":"zaragoza_4175","citySlug":"zaragoza","name":"Playa Norte","category":"playa","lat":13.594884527697795,"lng":-89.29397704571161,"avgVisitMinutes":42,"estimatedCostEur":15,"score":4.920877253047955},{"id":"zaragoza_8241","citySlug":"zaragoza","name":"Paseo Principal","category":"ocio","lat":13.597465017273182,"lng":-89.28054308594307,"avgVisitMinutes":60,"estimatedCostEur":2,"score":0.6102582384463144},{"id":"zaragoza_1567","citySlug":"zaragoza","name":"Restaurante Típico de Zaragoza","category":"gastronomia","lat":13.591954851136185,"lng":-89.28329575025506,"avgVisitMinutes":90,"estimatedCostEur":25,"score":1.8146550626812568},{"id":"zaragoza_5628","citySlug":"zaragoza","name":"Mirador de Zaragoza","category":"mirador","lat":13.594881672706865,"lng":-89.28647044919393,"avgVisitMinutes":55,"estimatedCostEur":1,"score":0.578675011220922},{"id":"zacatecoluca_3120","citySlug":"zacatecoluca","name":"Castillo de Zacatecoluca","category":"historia","lat":13.518377787920471,"lng":-88.87622946873977,"avgVisitMinutes":22,"estimatedCostEur":17,"score":0.5052942277992324},{"id":"zacatecoluca_1589","citySlug":"zacatecoluca","name":"Castillo de Zacatecoluca","category":"historia","lat":13.511375994163695,"lng":-88.87775726029248,"avgVisitMinutes":45,"estimatedCostEur":19,"score":4.825492419228584},{"id":"zacatecoluca_2138","citySlug":"zacatecoluca","name":"Museo Cultural de Zacatecoluca","category":"cultura","lat":13.51181700038882,"lng":-88.86573933157305,"avgVisitMinutes":23,"estimatedCostEur":17,"score":3.881731970884833},{"id":"zacatecoluca_3066","citySlug":"zacatecoluca","name":"Ruta de Tapas","category":"gastronomia","lat":13.51681900962034,"lng":-88.8737617222959,"avgVisitMinutes":79,"estimatedCostEur":23,"score":2.1600321920404766},{"id":"zacatecoluca_7435","citySlug":"zacatecoluca","name":"Restaurante Típico de Zacatecoluca","category":"gastronomia","lat":13.512487955836638,"lng":-88.87691158382745,"avgVisitMinutes":72,"estimatedCostEur":13,"score":3.3145875241848692},{"id":"zacatecoluca_6744","citySlug":"zacatecoluca","name":"Ruta de Tapas","category":"gastronomia","lat":13.504890531274718,"lng":-88.86221193725108,"avgVisitMinutes":86,"estimatedCostEur":7,"score":2.3328162901457414},{"id":"zacatecoluca_9175","citySlug":"zacatecoluca","name":"Zona Comercial","category":"ocio","lat":13.504772650087185,"lng":-88.87367243669,"avgVisitMinutes":20,"estimatedCostEur":20,"score":1.8766789030724804},{"id":"zacatecoluca_6540","citySlug":"zacatecoluca","name":"Mirador de Zacatecoluca","category":"mirador","lat":13.503903073471822,"lng":-88.86071901403602,"avgVisitMinutes":49,"estimatedCostEur":14,"score":2.675456336253204},{"id":"zacatecoluca_9222","citySlug":"zacatecoluca","name":"Ruta de Tapas","category":"gastronomia","lat":13.500054520078963,"lng":-88.86018666318138,"avgVisitMinutes":38,"estimatedCostEur":22,"score":3.7673811804048154},{"id":"victoria_4754","citySlug":"victoria","name":"Zona Comercial","category":"ocio","lat":13.942206913238369,"lng":-88.62390237258742,"avgVisitMinutes":89,"estimatedCostEur":19,"score":3.570693959286398},{"id":"victoria_3825","citySlug":"victoria","name":"Paseo Principal","category":"ocio","lat":13.950511426937723,"lng":-88.63095385980778,"avgVisitMinutes":38,"estimatedCostEur":21,"score":1.6081859626147497},{"id":"victoria_1451","citySlug":"victoria","name":"Museo Local de Victoria","category":"historia","lat":13.945739819867471,"lng":-88.63300759456781,"avgVisitMinutes":89,"estimatedCostEur":25,"score":2.326499606565567},{"id":"victoria_7561","citySlug":"victoria","name":"Paseo Principal","category":"ocio","lat":13.944905929764907,"lng":-88.64278304506927,"avgVisitMinutes":77,"estimatedCostEur":19,"score":1.9952916654300608},{"id":"victoria_8619","citySlug":"victoria","name":"Teatro Municipal","category":"cultura","lat":13.953736117588111,"lng":-88.64312988265142,"avgVisitMinutes":27,"estimatedCostEur":20,"score":1.6565255483666652},{"id":"usulutan_9784","citySlug":"usulutan","name":"Galería de Arte","category":"cultura","lat":13.348211762016819,"lng":-88.43420655030457,"avgVisitMinutes":52,"estimatedCostEur":12,"score":4.159330172021086},{"id":"usulutan_2164","citySlug":"usulutan","name":"Playa Sur","category":"playa","lat":13.336010432473653,"lng":-88.44853742145105,"avgVisitMinutes":74,"estimatedCostEur":15,"score":2.4317509474361163},{"id":"usulutan_3275","citySlug":"usulutan","name":"Paseo Principal","category":"ocio","lat":13.348629660698155,"lng":-88.4461221210421,"avgVisitMinutes":21,"estimatedCostEur":12,"score":2.789252547605841},{"id":"usulutan_5425","citySlug":"usulutan","name":"Playa Central","category":"playa","lat":13.34291562623556,"lng":-88.43280731309768,"avgVisitMinutes":86,"estimatedCostEur":6,"score":4.342400369108358},{"id":"usulutan_4479","citySlug":"usulutan","name":"Iglesia de Usulután","category":"historia","lat":13.335802046549972,"lng":-88.44307719934253,"avgVisitMinutes":27,"estimatedCostEur":19,"score":3.254405144576828},{"id":"usulutan_3963","citySlug":"usulutan","name":"Museo Cultural de Usulután","category":"cultura","lat":13.341993355873342,"lng":-88.43392451180769,"avgVisitMinutes":36,"estimatedCostEur":9,"score":0.6334151518606552},{"id":"turin_8703","citySlug":"turin","name":"Iglesia de Turín","category":"historia","lat":13.972264836203523,"lng":-89.7715105579865,"avgVisitMinutes":80,"estimatedCostEur":25,"score":3.9150297338510835},{"id":"turin_9363","citySlug":"turin","name":"Paseo Principal","category":"ocio","lat":13.976030176364915,"lng":-89.76801845239352,"avgVisitMinutes":40,"estimatedCostEur":18,"score":0.5469201488998521},{"id":"turin_8842","citySlug":"turin","name":"Restaurante Típico de Turín","category":"gastronomia","lat":13.960390917453994,"lng":-89.75937397338343,"avgVisitMinutes":85,"estimatedCostEur":3,"score":2.452374202199101},{"id":"turin_4288","citySlug":"turin","name":"Parque Central","category":"ocio","lat":13.96766412652459,"lng":-89.76723143865739,"avgVisitMinutes":49,"estimatedCostEur":14,"score":1.724093636949343},{"id":"turin_3288","citySlug":"turin","name":"Paseo Principal","category":"ocio","lat":13.969762212156224,"lng":-89.76178577885923,"avgVisitMinutes":58,"estimatedCostEur":6,"score":2.106339509717235},{"id":"turin_1326","citySlug":"turin","name":"Playa Norte","category":"playa","lat":13.961253472151208,"lng":-89.76417795223212,"avgVisitMinutes":58,"estimatedCostEur":25,"score":4.279393711855192},{"id":"turin_3153","citySlug":"turin","name":"Vista Alta de Turín","category":"mirador","lat":13.964008582615541,"lng":-89.77245836832503,"avgVisitMinutes":29,"estimatedCostEur":2,"score":0.8847869524702128},{"id":"turin_2846","citySlug":"turin","name":"Teatro Municipal","category":"cultura","lat":13.971104312438442,"lng":-89.77251685880493,"avgVisitMinutes":49,"estimatedCostEur":21,"score":0.751318065773743},{"id":"turin_9696","citySlug":"turin","name":"Restaurante Típico de Turín","category":"gastronomia","lat":13.975464887312501,"lng":-89.77514120739059,"avgVisitMinutes":64,"estimatedCostEur":8,"score":0.8274586480422023},{"id":"turin_5629","citySlug":"turin","name":"Playa Sur","category":"playa","lat":13.966953690925685,"lng":-89.75660534456499,"avgVisitMinutes":58,"estimatedCostEur":24,"score":4.7701289740839075},{"id":"turin_9433","citySlug":"turin","name":"Paseo Principal","category":"ocio","lat":13.962104248786046,"lng":-89.75887546165528,"avgVisitMinutes":82,"estimatedCostEur":25,"score":0.9200637479133438},{"id":"tonacatepeque_3088","citySlug":"tonacatepeque","name":"Teatro Municipal","category":"cultura","lat":13.78822550706096,"lng":-89.127900551222,"avgVisitMinutes":55,"estimatedCostEur":18,"score":1.8126089062606614},{"id":"tonacatepeque_8227","citySlug":"tonacatepeque","name":"Centro Histórico","category":"historia","lat":13.77646650972232,"lng":-89.12075327969977,"avgVisitMinutes":64,"estimatedCostEur":25,"score":4.127309948660416},{"id":"tonacatepeque_1412","citySlug":"tonacatepeque","name":"Parque Central","category":"ocio","lat":13.781344910752095,"lng":-89.10929652270532,"avgVisitMinutes":53,"estimatedCostEur":15,"score":0.7656044139207763},{"id":"tonacatepeque_3271","citySlug":"tonacatepeque","name":"Iglesia de Tonacatepeque","category":"historia","lat":13.789863004440933,"lng":-89.12115425071201,"avgVisitMinutes":41,"estimatedCostEur":15,"score":2.845030213387727},{"id":"tonacatepeque_7948","citySlug":"tonacatepeque","name":"Centro de Arte de Tonacatepeque","category":"cultura","lat":13.789342707736399,"lng":-89.10862803190004,"avgVisitMinutes":35,"estimatedCostEur":11,"score":2.9047626576802603},{"id":"tonacatepeque_1996","citySlug":"tonacatepeque","name":"Centro Histórico","category":"historia","lat":13.781421697959962,"lng":-89.12776106774443,"avgVisitMinutes":86,"estimatedCostEur":8,"score":0.8600257398837632},{"id":"tonacatepeque_8817","citySlug":"tonacatepeque","name":"Playa Norte","category":"playa","lat":13.775456620629118,"lng":-89.11431259486461,"avgVisitMinutes":57,"estimatedCostEur":2,"score":2.8306909998549203},{"id":"tonacatepeque_6183","citySlug":"tonacatepeque","name":"Teatro Municipal","category":"cultura","lat":13.773941769837808,"lng":-89.10932722904532,"avgVisitMinutes":65,"estimatedCostEur":24,"score":1.842162199850448},{"id":"tonacatepeque_3784","citySlug":"tonacatepeque","name":"Museo Cultural de Tonacatepeque","category":"cultura","lat":13.778084959161369,"lng":-89.12176430422464,"avgVisitMinutes":20,"estimatedCostEur":15,"score":3.3157777597744964},{"id":"tonacatepeque_5194","citySlug":"tonacatepeque","name":"Paseo Principal","category":"ocio","lat":13.77959001300419,"lng":-89.11843591497043,"avgVisitMinutes":74,"estimatedCostEur":17,"score":1.4731595389111884},{"id":"tonacatepeque_4161","citySlug":"tonacatepeque","name":"Centro de Arte de Tonacatepeque","category":"cultura","lat":13.78792891987198,"lng":-89.10986224335018,"avgVisitMinutes":71,"estimatedCostEur":23,"score":2.771611279079255},{"id":"texistepeque_6651","citySlug":"texistepeque","name":"Museo Cultural de Texistepeque","category":"cultura","lat":14.134063494508826,"lng":-89.50785378278609,"avgVisitMinutes":45,"estimatedCostEur":0,"score":3.363472512521532},{"id":"texistepeque_4281","citySlug":"texistepeque","name":"Restaurante Típico de Texistepeque","category":"gastronomia","lat":14.129709484943794,"lng":-89.4991367491523,"avgVisitMinutes":70,"estimatedCostEur":11,"score":2.2377100995395356},{"id":"texistepeque_9350","citySlug":"texistepeque","name":"Mercado Gastronómico","category":"gastronomia","lat":14.128448584053224,"lng":-89.49653173946092,"avgVisitMinutes":30,"estimatedCostEur":18,"score":4.31128997303997},{"id":"texistepeque_9684","citySlug":"texistepeque","name":"Centro Histórico","category":"historia","lat":14.139534371457797,"lng":-89.49815161494534,"avgVisitMinutes":51,"estimatedCostEur":6,"score":1.709613889236424},{"id":"texistepeque_8802","citySlug":"texistepeque","name":"Parque Central","category":"ocio","lat":14.133320405789588,"lng":-89.49460323884041,"avgVisitMinutes":88,"estimatedCostEur":13,"score":3.167950636385102},{"id":"texistepeque_5086","citySlug":"texistepeque","name":"Restaurante Típico de Texistepeque","category":"gastronomia","lat":14.137512214743374,"lng":-89.49375272510036,"avgVisitMinutes":57,"estimatedCostEur":3,"score":1.0067884212322178},{"id":"texistepeque_5336","citySlug":"texistepeque","name":"Mirador de Texistepeque","category":"mirador","lat":14.14110249835277,"lng":-89.49734482596526,"avgVisitMinutes":47,"estimatedCostEur":6,"score":4.8441984080524625},{"id":"texistepeque_5573","citySlug":"texistepeque","name":"Centro Histórico","category":"historia","lat":14.132184141905249,"lng":-89.50526173673569,"avgVisitMinutes":55,"estimatedCostEur":15,"score":0.7472026950908353},{"id":"texistepeque_2100","citySlug":"texistepeque","name":"Mirador de Texistepeque","category":"mirador","lat":14.141947229866794,"lng":-89.50259548074939,"avgVisitMinutes":69,"estimatedCostEur":1,"score":3.631073813392883},{"id":"texistepeque_5520","citySlug":"texistepeque","name":"Murallas de Texistepeque","category":"historia","lat":14.132236182057564,"lng":-89.50621370267953,"avgVisitMinutes":58,"estimatedCostEur":15,"score":2.930437458529015},{"id":"texistepeque_2976","citySlug":"texistepeque","name":"Parque Central","category":"ocio","lat":14.130750063155526,"lng":-89.50803789904589,"avgVisitMinutes":61,"estimatedCostEur":6,"score":3.7932146338784003},{"id":"tenancingo_8152","citySlug":"tenancingo","name":"Parque Central","category":"ocio","lat":13.827500577449323,"lng":-88.9805057372051,"avgVisitMinutes":53,"estimatedCostEur":14,"score":2.1252807645615057},{"id":"tenancingo_3097","citySlug":"tenancingo","name":"Mercado Gastronómico","category":"gastronomia","lat":13.838878569715341,"lng":-88.9911268018652,"avgVisitMinutes":42,"estimatedCostEur":22,"score":2.716070443407247},{"id":"tenancingo_7200","citySlug":"tenancingo","name":"Zona Comercial","category":"ocio","lat":13.833319209047968,"lng":-88.99266830474811,"avgVisitMinutes":39,"estimatedCostEur":0,"score":1.510726731196919},{"id":"tenancingo_3378","citySlug":"tenancingo","name":"Centro de Arte de Tenancingo","category":"cultura","lat":13.84102819417038,"lng":-88.9927989568547,"avgVisitMinutes":36,"estimatedCostEur":1,"score":1.8174859250660134},{"id":"tenancingo_5410","citySlug":"tenancingo","name":"Centro de Arte de Tenancingo","category":"cultura","lat":13.827797401368928,"lng":-88.9809100191431,"avgVisitMinutes":78,"estimatedCostEur":2,"score":1.455512603659709},{"id":"tenancingo_7661","citySlug":"tenancingo","name":"Centro Histórico","category":"historia","lat":13.837293069955727,"lng":-88.98939955312686,"avgVisitMinutes":56,"estimatedCostEur":11,"score":1.5432743505421387},{"id":"tenancingo_8051","citySlug":"tenancingo","name":"Mirador de Tenancingo","category":"mirador","lat":13.826619890186484,"lng":-88.97493132275137,"avgVisitMinutes":65,"estimatedCostEur":22,"score":2.4686693389491405},{"id":"tenancingo_4724","citySlug":"tenancingo","name":"Punto Panorámico","category":"mirador","lat":13.823727853777648,"lng":-88.9816103163732,"avgVisitMinutes":83,"estimatedCostEur":15,"score":4.522016010528939},{"id":"tenancingo_8441","citySlug":"tenancingo","name":"Ruta de Tapas","category":"gastronomia","lat":13.83443684535483,"lng":-88.98337609508437,"avgVisitMinutes":34,"estimatedCostEur":11,"score":4.594727406005297},{"id":"tecoluca_2044","citySlug":"tecoluca","name":"Ruta de Tapas","category":"gastronomia","lat":13.798324884084819,"lng":-89.00679890709185,"avgVisitMinutes":48,"estimatedCostEur":4,"score":4.273535725692685},{"id":"tecoluca_8874","citySlug":"tecoluca","name":"Ruta de Tapas","category":"gastronomia","lat":13.785768013307843,"lng":-88.99936200554946,"avgVisitMinutes":55,"estimatedCostEur":17,"score":1.1766913139316226},{"id":"tecoluca_6810","citySlug":"tecoluca","name":"Restaurante Típico de Tecoluca","category":"gastronomia","lat":13.788962994346083,"lng":-89.01526635540988,"avgVisitMinutes":58,"estimatedCostEur":20,"score":0.7669631839195833},{"id":"tecoluca_5240","citySlug":"tecoluca","name":"Parque Central","category":"ocio","lat":13.798642866320174,"lng":-89.01315388385116,"avgVisitMinutes":80,"estimatedCostEur":19,"score":2.7165696018726693},{"id":"tecoluca_7688","citySlug":"tecoluca","name":"Castillo de Tecoluca","category":"historia","lat":13.788073112277797,"lng":-89.01234648107386,"avgVisitMinutes":31,"estimatedCostEur":25,"score":2.356210259465747},{"id":"tacuba_4165","citySlug":"tacuba","name":"Playa Sur","category":"playa","lat":13.895859896327382,"lng":-89.92971343581904,"avgVisitMinutes":31,"estimatedCostEur":20,"score":0.971986990839744},{"id":"tacuba_3133","citySlug":"tacuba","name":"Playa Central","category":"playa","lat":13.892740876623597,"lng":-89.93539644039474,"avgVisitMinutes":20,"estimatedCostEur":4,"score":0.7184120178104867},{"id":"tacuba_4754","citySlug":"tacuba","name":"Teatro Municipal","category":"cultura","lat":13.89693677654204,"lng":-89.92074107859392,"avgVisitMinutes":87,"estimatedCostEur":6,"score":1.941859339575386},{"id":"tacuba_4011","citySlug":"tacuba","name":"Paseo Principal","category":"ocio","lat":13.891515415778585,"lng":-89.92651405409111,"avgVisitMinutes":65,"estimatedCostEur":22,"score":3.6532192559370884},{"id":"tacuba_5224","citySlug":"tacuba","name":"Punto Panorámico","category":"mirador","lat":13.90234019512945,"lng":-89.93738721025619,"avgVisitMinutes":73,"estimatedCostEur":3,"score":1.584232104097299},{"id":"tacuba_9704","citySlug":"tacuba","name":"Centro Histórico","category":"historia","lat":13.900092638543784,"lng":-89.93887808245076,"avgVisitMinutes":73,"estimatedCostEur":6,"score":1.2853219035172911},{"id":"tacuba_6816","citySlug":"tacuba","name":"Mirador de Tacuba","category":"mirador","lat":13.910201133849355,"lng":-89.92061238839582,"avgVisitMinutes":83,"estimatedCostEur":20,"score":3.9358518216068132},{"id":"tacuba_7416","citySlug":"tacuba","name":"Playa Sur","category":"playa","lat":13.896344197468757,"lng":-89.92812968764106,"avgVisitMinutes":71,"estimatedCostEur":2,"score":1.278801706183292},{"id":"suchitoto_9335","citySlug":"suchitoto","name":"Teatro Municipal","category":"cultura","lat":13.944572422892586,"lng":-89.02861090041279,"avgVisitMinutes":57,"estimatedCostEur":5,"score":2.8627714138123688},{"id":"suchitoto_7544","citySlug":"suchitoto","name":"Galería de Arte","category":"cultura","lat":13.931060535539677,"lng":-89.0233581699063,"avgVisitMinutes":78,"estimatedCostEur":12,"score":4.137734709825626},{"id":"suchitoto_3539","citySlug":"suchitoto","name":"Vista Alta de Suchitoto","category":"mirador","lat":13.94386544119128,"lng":-89.02357044306022,"avgVisitMinutes":32,"estimatedCostEur":20,"score":0.6647181741577716},{"id":"suchitoto_6472","citySlug":"suchitoto","name":"Murallas de Suchitoto","category":"historia","lat":13.937449020783331,"lng":-89.03596672207595,"avgVisitMinutes":57,"estimatedCostEur":3,"score":1.6742732899540234},{"id":"suchitoto_6042","citySlug":"suchitoto","name":"Paseo Principal","category":"ocio","lat":13.930043139275973,"lng":-89.01810805413015,"avgVisitMinutes":29,"estimatedCostEur":6,"score":1.66079736325152},{"id":"suchitoto_1869","citySlug":"suchitoto","name":"Mercado Gastronómico","category":"gastronomia","lat":13.939737493983442,"lng":-89.01883486765176,"avgVisitMinutes":49,"estimatedCostEur":16,"score":1.9491238761132923},{"id":"suchitoto_8890","citySlug":"suchitoto","name":"Playa Norte","category":"playa","lat":13.947843165572564,"lng":-89.03183065414785,"avgVisitMinutes":24,"estimatedCostEur":17,"score":0.6285665475703658},{"id":"soyapango_4220","citySlug":"soyapango","name":"Museo Local de Soyapango","category":"historia","lat":13.708265779022021,"lng":-89.14048971876484,"avgVisitMinutes":27,"estimatedCostEur":12,"score":3.1717716891975267},{"id":"soyapango_6467","citySlug":"soyapango","name":"Ruta de Tapas","category":"gastronomia","lat":13.705813243446148,"lng":-89.1352912518658,"avgVisitMinutes":87,"estimatedCostEur":6,"score":1.1095083748565768},{"id":"soyapango_4262","citySlug":"soyapango","name":"Restaurante Típico de Soyapango","category":"gastronomia","lat":13.70683809052338,"lng":-89.13036939011664,"avgVisitMinutes":66,"estimatedCostEur":6,"score":1.6752485814942042},{"id":"soyapango_6713","citySlug":"soyapango","name":"Mirador de Soyapango","category":"mirador","lat":13.713517802500562,"lng":-89.13043567078694,"avgVisitMinutes":41,"estimatedCostEur":0,"score":4.120606405099852},{"id":"soyapango_2040","citySlug":"soyapango","name":"Playa Sur","category":"playa","lat":13.704690217315449,"lng":-89.13946248890089,"avgVisitMinutes":41,"estimatedCostEur":20,"score":1.3131362273701608},{"id":"soyapango_3514","citySlug":"soyapango","name":"Castillo de Soyapango","category":"historia","lat":13.70951345874509,"lng":-89.1431298888367,"avgVisitMinutes":61,"estimatedCostEur":18,"score":0.9803633672580069},{"id":"soyapango_7591","citySlug":"soyapango","name":"Punto Panorámico","category":"mirador","lat":13.717074725466196,"lng":-89.14797596387267,"avgVisitMinutes":89,"estimatedCostEur":6,"score":3.147693893532624},{"id":"sonzacate_6468","citySlug":"sonzacate","name":"Museo Cultural de Sonzacate","category":"cultura","lat":13.72978463784787,"lng":-89.7219876134094,"avgVisitMinutes":20,"estimatedCostEur":9,"score":4.566029841961875},{"id":"sonzacate_2935","citySlug":"sonzacate","name":"Playa Central","category":"playa","lat":13.728826711867486,"lng":-89.7216573240786,"avgVisitMinutes":21,"estimatedCostEur":6,"score":0.9493139979314158},{"id":"sonzacate_6919","citySlug":"sonzacate","name":"Galería de Arte","category":"cultura","lat":13.742430411869078,"lng":-89.70835352125926,"avgVisitMinutes":74,"estimatedCostEur":19,"score":3.0455713535481763},{"id":"sonzacate_2058","citySlug":"sonzacate","name":"Castillo de Sonzacate","category":"historia","lat":13.731265412013531,"lng":-89.70570133699403,"avgVisitMinutes":61,"estimatedCostEur":24,"score":3.0940740875609376},{"id":"sonzacate_8573","citySlug":"sonzacate","name":"Playa Norte","category":"playa","lat":13.72890709755898,"lng":-89.72067762833463,"avgVisitMinutes":54,"estimatedCostEur":24,"score":4.579549677311393},{"id":"sonzacate_2842","citySlug":"sonzacate","name":"Playa Central","category":"playa","lat":13.73550490558387,"lng":-89.70772729536561,"avgVisitMinutes":36,"estimatedCostEur":7,"score":4.710069030926599},{"id":"sonzacate_8839","citySlug":"sonzacate","name":"Restaurante Típico de Sonzacate","category":"gastronomia","lat":13.733075194741087,"lng":-89.7076199998375,"avgVisitMinutes":89,"estimatedCostEur":15,"score":0.9995226972784572},{"id":"sonzacate_7780","citySlug":"sonzacate","name":"Murallas de Sonzacate","category":"historia","lat":13.738186153008703,"lng":-89.7058947109843,"avgVisitMinutes":85,"estimatedCostEur":19,"score":2.761094499119998},{"id":"sonzacate_3460","citySlug":"sonzacate","name":"Playa Norte","category":"playa","lat":13.725563956668713,"lng":-89.70980363642788,"avgVisitMinutes":23,"estimatedCostEur":23,"score":1.643369939687466},{"id":"sonsonate_2047","citySlug":"sonsonate","name":"Centro Histórico","category":"historia","lat":13.717924170309777,"lng":-89.7191096173422,"avgVisitMinutes":22,"estimatedCostEur":9,"score":3.379936548204172},{"id":"sonsonate_7462","citySlug":"sonsonate","name":"Centro Histórico","category":"historia","lat":13.716847507853101,"lng":-89.72709412576012,"avgVisitMinutes":22,"estimatedCostEur":6,"score":4.156618168814864},{"id":"sonsonate_4583","citySlug":"sonsonate","name":"Playa Norte","category":"playa","lat":13.722842717023653,"lng":-89.71319844764287,"avgVisitMinutes":26,"estimatedCostEur":4,"score":3.409016760638309},{"id":"sonsonate_5859","citySlug":"sonsonate","name":"Paseo Principal","category":"ocio","lat":13.715678184882258,"lng":-89.73025862275523,"avgVisitMinutes":34,"estimatedCostEur":11,"score":4.094882661645821},{"id":"sonsonate_9853","citySlug":"sonsonate","name":"Teatro Municipal","category":"cultura","lat":13.724688148634655,"lng":-89.72255435485448,"avgVisitMinutes":72,"estimatedCostEur":9,"score":1.7455587169082316},{"id":"sonsonate_9809","citySlug":"sonsonate","name":"Galería de Arte","category":"cultura","lat":13.722203802205591,"lng":-89.7246205219682,"avgVisitMinutes":29,"estimatedCostEur":0,"score":4.309733244781437},{"id":"sonsonate_6885","citySlug":"sonsonate","name":"Centro de Arte de Sonsonate","category":"cultura","lat":13.725767628342556,"lng":-89.73086792988778,"avgVisitMinutes":37,"estimatedCostEur":12,"score":1.1059824272485972},{"id":"sonsonate_8026","citySlug":"sonsonate","name":"Vista Alta de Sonsonate","category":"mirador","lat":13.722214215315239,"lng":-89.72164170837802,"avgVisitMinutes":85,"estimatedCostEur":21,"score":3.5967755009336337},{"id":"sonsonate_1198","citySlug":"sonsonate","name":"Centro Histórico","category":"historia","lat":13.722006464615063,"lng":-89.72950046667354,"avgVisitMinutes":40,"estimatedCostEur":2,"score":0.6701106333947915},{"id":"sociedad_7123","citySlug":"sociedad","name":"Teatro Municipal","category":"cultura","lat":13.701417089468707,"lng":-88.02272777060338,"avgVisitMinutes":86,"estimatedCostEur":7,"score":3.2170277244115835},{"id":"sociedad_7928","citySlug":"sociedad","name":"Galería de Arte","category":"cultura","lat":13.702609231565766,"lng":-88.00776965706561,"avgVisitMinutes":73,"estimatedCostEur":3,"score":3.7212611620068716},{"id":"sociedad_4136","citySlug":"sociedad","name":"Mirador de Sociedad","category":"mirador","lat":13.694375595110838,"lng":-88.01057292100289,"avgVisitMinutes":85,"estimatedCostEur":1,"score":3.221846402256174},{"id":"sociedad_8900","citySlug":"sociedad","name":"Punto Panorámico","category":"mirador","lat":13.698093963955941,"lng":-88.01401452581524,"avgVisitMinutes":37,"estimatedCostEur":17,"score":2.71481437377642},{"id":"sociedad_4593","citySlug":"sociedad","name":"Paseo Principal","category":"ocio","lat":13.708163180951257,"lng":-88.009463916472,"avgVisitMinutes":67,"estimatedCostEur":8,"score":3.5726864941800027},{"id":"sociedad_8906","citySlug":"sociedad","name":"Playa Central","category":"playa","lat":13.691434993712887,"lng":-88.0099732577519,"avgVisitMinutes":63,"estimatedCostEur":14,"score":1.5308554665498415},{"id":"sociedad_9422","citySlug":"sociedad","name":"Parque Central","category":"ocio","lat":13.704755527284574,"lng":-88.02489743822669,"avgVisitMinutes":49,"estimatedCostEur":14,"score":4.83908695344275},{"id":"sociedad_4186","citySlug":"sociedad","name":"Parque Central","category":"ocio","lat":13.697886767926839,"lng":-88.0088602130788,"avgVisitMinutes":24,"estimatedCostEur":5,"score":1.423244742774278},{"id":"sociedad_2364","citySlug":"sociedad","name":"Restaurante Típico de Sociedad","category":"gastronomia","lat":13.702032864441067,"lng":-88.02288393641908,"avgVisitMinutes":26,"estimatedCostEur":13,"score":3.3918951076883443},{"id":"sociedad_5069","citySlug":"sociedad","name":"Restaurante Típico de Sociedad","category":"gastronomia","lat":13.691602886435984,"lng":-88.01071370914961,"avgVisitMinutes":70,"estimatedCostEur":8,"score":3.788237545323686},{"id":"sociedad_6563","citySlug":"sociedad","name":"Teatro Municipal","category":"cultura","lat":13.69885125725527,"lng":-88.02032161050752,"avgVisitMinutes":30,"estimatedCostEur":19,"score":2.0722630235886323},{"id":"sociedad_9214","citySlug":"sociedad","name":"Vista Alta de Sociedad","category":"mirador","lat":13.694748619021105,"lng":-88.00777313332246,"avgVisitMinutes":48,"estimatedCostEur":5,"score":3.207272683961815},{"id":"sesori_3000","citySlug":"sesori","name":"Restaurante Típico de Sesori","category":"gastronomia","lat":13.722160146067496,"lng":-88.3649976688427,"avgVisitMinutes":41,"estimatedCostEur":6,"score":3.4902839457574673},{"id":"sesori_2888","citySlug":"sesori","name":"Playa Sur","category":"playa","lat":13.723289386003149,"lng":-88.36518339471982,"avgVisitMinutes":34,"estimatedCostEur":8,"score":4.48320392769357},{"id":"sesori_9853","citySlug":"sesori","name":"Mirador de Sesori","category":"mirador","lat":13.722871553518038,"lng":-88.3624525354983,"avgVisitMinutes":46,"estimatedCostEur":21,"score":3.422551010716243},{"id":"sesori_8853","citySlug":"sesori","name":"Mirador de Sesori","category":"mirador","lat":13.7170050818565,"lng":-88.36616829996484,"avgVisitMinutes":89,"estimatedCostEur":5,"score":2.299602612509277},{"id":"sesori_4556","citySlug":"sesori","name":"Museo Local de Sesori","category":"historia","lat":13.712071057982294,"lng":-88.3614794667047,"avgVisitMinutes":78,"estimatedCostEur":3,"score":0.7306831828965272},{"id":"sesori_7239","citySlug":"sesori","name":"Centro Histórico","category":"historia","lat":13.70838241238449,"lng":-88.37380946885422,"avgVisitMinutes":56,"estimatedCostEur":5,"score":3.1755275623943557},{"id":"sesori_4162","citySlug":"sesori","name":"Vista Alta de Sesori","category":"mirador","lat":13.713048104343235,"lng":-88.36552480402864,"avgVisitMinutes":40,"estimatedCostEur":10,"score":4.703432509599759},{"id":"sesori_8727","citySlug":"sesori","name":"Galería de Arte","category":"cultura","lat":13.725751408595897,"lng":-88.36365160798913,"avgVisitMinutes":20,"estimatedCostEur":9,"score":4.932146769804918},{"id":"sesori_1073","citySlug":"sesori","name":"Playa Norte","category":"playa","lat":13.714679396411636,"lng":-88.3705252821185,"avgVisitMinutes":57,"estimatedCostEur":16,"score":0.7538299075389584},{"id":"sesori_5155","citySlug":"sesori","name":"Playa Sur","category":"playa","lat":13.72027386997173,"lng":-88.36797484671602,"avgVisitMinutes":84,"estimatedCostEur":11,"score":3.3686710714811787},{"id":"sensuntepeque_5892","citySlug":"sensuntepeque","name":"Zona Comercial","category":"ocio","lat":13.885115267389727,"lng":-88.61846521803042,"avgVisitMinutes":57,"estimatedCostEur":12,"score":3.7356184734348052},{"id":"sensuntepeque_1779","citySlug":"sensuntepeque","name":"Museo Local de Sensuntepeque","category":"historia","lat":13.868950085691269,"lng":-88.62204722848581,"avgVisitMinutes":21,"estimatedCostEur":20,"score":1.4861255978535581},{"id":"sensuntepeque_3905","citySlug":"sensuntepeque","name":"Teatro Municipal","category":"cultura","lat":13.867921663964605,"lng":-88.62104881905006,"avgVisitMinutes":88,"estimatedCostEur":24,"score":1.8768137814748171},{"id":"sensuntepeque_4481","citySlug":"sensuntepeque","name":"Mercado Gastronómico","category":"gastronomia","lat":13.87835755130332,"lng":-88.63190504265013,"avgVisitMinutes":38,"estimatedCostEur":11,"score":4.833809673879919},{"id":"sensuntepeque_8062","citySlug":"sensuntepeque","name":"Paseo Principal","category":"ocio","lat":13.88133957069699,"lng":-88.62205956268566,"avgVisitMinutes":88,"estimatedCostEur":8,"score":3.5445122225843066},{"id":"sensuntepeque_9745","citySlug":"sensuntepeque","name":"Ruta de Tapas","category":"gastronomia","lat":13.867090650994529,"lng":-88.63356692624127,"avgVisitMinutes":33,"estimatedCostEur":14,"score":4.7601847916839635},{"id":"san-vicente_8822","citySlug":"san-vicente","name":"Playa Norte","category":"playa","lat":13.636429259780092,"lng":-88.79050283302315,"avgVisitMinutes":36,"estimatedCostEur":12,"score":1.2029421792111068},{"id":"san-vicente_7820","citySlug":"san-vicente","name":"Iglesia de San Vicente","category":"historia","lat":13.651003044232803,"lng":-88.79297858561068,"avgVisitMinutes":35,"estimatedCostEur":4,"score":4.776906553344218},{"id":"san-vicente_6927","citySlug":"san-vicente","name":"Zona Comercial","category":"ocio","lat":13.636460039868522,"lng":-88.78841042142035,"avgVisitMinutes":85,"estimatedCostEur":23,"score":1.431155084967518},{"id":"san-vicente_6265","citySlug":"san-vicente","name":"Playa Norte","category":"playa","lat":13.63305013548702,"lng":-88.77679594404711,"avgVisitMinutes":82,"estimatedCostEur":21,"score":4.2733754974473275},{"id":"san-vicente_8087","citySlug":"san-vicente","name":"Playa Sur","category":"playa","lat":13.639439545264421,"lng":-88.7751123304162,"avgVisitMinutes":26,"estimatedCostEur":4,"score":1.9046078172194274},{"id":"san-vicente_8412","citySlug":"san-vicente","name":"Ruta de Tapas","category":"gastronomia","lat":13.638715236854086,"lng":-88.78254299865279,"avgVisitMinutes":55,"estimatedCostEur":3,"score":4.42501017159115},{"id":"santo-tomas_3025","citySlug":"santo-tomas","name":"Playa Sur","category":"playa","lat":13.640879006560061,"lng":-89.132845664164,"avgVisitMinutes":37,"estimatedCostEur":21,"score":4.878525772045296},{"id":"santo-tomas_8928","citySlug":"santo-tomas","name":"Paseo Principal","category":"ocio","lat":13.643969120772589,"lng":-89.12490950799936,"avgVisitMinutes":86,"estimatedCostEur":25,"score":2.340757427727782},{"id":"santo-tomas_9743","citySlug":"santo-tomas","name":"Vista Alta de Santo Tomás","category":"mirador","lat":13.640103029361967,"lng":-89.1292971976461,"avgVisitMinutes":33,"estimatedCostEur":14,"score":4.013762518027847},{"id":"santo-tomas_4585","citySlug":"santo-tomas","name":"Mercado Gastronómico","category":"gastronomia","lat":13.642409978638819,"lng":-89.12398938103095,"avgVisitMinutes":83,"estimatedCostEur":10,"score":1.2529821095427858},{"id":"santo-tomas_1712","citySlug":"santo-tomas","name":"Paseo Principal","category":"ocio","lat":13.647962258184467,"lng":-89.14312975668086,"avgVisitMinutes":56,"estimatedCostEur":11,"score":4.182392649896398},{"id":"santo-tomas_1941","citySlug":"santo-tomas","name":"Zona Comercial","category":"ocio","lat":13.636610408683012,"lng":-89.13063592919683,"avgVisitMinutes":47,"estimatedCostEur":2,"score":3.4525296887793577},{"id":"santo-tomas_2552","citySlug":"santo-tomas","name":"Playa Norte","category":"playa","lat":13.647988201848902,"lng":-89.13136337914537,"avgVisitMinutes":63,"estimatedCostEur":12,"score":3.9391890424581906},{"id":"santo-tomas_4277","citySlug":"santo-tomas","name":"Punto Panorámico","category":"mirador","lat":13.645965390555272,"lng":-89.13161800714317,"avgVisitMinutes":89,"estimatedCostEur":12,"score":4.577331574272084},{"id":"santo-tomas_6852","citySlug":"santo-tomas","name":"Ruta de Tapas","category":"gastronomia","lat":13.636253342843586,"lng":-89.13970644988781,"avgVisitMinutes":48,"estimatedCostEur":1,"score":1.384229582616478},{"id":"santo-tomas_4739","citySlug":"santo-tomas","name":"Mercado Gastronómico","category":"gastronomia","lat":13.645593983282986,"lng":-89.13265571149633,"avgVisitMinutes":47,"estimatedCostEur":10,"score":1.9493749022761617},{"id":"santo-tomas_9014","citySlug":"santo-tomas","name":"Playa Sur","category":"playa","lat":13.649144454005834,"lng":-89.12424195036942,"avgVisitMinutes":53,"estimatedCostEur":14,"score":4.595511674783164},{"id":"santo-tomas_2054","citySlug":"santo-tomas","name":"Playa Sur","category":"playa","lat":13.632573602600432,"lng":-89.13054915459585,"avgVisitMinutes":69,"estimatedCostEur":21,"score":2.594355682504357},{"id":"santiago-nonualco_4531","citySlug":"santiago-nonualco","name":"Parque Central","category":"ocio","lat":13.516525106793152,"lng":-88.94182219818511,"avgVisitMinutes":52,"estimatedCostEur":2,"score":2.5464460436053202},{"id":"santiago-nonualco_7744","citySlug":"santiago-nonualco","name":"Castillo de Santiago Nonualco","category":"historia","lat":13.517250808160496,"lng":-88.95470992952951,"avgVisitMinutes":22,"estimatedCostEur":9,"score":4.192483778579284},{"id":"santiago-nonualco_6101","citySlug":"santiago-nonualco","name":"Mercado Gastronómico","category":"gastronomia","lat":13.50814344307846,"lng":-88.94417080731323,"avgVisitMinutes":42,"estimatedCostEur":20,"score":1.1559057092287692},{"id":"santiago-nonualco_3699","citySlug":"santiago-nonualco","name":"Zona Comercial","category":"ocio","lat":13.526010879022982,"lng":-88.9567389855081,"avgVisitMinutes":62,"estimatedCostEur":8,"score":0.8088592968184964},{"id":"santiago-nonualco_6173","citySlug":"santiago-nonualco","name":"Parque Central","category":"ocio","lat":13.517542680552685,"lng":-88.95069557797743,"avgVisitMinutes":47,"estimatedCostEur":20,"score":1.141786380069498},{"id":"santiago-nonualco_9388","citySlug":"santiago-nonualco","name":"Playa Sur","category":"playa","lat":13.520560234033397,"lng":-88.9552963676373,"avgVisitMinutes":44,"estimatedCostEur":3,"score":3.52491025385147},{"id":"santiago-nonualco_8764","citySlug":"santiago-nonualco","name":"Mirador de Santiago Nonualco","category":"mirador","lat":13.511998058331722,"lng":-88.95688216206896,"avgVisitMinutes":58,"estimatedCostEur":23,"score":0.6849749331261743},{"id":"santiago-nonualco_5738","citySlug":"santiago-nonualco","name":"Teatro Municipal","category":"cultura","lat":13.511696490508264,"lng":-88.95579175911021,"avgVisitMinutes":53,"estimatedCostEur":0,"score":3.9806907909781923},{"id":"santiago-nonualco_7920","citySlug":"santiago-nonualco","name":"Mirador de Santiago Nonualco","category":"mirador","lat":13.525063641188574,"lng":-88.94390990589238,"avgVisitMinutes":88,"estimatedCostEur":21,"score":2.895677657380888},{"id":"santiago-nonualco_8578","citySlug":"santiago-nonualco","name":"Punto Panorámico","category":"mirador","lat":13.516980385193154,"lng":-88.94432096563443,"avgVisitMinutes":34,"estimatedCostEur":16,"score":2.940940469495449},{"id":"santiago-nonualco_3074","citySlug":"santiago-nonualco","name":"Zona Comercial","category":"ocio","lat":13.512670121502845,"lng":-88.9449907425245,"avgVisitMinutes":30,"estimatedCostEur":16,"score":4.621475233606693},{"id":"santiago-de-maria_7382","citySlug":"santiago-de-maria","name":"Iglesia de Santiago de María","category":"historia","lat":13.473829911382133,"lng":-88.4600626509372,"avgVisitMinutes":60,"estimatedCostEur":10,"score":4.933775315769912},{"id":"santiago-de-maria_2079","citySlug":"santiago-de-maria","name":"Teatro Municipal","category":"cultura","lat":13.48981899056626,"lng":-88.46638394465712,"avgVisitMinutes":86,"estimatedCostEur":22,"score":1.4521836620536397},{"id":"santiago-de-maria_4095","citySlug":"santiago-de-maria","name":"Playa Central","category":"playa","lat":13.490069561812174,"lng":-88.46346881161611,"avgVisitMinutes":41,"estimatedCostEur":2,"score":4.584091152543363},{"id":"santiago-de-maria_6755","citySlug":"santiago-de-maria","name":"Iglesia de Santiago de María","category":"historia","lat":13.475410743441987,"lng":-88.46590673953843,"avgVisitMinutes":62,"estimatedCostEur":22,"score":0.705527553678214},{"id":"santiago-de-maria_5163","citySlug":"santiago-de-maria","name":"Vista Alta de Santiago de María","category":"mirador","lat":13.484982303520898,"lng":-88.46271356409542,"avgVisitMinutes":58,"estimatedCostEur":24,"score":1.4030691396684254},{"id":"santiago-de-maria_3208","citySlug":"santiago-de-maria","name":"Centro de Arte de Santiago de María","category":"cultura","lat":13.48042271906593,"lng":-88.46573692791232,"avgVisitMinutes":23,"estimatedCostEur":22,"score":3.5394707630279374},{"id":"santiago-de-maria_1231","citySlug":"santiago-de-maria","name":"Playa Central","category":"playa","lat":13.476719604221817,"lng":-88.46000864196736,"avgVisitMinutes":54,"estimatedCostEur":12,"score":4.473533793535409},{"id":"santiago-de-maria_1794","citySlug":"santiago-de-maria","name":"Murallas de Santiago de María","category":"historia","lat":13.481776729231942,"lng":-88.47526140228081,"avgVisitMinutes":21,"estimatedCostEur":6,"score":0.8660359672360212},{"id":"santiago-de-maria_7331","citySlug":"santiago-de-maria","name":"Ruta de Tapas","category":"gastronomia","lat":13.479306002354797,"lng":-88.47370246217163,"avgVisitMinutes":60,"estimatedCostEur":23,"score":4.007726714966697},{"id":"santa-rosa-de-lima_5893","citySlug":"santa-rosa-de-lima","name":"Vista Alta de Santa Rosa de Lima","category":"mirador","lat":13.622317134781927,"lng":-87.88729695000167,"avgVisitMinutes":82,"estimatedCostEur":1,"score":2.12166393640937},{"id":"santa-rosa-de-lima_1631","citySlug":"santa-rosa-de-lima","name":"Iglesia de Santa Rosa de Lima","category":"historia","lat":13.614783691612827,"lng":-87.9026472309196,"avgVisitMinutes":61,"estimatedCostEur":2,"score":4.430188512364078},{"id":"santa-rosa-de-lima_9742","citySlug":"santa-rosa-de-lima","name":"Galería de Arte","category":"cultura","lat":13.618681749796249,"lng":-87.90308129962229,"avgVisitMinutes":82,"estimatedCostEur":13,"score":4.702153947835755},{"id":"santa-rosa-de-lima_9630","citySlug":"santa-rosa-de-lima","name":"Zona Comercial","category":"ocio","lat":13.630490415319057,"lng":-87.89325877623068,"avgVisitMinutes":40,"estimatedCostEur":9,"score":3.437378833051725},{"id":"santa-rosa-de-lima_1153","citySlug":"santa-rosa-de-lima","name":"Playa Norte","category":"playa","lat":13.616963686345818,"lng":-87.89625976941473,"avgVisitMinutes":89,"estimatedCostEur":18,"score":2.3459021841700873},{"id":"santa-rosa-de-lima_3723","citySlug":"santa-rosa-de-lima","name":"Playa Central","category":"playa","lat":13.633006552670492,"lng":-87.89416198474589,"avgVisitMinutes":56,"estimatedCostEur":4,"score":1.0025931882482506},{"id":"santa-elena_1834","citySlug":"santa-elena","name":"Paseo Principal","category":"ocio","lat":13.386797753973521,"lng":-88.42427732807677,"avgVisitMinutes":63,"estimatedCostEur":18,"score":4.914992564962752},{"id":"santa-elena_2490","citySlug":"santa-elena","name":"Ruta de Tapas","category":"gastronomia","lat":13.380242958558124,"lng":-88.42635771609817,"avgVisitMinutes":83,"estimatedCostEur":13,"score":4.754230898199559},{"id":"santa-elena_9939","citySlug":"santa-elena","name":"Paseo Principal","category":"ocio","lat":13.390273943429198,"lng":-88.40898444490175,"avgVisitMinutes":56,"estimatedCostEur":7,"score":4.103861381065246},{"id":"santa-elena_1484","citySlug":"santa-elena","name":"Mercado Gastronómico","category":"gastronomia","lat":13.375379241865085,"lng":-88.42416176559868,"avgVisitMinutes":45,"estimatedCostEur":4,"score":1.7694205986439349},{"id":"santa-elena_4946","citySlug":"santa-elena","name":"Paseo Principal","category":"ocio","lat":13.387955006969815,"lng":-88.4129068251437,"avgVisitMinutes":49,"estimatedCostEur":25,"score":4.699208166730442},{"id":"santa-elena_7764","citySlug":"santa-elena","name":"Mercado Gastronómico","category":"gastronomia","lat":13.381806214547137,"lng":-88.41518637394711,"avgVisitMinutes":52,"estimatedCostEur":9,"score":1.4372405349123638},{"id":"santa-ana_7291","citySlug":"santa-ana","name":"Galería de Arte","category":"cultura","lat":13.993176026097675,"lng":-89.5480561296438,"avgVisitMinutes":89,"estimatedCostEur":6,"score":1.3413958936331765},{"id":"santa-ana_5099","citySlug":"santa-ana","name":"Teatro Municipal","category":"cultura","lat":13.98547310773278,"lng":-89.55070635303642,"avgVisitMinutes":45,"estimatedCostEur":0,"score":2.9671661457672713},{"id":"santa-ana_3506","citySlug":"santa-ana","name":"Castillo de Santa Ana","category":"historia","lat":13.988099358508768,"lng":-89.55595253118426,"avgVisitMinutes":70,"estimatedCostEur":22,"score":3.9278074236073097},{"id":"santa-ana_3978","citySlug":"santa-ana","name":"Restaurante Típico de Santa Ana","category":"gastronomia","lat":13.997377757340693,"lng":-89.55408728823122,"avgVisitMinutes":37,"estimatedCostEur":16,"score":2.301314345948663},{"id":"santa-ana_1960","citySlug":"santa-ana","name":"Mirador de Santa Ana","category":"mirador","lat":13.984537336948751,"lng":-89.55637602353798,"avgVisitMinutes":39,"estimatedCostEur":19,"score":3.609303274820303},{"id":"santa-ana_1007","citySlug":"santa-ana","name":"Mercado Gastronómico","category":"gastronomia","lat":13.981124532952583,"lng":-89.55057022686934,"avgVisitMinutes":60,"estimatedCostEur":19,"score":1.0620502551700377},{"id":"santa-ana_5691","citySlug":"santa-ana","name":"Castillo de Santa Ana","category":"historia","lat":13.984336164271859,"lng":-89.55503970784392,"avgVisitMinutes":59,"estimatedCostEur":14,"score":4.3418604586191325},{"id":"santa-ana_6148","citySlug":"santa-ana","name":"Playa Norte","category":"playa","lat":13.993619945534226,"lng":-89.55724375737907,"avgVisitMinutes":52,"estimatedCostEur":25,"score":4.798946374139549},{"id":"santa-ana_2275","citySlug":"santa-ana","name":"Mirador de Santa Ana","category":"mirador","lat":13.996261556208385,"lng":-89.55933114444137,"avgVisitMinutes":69,"estimatedCostEur":7,"score":1.3446179156448437},{"id":"santa-ana_7551","citySlug":"santa-ana","name":"Centro de Arte de Santa Ana","category":"cultura","lat":13.994666993306954,"lng":-89.54973530511009,"avgVisitMinutes":68,"estimatedCostEur":19,"score":4.58160238341085},{"id":"san-sebastian_3735","citySlug":"san-sebastian","name":"Mirador de San Sebastián","category":"mirador","lat":13.726400156341919,"lng":-88.83757446837772,"avgVisitMinutes":57,"estimatedCostEur":15,"score":4.053514563153502},{"id":"san-sebastian_5637","citySlug":"san-sebastian","name":"Ruta de Tapas","category":"gastronomia","lat":13.735752208646954,"lng":-88.83356226609544,"avgVisitMinutes":74,"estimatedCostEur":23,"score":3.12566329068691},{"id":"san-sebastian_4892","citySlug":"san-sebastian","name":"Restaurante Típico de San Sebastián","category":"gastronomia","lat":13.723467303106606,"lng":-88.84146452534976,"avgVisitMinutes":28,"estimatedCostEur":1,"score":4.578293619843374},{"id":"san-sebastian_7932","citySlug":"san-sebastian","name":"Vista Alta de San Sebastián","category":"mirador","lat":13.73113543763746,"lng":-88.82845019894101,"avgVisitMinutes":39,"estimatedCostEur":21,"score":4.441475420008784},{"id":"san-sebastian_6604","citySlug":"san-sebastian","name":"Galería de Arte","category":"cultura","lat":13.732253750413408,"lng":-88.83606837039876,"avgVisitMinutes":64,"estimatedCostEur":10,"score":0.5119263938231675},{"id":"san-salvador_8338","citySlug":"san-salvador","name":"Mirador de San Salvador","category":"mirador","lat":13.683409203794733,"lng":-89.17912974360232,"avgVisitMinutes":71,"estimatedCostEur":24,"score":3.429613567699473},{"id":"san-salvador_6732","citySlug":"san-salvador","name":"Vista Alta de San Salvador","category":"mirador","lat":13.6985675832145,"lng":-89.19356367603505,"avgVisitMinutes":21,"estimatedCostEur":19,"score":1.879090278246868},{"id":"san-salvador_5159","citySlug":"san-salvador","name":"Playa Central","category":"playa","lat":13.693480566961462,"lng":-89.1941743177479,"avgVisitMinutes":77,"estimatedCostEur":16,"score":2.297629133754313},{"id":"san-salvador_1831","citySlug":"san-salvador","name":"Murallas de San Salvador","category":"historia","lat":13.695457321324314,"lng":-89.19173671640313,"avgVisitMinutes":41,"estimatedCostEur":16,"score":2.5543698416447214},{"id":"san-salvador_8457","citySlug":"san-salvador","name":"Museo Local de San Salvador","category":"historia","lat":13.693595518644225,"lng":-89.1816958939328,"avgVisitMinutes":57,"estimatedCostEur":24,"score":2.0831771890919653},{"id":"san-rafael-oriente_6422","citySlug":"san-rafael-oriente","name":"Restaurante Típico de San Rafael Oriente","category":"gastronomia","lat":13.383286964841894,"lng":-88.34321356350007,"avgVisitMinutes":30,"estimatedCostEur":20,"score":3.397802840622288},{"id":"san-rafael-oriente_5858","citySlug":"san-rafael-oriente","name":"Mercado Gastronómico","category":"gastronomia","lat":13.376316791776288,"lng":-88.34090076443027,"avgVisitMinutes":36,"estimatedCostEur":5,"score":2.9672390585199944},{"id":"san-rafael-oriente_4231","citySlug":"san-rafael-oriente","name":"Castillo de San Rafael Oriente","category":"historia","lat":13.38978796513002,"lng":-88.3555589784379,"avgVisitMinutes":88,"estimatedCostEur":20,"score":3.6870434961093568},{"id":"san-rafael-oriente_1972","citySlug":"san-rafael-oriente","name":"Playa Central","category":"playa","lat":13.391612746168077,"lng":-88.35852860484486,"avgVisitMinutes":64,"estimatedCostEur":14,"score":4.692211129183082},{"id":"san-rafael-oriente_2225","citySlug":"san-rafael-oriente","name":"Restaurante Típico de San Rafael Oriente","category":"gastronomia","lat":13.376328538070075,"lng":-88.34771441740965,"avgVisitMinutes":46,"estimatedCostEur":5,"score":3.640712707571316},{"id":"san-rafael-oriente_8763","citySlug":"san-rafael-oriente","name":"Punto Panorámico","category":"mirador","lat":13.386760411371572,"lng":-88.34166459945834,"avgVisitMinutes":62,"estimatedCostEur":21,"score":4.635218789865175},{"id":"san-pedro-masahuat_8445","citySlug":"san-pedro-masahuat","name":"Murallas de San Pedro Masahuat","category":"historia","lat":13.538236161723646,"lng":-89.03783925160417,"avgVisitMinutes":90,"estimatedCostEur":5,"score":4.389427139851465},{"id":"san-pedro-masahuat_3644","citySlug":"san-pedro-masahuat","name":"Restaurante Típico de San Pedro Masahuat","category":"gastronomia","lat":13.551401399638841,"lng":-89.04155629917238,"avgVisitMinutes":51,"estimatedCostEur":12,"score":1.5410242503291784},{"id":"san-pedro-masahuat_9100","citySlug":"san-pedro-masahuat","name":"Playa Central","category":"playa","lat":13.548209549101124,"lng":-89.04256371223572,"avgVisitMinutes":88,"estimatedCostEur":20,"score":4.731799806205233},{"id":"san-pedro-masahuat_2570","citySlug":"san-pedro-masahuat","name":"Murallas de San Pedro Masahuat","category":"historia","lat":13.539804568606547,"lng":-89.03648987936717,"avgVisitMinutes":20,"estimatedCostEur":10,"score":0.5700312666417886},{"id":"san-pedro-masahuat_5128","citySlug":"san-pedro-masahuat","name":"Teatro Municipal","category":"cultura","lat":13.540038441045821,"lng":-89.03005348794213,"avgVisitMinutes":46,"estimatedCostEur":11,"score":2.7973870592240297},{"id":"san-pablo-tacachico_8063","citySlug":"san-pablo-tacachico","name":"Restaurante Típico de San Pablo Tacachico","category":"gastronomia","lat":13.9681096784401,"lng":-89.33219691011524,"avgVisitMinutes":38,"estimatedCostEur":18,"score":1.0574147062675974},{"id":"san-pablo-tacachico_3646","citySlug":"san-pablo-tacachico","name":"Mercado Gastronómico","category":"gastronomia","lat":13.985317643851229,"lng":-89.34416269640407,"avgVisitMinutes":20,"estimatedCostEur":24,"score":1.6553231950675908},{"id":"san-pablo-tacachico_2681","citySlug":"san-pablo-tacachico","name":"Mirador de San Pablo Tacachico","category":"mirador","lat":13.981441001812467,"lng":-89.3488818321072,"avgVisitMinutes":37,"estimatedCostEur":0,"score":4.441421087075221},{"id":"san-pablo-tacachico_7849","citySlug":"san-pablo-tacachico","name":"Mirador de San Pablo Tacachico","category":"mirador","lat":13.984021017738403,"lng":-89.34336667926286,"avgVisitMinutes":67,"estimatedCostEur":18,"score":2.8498723077203048},{"id":"san-pablo-tacachico_9298","citySlug":"san-pablo-tacachico","name":"Museo Cultural de San Pablo Tacachico","category":"cultura","lat":13.98108600257218,"lng":-89.34405039087535,"avgVisitMinutes":75,"estimatedCostEur":23,"score":2.96122848809776},{"id":"san-miguel_1352","citySlug":"san-miguel","name":"Playa Central","category":"playa","lat":13.491884061728305,"lng":-88.18260785633146,"avgVisitMinutes":20,"estimatedCostEur":16,"score":1.060913112152801},{"id":"san-miguel_7526","citySlug":"san-miguel","name":"Teatro Municipal","category":"cultura","lat":13.486297337043407,"lng":-88.17455947623223,"avgVisitMinutes":72,"estimatedCostEur":25,"score":1.5155500169733487},{"id":"san-miguel_5037","citySlug":"san-miguel","name":"Galería de Arte","category":"cultura","lat":13.47739245614584,"lng":-88.1847373742819,"avgVisitMinutes":90,"estimatedCostEur":8,"score":2.8082720475432863},{"id":"san-miguel_1966","citySlug":"san-miguel","name":"Parque Central","category":"ocio","lat":13.479208413951008,"lng":-88.1751560393053,"avgVisitMinutes":76,"estimatedCostEur":1,"score":1.8534881234494551},{"id":"san-miguel_1636","citySlug":"san-miguel","name":"Parque Central","category":"ocio","lat":13.480100932157105,"lng":-88.18328524815472,"avgVisitMinutes":71,"estimatedCostEur":10,"score":2.7417178508729805},{"id":"san-miguel_5367","citySlug":"san-miguel","name":"Museo Cultural de San Miguel","category":"cultura","lat":13.491700372530808,"lng":-88.17369387908359,"avgVisitMinutes":48,"estimatedCostEur":6,"score":1.596950595266802},{"id":"san-miguel_1007","citySlug":"san-miguel","name":"Ruta de Tapas","category":"gastronomia","lat":13.474443939660235,"lng":-88.17285031613429,"avgVisitMinutes":51,"estimatedCostEur":6,"score":3.122986658836215},{"id":"san-martin_7743","citySlug":"san-martin","name":"Playa Central","category":"playa","lat":13.78697363854687,"lng":-88.91956320055053,"avgVisitMinutes":82,"estimatedCostEur":24,"score":2.058893234408143},{"id":"san-martin_4455","citySlug":"san-martin","name":"Paseo Principal","category":"ocio","lat":13.774277847900862,"lng":-88.91260298588082,"avgVisitMinutes":27,"estimatedCostEur":7,"score":4.116408030611433},{"id":"san-martin_1891","citySlug":"san-martin","name":"Playa Central","category":"playa","lat":13.783481564953762,"lng":-88.92582638964842,"avgVisitMinutes":58,"estimatedCostEur":12,"score":2.3174664938826544},{"id":"san-martin_2204","citySlug":"san-martin","name":"Museo Local de San Martín","category":"historia","lat":13.782565022104013,"lng":-88.91530837692699,"avgVisitMinutes":20,"estimatedCostEur":22,"score":0.9415753320145615},{"id":"san-martin_7999","citySlug":"san-martin","name":"Restaurante Típico de San Martín","category":"gastronomia","lat":13.777528883388724,"lng":-88.92279332148192,"avgVisitMinutes":57,"estimatedCostEur":24,"score":4.993458027372834},{"id":"san-martin_2166","citySlug":"san-martin","name":"Museo Cultural de San Martín","category":"cultura","lat":13.781375918120379,"lng":-88.9078642933783,"avgVisitMinutes":47,"estimatedCostEur":20,"score":1.6928959198801607},{"id":"san-martin_6950","citySlug":"san-martin","name":"Iglesia de San Martín","category":"historia","lat":13.777503214151002,"lng":-88.91937089842709,"avgVisitMinutes":85,"estimatedCostEur":10,"score":1.379628263749073},{"id":"san-marcos_4205","citySlug":"san-marcos","name":"Mirador de San Marcos","category":"mirador","lat":13.655831417655564,"lng":-89.19224144130682,"avgVisitMinutes":49,"estimatedCostEur":4,"score":2.5058034618010954},{"id":"san-marcos_5038","citySlug":"san-marcos","name":"Playa Central","category":"playa","lat":13.667454275762987,"lng":-89.1877523246946,"avgVisitMinutes":43,"estimatedCostEur":20,"score":0.7011636479910106},{"id":"san-marcos_3570","citySlug":"san-marcos","name":"Mercado Gastronómico","category":"gastronomia","lat":13.666265098263924,"lng":-89.1802774621134,"avgVisitMinutes":65,"estimatedCostEur":4,"score":2.255026136782393},{"id":"san-marcos_1380","citySlug":"san-marcos","name":"Paseo Principal","category":"ocio","lat":13.666037205246933,"lng":-89.18865871074983,"avgVisitMinutes":80,"estimatedCostEur":3,"score":4.385256866630888},{"id":"san-marcos_4058","citySlug":"san-marcos","name":"Punto Panorámico","category":"mirador","lat":13.668457459050588,"lng":-89.18661752722521,"avgVisitMinutes":82,"estimatedCostEur":15,"score":1.0918581877402107},{"id":"san-marcos_3855","citySlug":"san-marcos","name":"Playa Sur","category":"playa","lat":13.670371624373034,"lng":-89.18740030810383,"avgVisitMinutes":64,"estimatedCostEur":3,"score":2.9769373542996256},{"id":"san-marcos_3570","citySlug":"san-marcos","name":"Centro Histórico","category":"historia","lat":13.666732189872642,"lng":-89.17834902891416,"avgVisitMinutes":73,"estimatedCostEur":22,"score":4.321113452474034},{"id":"san-marcos_3107","citySlug":"san-marcos","name":"Museo Cultural de San Marcos","category":"cultura","lat":13.652561471542068,"lng":-89.1789256828916,"avgVisitMinutes":84,"estimatedCostEur":11,"score":2.0939041386483415},{"id":"san-marcos_8028","citySlug":"san-marcos","name":"Parque Central","category":"ocio","lat":13.658075539055055,"lng":-89.18845096273856,"avgVisitMinutes":32,"estimatedCostEur":10,"score":0.8239423927453122},{"id":"san-juan-opico_5405","citySlug":"san-juan-opico","name":"Ruta de Tapas","category":"gastronomia","lat":13.885949377818555,"lng":-89.34992439521288,"avgVisitMinutes":89,"estimatedCostEur":17,"score":1.6652033417636034},{"id":"san-juan-opico_2715","citySlug":"san-juan-opico","name":"Playa Norte","category":"playa","lat":13.881861084939974,"lng":-89.35828226800497,"avgVisitMinutes":62,"estimatedCostEur":0,"score":1.6722355255109265},{"id":"san-juan-opico_3134","citySlug":"san-juan-opico","name":"Teatro Municipal","category":"cultura","lat":13.86640200305038,"lng":-89.35346071240369,"avgVisitMinutes":29,"estimatedCostEur":9,"score":2.961114549386447},{"id":"san-juan-opico_6563","citySlug":"san-juan-opico","name":"Playa Sur","category":"playa","lat":13.866123201932167,"lng":-89.35804751332863,"avgVisitMinutes":36,"estimatedCostEur":15,"score":3.4273421673066498},{"id":"san-juan-opico_7155","citySlug":"san-juan-opico","name":"Mirador de San Juan Opico","category":"mirador","lat":13.881757733988437,"lng":-89.35644599250713,"avgVisitMinutes":68,"estimatedCostEur":19,"score":2.7496050077159393},{"id":"san-francisco-morazan_5306","citySlug":"san-francisco-morazan","name":"Centro Histórico","category":"historia","lat":14.192647518232093,"lng":-89.04821944053187,"avgVisitMinutes":27,"estimatedCostEur":16,"score":3.886704342621559},{"id":"san-francisco-morazan_9205","citySlug":"san-francisco-morazan","name":"Mirador de San Francisco Morazán","category":"mirador","lat":14.190082092308018,"lng":-89.04899668921102,"avgVisitMinutes":59,"estimatedCostEur":13,"score":2.587890286089193},{"id":"san-francisco-morazan_3506","citySlug":"san-francisco-morazan","name":"Mirador de San Francisco Morazán","category":"mirador","lat":14.18933862614384,"lng":-89.05594970467274,"avgVisitMinutes":86,"estimatedCostEur":15,"score":1.794460490970797},{"id":"san-francisco-morazan_5806","citySlug":"san-francisco-morazan","name":"Mirador de San Francisco Morazán","category":"mirador","lat":14.173969618359054,"lng":-89.0555032823715,"avgVisitMinutes":36,"estimatedCostEur":16,"score":3.585829874866153},{"id":"san-francisco-morazan_6805","citySlug":"san-francisco-morazan","name":"Playa Norte","category":"playa","lat":14.189300180081997,"lng":-89.05283355453439,"avgVisitMinutes":32,"estimatedCostEur":2,"score":1.094059633454302},{"id":"san-francisco-morazan_8426","citySlug":"san-francisco-morazan","name":"Vista Alta de San Francisco Morazán","category":"mirador","lat":14.177791449720266,"lng":-89.05175965564408,"avgVisitMinutes":56,"estimatedCostEur":2,"score":1.9030540170193462},{"id":"san-francisco-morazan_4999","citySlug":"san-francisco-morazan","name":"Iglesia de San Francisco Morazán","category":"historia","lat":14.189523138871463,"lng":-89.05041490475799,"avgVisitMinutes":77,"estimatedCostEur":22,"score":1.6048485023243084},{"id":"san-francisco-menendez_6963","citySlug":"san-francisco-menendez","name":"Playa Norte","category":"playa","lat":13.83429031162371,"lng":-90.02122718142465,"avgVisitMinutes":89,"estimatedCostEur":4,"score":4.895023494374143},{"id":"san-francisco-menendez_2870","citySlug":"san-francisco-menendez","name":"Playa Norte","category":"playa","lat":13.850747109714966,"lng":-90.00707701145717,"avgVisitMinutes":84,"estimatedCostEur":7,"score":2.7180414228376524},{"id":"san-francisco-menendez_5620","citySlug":"san-francisco-menendez","name":"Teatro Municipal","category":"cultura","lat":13.85116352211737,"lng":-90.0233255229289,"avgVisitMinutes":78,"estimatedCostEur":21,"score":2.4496755151991945},{"id":"san-francisco-menendez_4858","citySlug":"san-francisco-menendez","name":"Restaurante Típico de San Francisco Menéndez","category":"gastronomia","lat":13.841638820680885,"lng":-90.00961375701607,"avgVisitMinutes":35,"estimatedCostEur":12,"score":1.2281681851027917},{"id":"san-francisco-menendez_7466","citySlug":"san-francisco-menendez","name":"Centro Histórico","category":"historia","lat":13.849186390389484,"lng":-90.02259810478401,"avgVisitMinutes":32,"estimatedCostEur":17,"score":0.9168751378596549},{"id":"san-francisco-menendez_6720","citySlug":"san-francisco-menendez","name":"Restaurante Típico de San Francisco Menéndez","category":"gastronomia","lat":13.83956199388621,"lng":-90.02322471789645,"avgVisitMinutes":79,"estimatedCostEur":20,"score":1.3009024703235244},{"id":"san-francisco-menendez_6380","citySlug":"san-francisco-menendez","name":"Punto Panorámico","category":"mirador","lat":13.843174466537123,"lng":-90.0158870188091,"avgVisitMinutes":44,"estimatedCostEur":13,"score":1.9552173408372102},{"id":"san-francisco-menendez_7011","citySlug":"san-francisco-menendez","name":"Teatro Municipal","category":"cultura","lat":13.842676204469832,"lng":-90.02080852014429,"avgVisitMinutes":31,"estimatedCostEur":13,"score":3.8426971268403642},{"id":"san-francisco-menendez_4137","citySlug":"san-francisco-menendez","name":"Playa Central","category":"playa","lat":13.836002100309269,"lng":-90.00807328828455,"avgVisitMinutes":81,"estimatedCostEur":11,"score":2.1281818068512734},{"id":"san-francisco-menendez_4319","citySlug":"san-francisco-menendez","name":"Paseo Principal","category":"ocio","lat":13.850170629807778,"lng":-90.02397222219996,"avgVisitMinutes":24,"estimatedCostEur":10,"score":4.0152655988015535},{"id":"san-francisco_5919","citySlug":"san-francisco","name":"Mirador de San Francisco","category":"mirador","lat":13.69254973297491,"lng":-88.1131826430467,"avgVisitMinutes":27,"estimatedCostEur":4,"score":3.061709189374968},{"id":"san-francisco_7232","citySlug":"san-francisco","name":"Museo Cultural de San Francisco","category":"cultura","lat":13.6981336602138,"lng":-88.09628291118854,"avgVisitMinutes":29,"estimatedCostEur":7,"score":1.6922298269590212},{"id":"san-francisco_6576","citySlug":"san-francisco","name":"Museo Cultural de San Francisco","category":"cultura","lat":13.691352800537958,"lng":-88.10854061564555,"avgVisitMinutes":78,"estimatedCostEur":15,"score":0.7276202252497472},{"id":"san-francisco_3239","citySlug":"san-francisco","name":"Galería de Arte","category":"cultura","lat":13.698006365105678,"lng":-88.10636533574225,"avgVisitMinutes":55,"estimatedCostEur":17,"score":2.319650801338603},{"id":"san-francisco_6583","citySlug":"san-francisco","name":"Ruta de Tapas","category":"gastronomia","lat":13.687016790864307,"lng":-88.09955598630869,"avgVisitMinutes":46,"estimatedCostEur":4,"score":1.2840051442784786},{"id":"san-francisco_4303","citySlug":"san-francisco","name":"Restaurante Típico de San Francisco","category":"gastronomia","lat":13.703532401532138,"lng":-88.10191276791193,"avgVisitMinutes":86,"estimatedCostEur":22,"score":3.841234540732354},{"id":"san-francisco_5042","citySlug":"san-francisco","name":"Mercado Gastronómico","category":"gastronomia","lat":13.686144394873159,"lng":-88.10960837711532,"avgVisitMinutes":63,"estimatedCostEur":24,"score":3.401287178433249},{"id":"san-antonio-del-monte_9854","citySlug":"san-antonio-del-monte","name":"Museo Cultural de San Antonio del Monte","category":"cultura","lat":13.708080575933131,"lng":-89.74577905064255,"avgVisitMinutes":27,"estimatedCostEur":13,"score":1.9391143236802204},{"id":"san-antonio-del-monte_5388","citySlug":"san-antonio-del-monte","name":"Mirador de San Antonio del Monte","category":"mirador","lat":13.722470748251757,"lng":-89.73432307077208,"avgVisitMinutes":57,"estimatedCostEur":0,"score":4.237696257290815},{"id":"san-antonio-del-monte_4741","citySlug":"san-antonio-del-monte","name":"Teatro Municipal","category":"cultura","lat":13.71421073390566,"lng":-89.74580037760497,"avgVisitMinutes":70,"estimatedCostEur":1,"score":1.4844329378678003},{"id":"san-antonio-del-monte_8151","citySlug":"san-antonio-del-monte","name":"Museo Local de San Antonio del Monte","category":"historia","lat":13.724694963994436,"lng":-89.7307493132914,"avgVisitMinutes":86,"estimatedCostEur":8,"score":3.8209274740432475},{"id":"san-antonio-del-monte_9098","citySlug":"san-antonio-del-monte","name":"Centro Histórico","category":"historia","lat":13.712010869935815,"lng":-89.73344379325847,"avgVisitMinutes":68,"estimatedCostEur":22,"score":4.465377903733085},{"id":"san-antonio-del-monte_8744","citySlug":"san-antonio-del-monte","name":"Punto Panorámico","category":"mirador","lat":13.717817545198256,"lng":-89.74480406031496,"avgVisitMinutes":46,"estimatedCostEur":22,"score":0.5371268324849328},{"id":"san-antonio-del-monte_3192","citySlug":"san-antonio-del-monte","name":"Ruta de Tapas","category":"gastronomia","lat":13.713709318745982,"lng":-89.7353786264991,"avgVisitMinutes":87,"estimatedCostEur":14,"score":2.252658079917923},{"id":"san-antonio-del-monte_3035","citySlug":"san-antonio-del-monte","name":"Zona Comercial","category":"ocio","lat":13.717194504163464,"lng":-89.72900775023298,"avgVisitMinutes":81,"estimatedCostEur":18,"score":3.6545995511660183},{"id":"san-antonio-del-monte_5501","citySlug":"san-antonio-del-monte","name":"Mercado Gastronómico","category":"gastronomia","lat":13.710586052723498,"lng":-89.7292029617769,"avgVisitMinutes":25,"estimatedCostEur":13,"score":3.6599066103288216},{"id":"san-alejo_8459","citySlug":"san-alejo","name":"Mercado Gastronómico","category":"gastronomia","lat":13.438162627908662,"lng":-87.97126304046614,"avgVisitMinutes":25,"estimatedCostEur":23,"score":2.7809941126710847},{"id":"san-alejo_3368","citySlug":"san-alejo","name":"Murallas de San Alejo","category":"historia","lat":13.423502070921868,"lng":-87.96096203987588,"avgVisitMinutes":27,"estimatedCostEur":21,"score":3.4151502416833224},{"id":"san-alejo_7456","citySlug":"san-alejo","name":"Mirador de San Alejo","category":"mirador","lat":13.43061892673512,"lng":-87.95615843134225,"avgVisitMinutes":88,"estimatedCostEur":5,"score":1.4036729113732613},{"id":"san-alejo_4758","citySlug":"san-alejo","name":"Punto Panorámico","category":"mirador","lat":13.43731479355974,"lng":-87.95700567328001,"avgVisitMinutes":77,"estimatedCostEur":24,"score":2.2838512962659445},{"id":"san-alejo_4317","citySlug":"san-alejo","name":"Museo Local de San Alejo","category":"historia","lat":13.426298997248104,"lng":-87.9655141216936,"avgVisitMinutes":84,"estimatedCostEur":13,"score":0.5302972859504256},{"id":"san-alejo_7777","citySlug":"san-alejo","name":"Museo Cultural de San Alejo","category":"cultura","lat":13.424468394690965,"lng":-87.96078227781722,"avgVisitMinutes":71,"estimatedCostEur":8,"score":1.7820004391944677},{"id":"san-alejo_8046","citySlug":"san-alejo","name":"Museo Cultural de San Alejo","category":"cultura","lat":13.42541212161149,"lng":-87.96277696433002,"avgVisitMinutes":22,"estimatedCostEur":1,"score":4.809997223121644},{"id":"san-alejo_4119","citySlug":"san-alejo","name":"Parque Central","category":"ocio","lat":13.431636531040228,"lng":-87.968675729004,"avgVisitMinutes":60,"estimatedCostEur":2,"score":2.2560217105619653},{"id":"san-alejo_1595","citySlug":"san-alejo","name":"Ruta de Tapas","category":"gastronomia","lat":13.422232676947003,"lng":-87.95873171024652,"avgVisitMinutes":62,"estimatedCostEur":1,"score":4.270698428330604},{"id":"san-alejo_9180","citySlug":"san-alejo","name":"Zona Comercial","category":"ocio","lat":13.435202272430656,"lng":-87.96384059026065,"avgVisitMinutes":63,"estimatedCostEur":9,"score":1.9089365566564305},{"id":"san-agustin_9846","citySlug":"san-agustin","name":"Punto Panorámico","category":"mirador","lat":13.427245665714011,"lng":-88.60242698983573,"avgVisitMinutes":73,"estimatedCostEur":3,"score":1.9609402645193015},{"id":"san-agustin_9871","citySlug":"san-agustin","name":"Playa Norte","category":"playa","lat":13.442746916342857,"lng":-88.59544337227396,"avgVisitMinutes":68,"estimatedCostEur":17,"score":4.12477536995697},{"id":"san-agustin_4488","citySlug":"san-agustin","name":"Mercado Gastronómico","category":"gastronomia","lat":13.436838191401185,"lng":-88.60590586879928,"avgVisitMinutes":72,"estimatedCostEur":21,"score":1.708667203521077},{"id":"san-agustin_4475","citySlug":"san-agustin","name":"Parque Central","category":"ocio","lat":13.440472293014324,"lng":-88.59422095697063,"avgVisitMinutes":20,"estimatedCostEur":16,"score":0.9665152176103604},{"id":"san-agustin_3311","citySlug":"san-agustin","name":"Paseo Principal","category":"ocio","lat":13.424523533631763,"lng":-88.59558389080888,"avgVisitMinutes":32,"estimatedCostEur":11,"score":4.0429850349780345},{"id":"san-agustin_4355","citySlug":"san-agustin","name":"Playa Norte","category":"playa","lat":13.431165806546781,"lng":-88.5920361076334,"avgVisitMinutes":44,"estimatedCostEur":3,"score":3.8373382037075237},{"id":"san-agustin_9103","citySlug":"san-agustin","name":"Galería de Arte","category":"cultura","lat":13.43004516260857,"lng":-88.59847673305406,"avgVisitMinutes":82,"estimatedCostEur":21,"score":3.3081599060720026},{"id":"san-agustin_3785","citySlug":"san-agustin","name":"Paseo Principal","category":"ocio","lat":13.428538356295388,"lng":-88.59822880123339,"avgVisitMinutes":46,"estimatedCostEur":11,"score":1.8424169275173532},{"id":"san-agustin_4386","citySlug":"san-agustin","name":"Restaurante Típico de San Agustín","category":"gastronomia","lat":13.430442784923612,"lng":-88.59129701573714,"avgVisitMinutes":45,"estimatedCostEur":12,"score":2.0547559997794713},{"id":"rosario-de-mora_4612","citySlug":"rosario-de-mora","name":"Ruta de Tapas","category":"gastronomia","lat":13.577720636817052,"lng":-89.1991467695788,"avgVisitMinutes":21,"estimatedCostEur":22,"score":4.0923986744519745},{"id":"rosario-de-mora_7068","citySlug":"rosario-de-mora","name":"Mirador de Rosario de Mora","category":"mirador","lat":13.583508553457294,"lng":-89.21808608791414,"avgVisitMinutes":82,"estimatedCostEur":5,"score":3.9889532451244167},{"id":"rosario-de-mora_9989","citySlug":"rosario-de-mora","name":"Mercado Gastronómico","category":"gastronomia","lat":13.582410873049769,"lng":-89.20539223918458,"avgVisitMinutes":74,"estimatedCostEur":11,"score":1.538120055241209},{"id":"rosario-de-mora_4227","citySlug":"rosario-de-mora","name":"Playa Norte","category":"playa","lat":13.572835937505642,"lng":-89.20135807440415,"avgVisitMinutes":39,"estimatedCostEur":17,"score":2.126568517964862},{"id":"rosario-de-mora_8537","citySlug":"rosario-de-mora","name":"Mercado Gastronómico","category":"gastronomia","lat":13.57143041637325,"lng":-89.20521625910102,"avgVisitMinutes":22,"estimatedCostEur":18,"score":1.2108420534386257},{"id":"rosario-de-mora_1764","citySlug":"rosario-de-mora","name":"Galería de Arte","category":"cultura","lat":13.580381821848041,"lng":-89.19924188614303,"avgVisitMinutes":21,"estimatedCostEur":7,"score":1.5636090996473615},{"id":"quezaltepeque_3956","citySlug":"quezaltepeque","name":"Playa Norte","category":"playa","lat":13.825025891074308,"lng":-89.2759446745888,"avgVisitMinutes":76,"estimatedCostEur":2,"score":1.48012419815859},{"id":"quezaltepeque_4762","citySlug":"quezaltepeque","name":"Mercado Gastronómico","category":"gastronomia","lat":13.822711445810263,"lng":-89.27029589566553,"avgVisitMinutes":62,"estimatedCostEur":5,"score":1.8652160813801313},{"id":"quezaltepeque_9704","citySlug":"quezaltepeque","name":"Mirador de Quezaltepeque","category":"mirador","lat":13.8314512427723,"lng":-89.2685813911999,"avgVisitMinutes":63,"estimatedCostEur":3,"score":1.8009500151775388},{"id":"quezaltepeque_6459","citySlug":"quezaltepeque","name":"Restaurante Típico de Quezaltepeque","category":"gastronomia","lat":13.830324486868307,"lng":-89.26433347212496,"avgVisitMinutes":90,"estimatedCostEur":3,"score":4.841941213259647},{"id":"quezaltepeque_6055","citySlug":"quezaltepeque","name":"Parque Central","category":"ocio","lat":13.823321972780874,"lng":-89.27119295676975,"avgVisitMinutes":69,"estimatedCostEur":1,"score":1.5028142361152534},{"id":"quezaltepeque_7630","citySlug":"quezaltepeque","name":"Castillo de Quezaltepeque","category":"historia","lat":13.824467667641947,"lng":-89.27079352246946,"avgVisitMinutes":31,"estimatedCostEur":16,"score":1.5098963095687097},{"id":"quezaltepeque_4509","citySlug":"quezaltepeque","name":"Playa Sur","category":"playa","lat":13.837837276845098,"lng":-89.26979547432292,"avgVisitMinutes":54,"estimatedCostEur":20,"score":4.993694965599735},{"id":"quezaltepeque_9382","citySlug":"quezaltepeque","name":"Centro de Arte de Quezaltepeque","category":"cultura","lat":13.827290638072325,"lng":-89.2805753172098,"avgVisitMinutes":66,"estimatedCostEur":21,"score":1.6760950835829296},{"id":"quezaltepeque_2713","citySlug":"quezaltepeque","name":"Punto Panorámico","category":"mirador","lat":13.826859279615872,"lng":-89.2802585856673,"avgVisitMinutes":43,"estimatedCostEur":10,"score":2.414175217790537},{"id":"puerto-el-triunfo_6718","citySlug":"puerto-el-triunfo","name":"Ruta de Tapas","category":"gastronomia","lat":13.28293502837641,"lng":-88.5504068043779,"avgVisitMinutes":27,"estimatedCostEur":2,"score":4.800922854567093},{"id":"puerto-el-triunfo_1226","citySlug":"puerto-el-triunfo","name":"Playa Sur","category":"playa","lat":13.280379403477975,"lng":-88.54698357630546,"avgVisitMinutes":46,"estimatedCostEur":23,"score":3.97620366355661},{"id":"puerto-el-triunfo_3924","citySlug":"puerto-el-triunfo","name":"Castillo de Puerto El Triunfo","category":"historia","lat":13.278453651965068,"lng":-88.55777482735748,"avgVisitMinutes":42,"estimatedCostEur":6,"score":4.364433466561499},{"id":"puerto-el-triunfo_2159","citySlug":"puerto-el-triunfo","name":"Zona Comercial","category":"ocio","lat":13.27984709819926,"lng":-88.55576467926095,"avgVisitMinutes":90,"estimatedCostEur":21,"score":2.2586647354010783},{"id":"puerto-el-triunfo_8995","citySlug":"puerto-el-triunfo","name":"Mirador de Puerto El Triunfo","category":"mirador","lat":13.289275505105993,"lng":-88.54285075827362,"avgVisitMinutes":78,"estimatedCostEur":14,"score":3.950169478551933},{"id":"pasaquina_1159","citySlug":"pasaquina","name":"Playa Sur","category":"playa","lat":13.586582297590345,"lng":-87.84082857261541,"avgVisitMinutes":42,"estimatedCostEur":23,"score":3.0056587883185655},{"id":"pasaquina_7657","citySlug":"pasaquina","name":"Castillo de Pasaquina","category":"historia","lat":13.585594649046902,"lng":-87.83537372427556,"avgVisitMinutes":89,"estimatedCostEur":18,"score":0.8468033295133388},{"id":"pasaquina_3435","citySlug":"pasaquina","name":"Museo Cultural de Pasaquina","category":"cultura","lat":13.578236999940993,"lng":-87.83874312099121,"avgVisitMinutes":78,"estimatedCostEur":17,"score":1.3903226071461898},{"id":"pasaquina_9712","citySlug":"pasaquina","name":"Castillo de Pasaquina","category":"historia","lat":13.578447031157003,"lng":-87.84685494245599,"avgVisitMinutes":86,"estimatedCostEur":14,"score":4.88237657826528},{"id":"pasaquina_7878","citySlug":"pasaquina","name":"Restaurante Típico de Pasaquina","category":"gastronomia","lat":13.590621532582226,"lng":-87.84605747360747,"avgVisitMinutes":35,"estimatedCostEur":0,"score":2.0057028474455993},{"id":"pasaquina_2819","citySlug":"pasaquina","name":"Vista Alta de Pasaquina","category":"mirador","lat":13.583583540101017,"lng":-87.84850287508827,"avgVisitMinutes":85,"estimatedCostEur":25,"score":4.150670137425925},{"id":"pasaquina_7213","citySlug":"pasaquina","name":"Museo Local de Pasaquina","category":"historia","lat":13.580270902909604,"lng":-87.84234537154073,"avgVisitMinutes":23,"estimatedCostEur":9,"score":1.3946702079909243},{"id":"pasaquina_3902","citySlug":"pasaquina","name":"Playa Central","category":"playa","lat":13.576983496981127,"lng":-87.83913148153918,"avgVisitMinutes":60,"estimatedCostEur":11,"score":4.069335944429016},{"id":"pasaquina_6697","citySlug":"pasaquina","name":"Playa Norte","category":"playa","lat":13.586020245366806,"lng":-87.84292185756964,"avgVisitMinutes":50,"estimatedCostEur":8,"score":2.1193864176063215},{"id":"pasaquina_5750","citySlug":"pasaquina","name":"Punto Panorámico","category":"mirador","lat":13.578227390497284,"lng":-87.83863264033356,"avgVisitMinutes":38,"estimatedCostEur":4,"score":4.285574237437173},{"id":"pasaquina_9535","citySlug":"pasaquina","name":"Vista Alta de Pasaquina","category":"mirador","lat":13.57871572428055,"lng":-87.83601453122577,"avgVisitMinutes":65,"estimatedCostEur":9,"score":1.4649837401647057},{"id":"panchimalco_6944","citySlug":"panchimalco","name":"Galería de Arte","category":"cultura","lat":13.60392728974973,"lng":-89.18288400492932,"avgVisitMinutes":62,"estimatedCostEur":23,"score":3.1408052477679016},{"id":"panchimalco_8098","citySlug":"panchimalco","name":"Playa Central","category":"playa","lat":13.604489084045024,"lng":-89.18339084159506,"avgVisitMinutes":46,"estimatedCostEur":5,"score":2.3149826365740194},{"id":"panchimalco_4456","citySlug":"panchimalco","name":"Mirador de Panchimalco","category":"mirador","lat":13.615092287284421,"lng":-89.1795710544204,"avgVisitMinutes":90,"estimatedCostEur":18,"score":3.0854022091557516},{"id":"panchimalco_1112","citySlug":"panchimalco","name":"Museo Cultural de Panchimalco","category":"cultura","lat":13.622270307587035,"lng":-89.18746396433802,"avgVisitMinutes":54,"estimatedCostEur":4,"score":2.7023833638296453},{"id":"panchimalco_5240","citySlug":"panchimalco","name":"Ruta de Tapas","category":"gastronomia","lat":13.619141286423778,"lng":-89.1779807044136,"avgVisitMinutes":28,"estimatedCostEur":15,"score":3.897982839856607},{"id":"panchimalco_3702","citySlug":"panchimalco","name":"Paseo Principal","category":"ocio","lat":13.608130175895841,"lng":-89.1824882173664,"avgVisitMinutes":62,"estimatedCostEur":19,"score":2.8099961201476162},{"id":"panchimalco_9403","citySlug":"panchimalco","name":"Mercado Gastronómico","category":"gastronomia","lat":13.621099275628021,"lng":-89.18828005300898,"avgVisitMinutes":46,"estimatedCostEur":23,"score":1.4556725513270974},{"id":"panchimalco_1640","citySlug":"panchimalco","name":"Mirador de Panchimalco","category":"mirador","lat":13.618853493433726,"lng":-89.18595510866984,"avgVisitMinutes":75,"estimatedCostEur":16,"score":4.331319576944528},{"id":"panchimalco_3608","citySlug":"panchimalco","name":"Museo Cultural de Panchimalco","category":"cultura","lat":13.621855211676257,"lng":-89.17003253323956,"avgVisitMinutes":52,"estimatedCostEur":7,"score":3.58375025960797},{"id":"panchimalco_4108","citySlug":"panchimalco","name":"Castillo de Panchimalco","category":"historia","lat":13.611973074834427,"lng":-89.1893643736025,"avgVisitMinutes":33,"estimatedCostEur":20,"score":2.366604196011033},{"id":"ozatlan_2735","citySlug":"ozatlan","name":"Playa Norte","category":"playa","lat":13.391920478649316,"lng":-88.50970955814604,"avgVisitMinutes":65,"estimatedCostEur":7,"score":1.113973306435457},{"id":"ozatlan_7084","citySlug":"ozatlan","name":"Museo Cultural de Ozatlán","category":"cultura","lat":13.383568034086599,"lng":-88.50924624243046,"avgVisitMinutes":47,"estimatedCostEur":5,"score":4.379198087778253},{"id":"ozatlan_9862","citySlug":"ozatlan","name":"Centro de Arte de Ozatlán","category":"cultura","lat":13.38651926593147,"lng":-88.50208013821275,"avgVisitMinutes":24,"estimatedCostEur":21,"score":1.1568949565639017},{"id":"ozatlan_5152","citySlug":"ozatlan","name":"Iglesia de Ozatlán","category":"historia","lat":13.386121559400454,"lng":-88.49559328608898,"avgVisitMinutes":78,"estimatedCostEur":2,"score":1.096065343725026},{"id":"ozatlan_4764","citySlug":"ozatlan","name":"Zona Comercial","category":"ocio","lat":13.37735030253267,"lng":-88.49450424783247,"avgVisitMinutes":90,"estimatedCostEur":4,"score":4.778370087430423},{"id":"ozatlan_2620","citySlug":"ozatlan","name":"Paseo Principal","category":"ocio","lat":13.381406716322333,"lng":-88.49219842220955,"avgVisitMinutes":37,"estimatedCostEur":9,"score":4.6058883936355635},{"id":"ozatlan_1996","citySlug":"ozatlan","name":"Vista Alta de Ozatlán","category":"mirador","lat":13.392616872864068,"lng":-88.50994531268418,"avgVisitMinutes":79,"estimatedCostEur":17,"score":4.961192311638618},{"id":"ozatlan_6246","citySlug":"ozatlan","name":"Punto Panorámico","category":"mirador","lat":13.391343100335602,"lng":-88.50151069197764,"avgVisitMinutes":66,"estimatedCostEur":4,"score":1.0823909117814923},{"id":"ozatlan_2349","citySlug":"ozatlan","name":"Centro de Arte de Ozatlán","category":"cultura","lat":13.377079844842667,"lng":-88.49143376280097,"avgVisitMinutes":28,"estimatedCostEur":12,"score":1.0151511854626332},{"id":"ozatlan_3510","citySlug":"ozatlan","name":"Centro de Arte de Ozatlán","category":"cultura","lat":13.376255665784702,"lng":-88.49294369837295,"avgVisitMinutes":72,"estimatedCostEur":8,"score":2.0667494222998624},{"id":"ozatlan_6247","citySlug":"ozatlan","name":"Playa Sur","category":"playa","lat":13.387959853170601,"lng":-88.50094841297768,"avgVisitMinutes":25,"estimatedCostEur":20,"score":4.583898221381349},{"id":"olocuilta_2027","citySlug":"olocuilta","name":"Playa Norte","category":"playa","lat":13.577045650777114,"lng":-89.11320107306783,"avgVisitMinutes":82,"estimatedCostEur":16,"score":1.5444445917640823},{"id":"olocuilta_3860","citySlug":"olocuilta","name":"Playa Sur","category":"playa","lat":13.562447789281327,"lng":-89.12696292322465,"avgVisitMinutes":82,"estimatedCostEur":17,"score":3.8878056990745478},{"id":"olocuilta_8247","citySlug":"olocuilta","name":"Restaurante Típico de Olocuilta","category":"gastronomia","lat":13.569181172299661,"lng":-89.12566052756377,"avgVisitMinutes":30,"estimatedCostEur":21,"score":0.928940940151472},{"id":"olocuilta_5501","citySlug":"olocuilta","name":"Mercado Gastronómico","category":"gastronomia","lat":13.57966966345388,"lng":-89.1182925826013,"avgVisitMinutes":20,"estimatedCostEur":9,"score":4.680441512200134},{"id":"olocuilta_1786","citySlug":"olocuilta","name":"Museo Cultural de Olocuilta","category":"cultura","lat":13.567113204330555,"lng":-89.11913964425679,"avgVisitMinutes":85,"estimatedCostEur":7,"score":2.834500932366634},{"id":"olocuilta_8115","citySlug":"olocuilta","name":"Parque Central","category":"ocio","lat":13.561056992852645,"lng":-89.11962491623802,"avgVisitMinutes":55,"estimatedCostEur":15,"score":2.61453423686527},{"id":"olocuilta_7653","citySlug":"olocuilta","name":"Punto Panorámico","category":"mirador","lat":13.57576275507163,"lng":-89.1237449558666,"avgVisitMinutes":78,"estimatedCostEur":15,"score":4.686072687589147},{"id":"olocuilta_1537","citySlug":"olocuilta","name":"Zona Comercial","category":"ocio","lat":13.572467355561844,"lng":-89.12289029595387,"avgVisitMinutes":25,"estimatedCostEur":11,"score":3.0655584235009234},{"id":"olocuilta_3651","citySlug":"olocuilta","name":"Paseo Principal","category":"ocio","lat":13.570938852939912,"lng":-89.10900779822501,"avgVisitMinutes":34,"estimatedCostEur":8,"score":4.952161574893183},{"id":"olocuilta_2062","citySlug":"olocuilta","name":"Ruta de Tapas","category":"gastronomia","lat":13.577821359256664,"lng":-89.10852157727179,"avgVisitMinutes":25,"estimatedCostEur":1,"score":4.129516019617579},{"id":"nuevo-cuscatlan_1897","citySlug":"nuevo-cuscatlan","name":"Parque Central","category":"ocio","lat":13.639969281958729,"lng":-89.26560328660953,"avgVisitMinutes":56,"estimatedCostEur":5,"score":3.934035798227965},{"id":"nuevo-cuscatlan_1472","citySlug":"nuevo-cuscatlan","name":"Vista Alta de Nuevo Cuscatlán","category":"mirador","lat":13.6502669101828,"lng":-89.27282949175643,"avgVisitMinutes":21,"estimatedCostEur":15,"score":4.520727632336127},{"id":"nuevo-cuscatlan_5592","citySlug":"nuevo-cuscatlan","name":"Punto Panorámico","category":"mirador","lat":13.645402696877161,"lng":-89.26755566463409,"avgVisitMinutes":61,"estimatedCostEur":3,"score":2.3986416422897037},{"id":"nuevo-cuscatlan_1269","citySlug":"nuevo-cuscatlan","name":"Vista Alta de Nuevo Cuscatlán","category":"mirador","lat":13.64697532396452,"lng":-89.27366949861097,"avgVisitMinutes":89,"estimatedCostEur":8,"score":1.2817926277301401},{"id":"nuevo-cuscatlan_9346","citySlug":"nuevo-cuscatlan","name":"Punto Panorámico","category":"mirador","lat":13.654126057131014,"lng":-89.2644042818309,"avgVisitMinutes":86,"estimatedCostEur":8,"score":3.189320806195542},{"id":"nuevo-cuscatlan_5875","citySlug":"nuevo-cuscatlan","name":"Mercado Gastronómico","category":"gastronomia","lat":13.657386141596783,"lng":-89.26010425073441,"avgVisitMinutes":90,"estimatedCostEur":24,"score":4.972402269709926},{"id":"nuevo-cuscatlan_3424","citySlug":"nuevo-cuscatlan","name":"Restaurante Típico de Nuevo Cuscatlán","category":"gastronomia","lat":13.657189145860567,"lng":-89.26738237717294,"avgVisitMinutes":55,"estimatedCostEur":8,"score":0.8006345482649542},{"id":"nuevo-cuscatlan_2242","citySlug":"nuevo-cuscatlan","name":"Zona Comercial","category":"ocio","lat":13.642823717822317,"lng":-89.26840912947101,"avgVisitMinutes":56,"estimatedCostEur":10,"score":1.4830758306511709},{"id":"nuevo-cuscatlan_4896","citySlug":"nuevo-cuscatlan","name":"Mercado Gastronómico","category":"gastronomia","lat":13.642987323993658,"lng":-89.26271942886845,"avgVisitMinutes":67,"estimatedCostEur":19,"score":4.521165308528404},{"id":"nuevo-cuscatlan_2872","citySlug":"nuevo-cuscatlan","name":"Punto Panorámico","category":"mirador","lat":13.656517717497822,"lng":-89.26337331436449,"avgVisitMinutes":26,"estimatedCostEur":2,"score":3.2632617562519086},{"id":"nuevo-cuscatlan_2418","citySlug":"nuevo-cuscatlan","name":"Paseo Principal","category":"ocio","lat":13.640569131062946,"lng":-89.26280002964995,"avgVisitMinutes":23,"estimatedCostEur":2,"score":4.390875948650933},{"id":"nuevo-cuscatlan_5781","citySlug":"nuevo-cuscatlan","name":"Playa Central","category":"playa","lat":13.644098104336464,"lng":-89.26644543590788,"avgVisitMinutes":31,"estimatedCostEur":23,"score":1.7726829642004154},{"id":"santa-tecla_3809","citySlug":"santa-tecla","name":"Museo Cultural de Santa Tecla","category":"cultura","lat":13.686990637730641,"lng":-89.27371902653213,"avgVisitMinutes":48,"estimatedCostEur":0,"score":4.274610156881417},{"id":"santa-tecla_7062","citySlug":"santa-tecla","name":"Vista Alta de Santa Tecla","category":"mirador","lat":13.67068805546572,"lng":-89.29240440023342,"avgVisitMinutes":74,"estimatedCostEur":4,"score":2.5860772261113407},{"id":"santa-tecla_4498","citySlug":"santa-tecla","name":"Playa Norte","category":"playa","lat":13.674885661238037,"lng":-89.27565683561392,"avgVisitMinutes":44,"estimatedCostEur":11,"score":1.8951929522373585},{"id":"santa-tecla_5584","citySlug":"santa-tecla","name":"Playa Central","category":"playa","lat":13.675256946282772,"lng":-89.2839501985096,"avgVisitMinutes":77,"estimatedCostEur":2,"score":1.5390724825198583},{"id":"santa-tecla_9950","citySlug":"santa-tecla","name":"Punto Panorámico","category":"mirador","lat":13.67609036316935,"lng":-89.27954755805867,"avgVisitMinutes":86,"estimatedCostEur":0,"score":1.655128217531086},{"id":"santa-tecla_2848","citySlug":"santa-tecla","name":"Playa Sur","category":"playa","lat":13.675937625013953,"lng":-89.27566395993288,"avgVisitMinutes":83,"estimatedCostEur":12,"score":1.2543285238316566},{"id":"santa-tecla_7683","citySlug":"santa-tecla","name":"Mirador de Santa Tecla","category":"mirador","lat":13.669025291461962,"lng":-89.29123842440677,"avgVisitMinutes":61,"estimatedCostEur":16,"score":1.554766516569607},{"id":"santa-tecla_6750","citySlug":"santa-tecla","name":"Centro Histórico","category":"historia","lat":13.667939525455,"lng":-89.28553160269357,"avgVisitMinutes":79,"estimatedCostEur":15,"score":1.682345487896107},{"id":"santa-tecla_2944","citySlug":"santa-tecla","name":"Playa Norte","category":"playa","lat":13.668706030942161,"lng":-89.29310729189383,"avgVisitMinutes":41,"estimatedCostEur":22,"score":4.65364348795347},{"id":"nueva-guadalupe_9453","citySlug":"nueva-guadalupe","name":"Vista Alta de Nueva Guadalupe","category":"mirador","lat":13.538695552279826,"lng":-88.35666583817883,"avgVisitMinutes":59,"estimatedCostEur":10,"score":3.411716474835287},{"id":"nueva-guadalupe_8243","citySlug":"nueva-guadalupe","name":"Iglesia de Nueva Guadalupe","category":"historia","lat":13.525449497580489,"lng":-88.3409140141205,"avgVisitMinutes":68,"estimatedCostEur":19,"score":0.5607454693154068},{"id":"nueva-guadalupe_8567","citySlug":"nueva-guadalupe","name":"Restaurante Típico de Nueva Guadalupe","category":"gastronomia","lat":13.537821752076772,"lng":-88.35835192707428,"avgVisitMinutes":75,"estimatedCostEur":0,"score":3.663660194740269},{"id":"nueva-guadalupe_6688","citySlug":"nueva-guadalupe","name":"Parque Central","category":"ocio","lat":13.534925129472297,"lng":-88.34630942248387,"avgVisitMinutes":40,"estimatedCostEur":15,"score":2.4841068696865687},{"id":"nueva-guadalupe_5775","citySlug":"nueva-guadalupe","name":"Mirador de Nueva Guadalupe","category":"mirador","lat":13.529806696404798,"lng":-88.35819139495348,"avgVisitMinutes":32,"estimatedCostEur":5,"score":1.28271041083739},{"id":"nueva-guadalupe_7022","citySlug":"nueva-guadalupe","name":"Paseo Principal","category":"ocio","lat":13.542751185902274,"lng":-88.34012630929072,"avgVisitMinutes":62,"estimatedCostEur":9,"score":0.8663305096300344},{"id":"nueva-guadalupe_8656","citySlug":"nueva-guadalupe","name":"Playa Norte","category":"playa","lat":13.539709849432326,"lng":-88.35153904661861,"avgVisitMinutes":25,"estimatedCostEur":21,"score":4.1474130778493885},{"id":"nueva-guadalupe_9298","citySlug":"nueva-guadalupe","name":"Restaurante Típico de Nueva Guadalupe","category":"gastronomia","lat":13.54084687976105,"lng":-88.35143987793562,"avgVisitMinutes":32,"estimatedCostEur":8,"score":4.944390782290167},{"id":"nueva-esparta_5383","citySlug":"nueva-esparta","name":"Paseo Principal","category":"ocio","lat":13.780978509114767,"lng":-87.83049274703784,"avgVisitMinutes":66,"estimatedCostEur":19,"score":4.949662708082056},{"id":"nueva-esparta_6192","citySlug":"nueva-esparta","name":"Centro de Arte de Nueva Esparta","category":"cultura","lat":13.783544713119836,"lng":-87.83840365633591,"avgVisitMinutes":31,"estimatedCostEur":7,"score":0.5147743408445482},{"id":"nueva-esparta_9425","citySlug":"nueva-esparta","name":"Mirador de Nueva Esparta","category":"mirador","lat":13.782654354855644,"lng":-87.84235040286553,"avgVisitMinutes":28,"estimatedCostEur":12,"score":1.2353202148928957},{"id":"nueva-esparta_3250","citySlug":"nueva-esparta","name":"Zona Comercial","category":"ocio","lat":13.789901045011451,"lng":-87.83422120508513,"avgVisitMinutes":73,"estimatedCostEur":20,"score":3.290967016930412},{"id":"nueva-esparta_3541","citySlug":"nueva-esparta","name":"Museo Cultural de Nueva Esparta","category":"cultura","lat":13.781816295349042,"lng":-87.83454938391517,"avgVisitMinutes":38,"estimatedCostEur":20,"score":0.7367693941309424},{"id":"nueva-esparta_1636","citySlug":"nueva-esparta","name":"Playa Norte","category":"playa","lat":13.791866337553596,"lng":-87.84469115767968,"avgVisitMinutes":26,"estimatedCostEur":1,"score":1.0758096162204707},{"id":"nueva-esparta_9024","citySlug":"nueva-esparta","name":"Punto Panorámico","category":"mirador","lat":13.787895088232533,"lng":-87.83591663523335,"avgVisitMinutes":65,"estimatedCostEur":14,"score":4.95514320284208},{"id":"nueva-concepcion_6879","citySlug":"nueva-concepcion","name":"Paseo Principal","category":"ocio","lat":14.138471084678956,"lng":-89.29823846504222,"avgVisitMinutes":46,"estimatedCostEur":24,"score":0.7258747016987588},{"id":"nueva-concepcion_7689","citySlug":"nueva-concepcion","name":"Punto Panorámico","category":"mirador","lat":14.131848618600012,"lng":-89.29540548349082,"avgVisitMinutes":38,"estimatedCostEur":4,"score":3.5917583064107235},{"id":"nueva-concepcion_5444","citySlug":"nueva-concepcion","name":"Playa Norte","category":"playa","lat":14.126048407258626,"lng":-89.29362760325067,"avgVisitMinutes":64,"estimatedCostEur":8,"score":2.95173956089152},{"id":"nueva-concepcion_9366","citySlug":"nueva-concepcion","name":"Playa Norte","category":"playa","lat":14.124869179593874,"lng":-89.30619988599695,"avgVisitMinutes":90,"estimatedCostEur":20,"score":4.837520727551402},{"id":"nueva-concepcion_9818","citySlug":"nueva-concepcion","name":"Museo Cultural de Nueva Concepción","category":"cultura","lat":14.132743130088368,"lng":-89.29587176139374,"avgVisitMinutes":43,"estimatedCostEur":6,"score":3.2285706348085315},{"id":"nahuizalco_4907","citySlug":"nahuizalco","name":"Mercado Gastronómico","category":"gastronomia","lat":13.782438932581819,"lng":-89.73696852341719,"avgVisitMinutes":81,"estimatedCostEur":6,"score":2.9473735466389206},{"id":"nahuizalco_5448","citySlug":"nahuizalco","name":"Playa Norte","category":"playa","lat":13.775944482383018,"lng":-89.73901954219927,"avgVisitMinutes":36,"estimatedCostEur":17,"score":3.90960193902648},{"id":"nahuizalco_4434","citySlug":"nahuizalco","name":"Centro Histórico","category":"historia","lat":13.76933753491701,"lng":-89.73524615526553,"avgVisitMinutes":23,"estimatedCostEur":18,"score":2.741352135241503},{"id":"nahuizalco_8679","citySlug":"nahuizalco","name":"Restaurante Típico de Nahuizalco","category":"gastronomia","lat":13.781123831567804,"lng":-89.73700964344984,"avgVisitMinutes":47,"estimatedCostEur":14,"score":0.6236387382282371},{"id":"nahuizalco_2192","citySlug":"nahuizalco","name":"Teatro Municipal","category":"cultura","lat":13.775537432450554,"lng":-89.74290044992344,"avgVisitMinutes":51,"estimatedCostEur":12,"score":1.7512317897589351},{"id":"nahuizalco_7206","citySlug":"nahuizalco","name":"Parque Central","category":"ocio","lat":13.78007093837197,"lng":-89.74206965185662,"avgVisitMinutes":78,"estimatedCostEur":9,"score":2.317354400359118},{"id":"moncagua_8545","citySlug":"moncagua","name":"Vista Alta de Moncagua","category":"mirador","lat":13.5383788168783,"lng":-88.24368078364915,"avgVisitMinutes":36,"estimatedCostEur":8,"score":1.4792475471236768},{"id":"moncagua_9910","citySlug":"moncagua","name":"Restaurante Típico de Moncagua","category":"gastronomia","lat":13.53763531086908,"lng":-88.24150891682609,"avgVisitMinutes":74,"estimatedCostEur":16,"score":1.1046669771446909},{"id":"moncagua_1570","citySlug":"moncagua","name":"Galería de Arte","category":"cultura","lat":13.53960766915249,"lng":-88.24488488583057,"avgVisitMinutes":33,"estimatedCostEur":18,"score":2.3080157174080163},{"id":"moncagua_1960","citySlug":"moncagua","name":"Playa Norte","category":"playa","lat":13.52680073456408,"lng":-88.24725473187875,"avgVisitMinutes":41,"estimatedCostEur":3,"score":4.285220997123542},{"id":"moncagua_3618","citySlug":"moncagua","name":"Teatro Municipal","category":"cultura","lat":13.5255532324536,"lng":-88.2417632184004,"avgVisitMinutes":49,"estimatedCostEur":13,"score":2.8380162190601412},{"id":"moncagua_1455","citySlug":"moncagua","name":"Museo Cultural de Moncagua","category":"cultura","lat":13.533662131091512,"lng":-88.24388029422047,"avgVisitMinutes":90,"estimatedCostEur":18,"score":0.5217003296078403},{"id":"moncagua_9518","citySlug":"moncagua","name":"Mirador de Moncagua","category":"mirador","lat":13.535478030183876,"lng":-88.25852155333627,"avgVisitMinutes":47,"estimatedCostEur":6,"score":4.278724686916093},{"id":"moncagua_7666","citySlug":"moncagua","name":"Castillo de Moncagua","category":"historia","lat":13.542432446987767,"lng":-88.25440313494154,"avgVisitMinutes":58,"estimatedCostEur":12,"score":1.7150356147787482},{"id":"moncagua_1343","citySlug":"moncagua","name":"Parque Central","category":"ocio","lat":13.538364294298786,"lng":-88.24799336601218,"avgVisitMinutes":46,"estimatedCostEur":17,"score":1.2410780712672633},{"id":"moncagua_5722","citySlug":"moncagua","name":"Teatro Municipal","category":"cultura","lat":13.538048678085257,"lng":-88.25915275609384,"avgVisitMinutes":73,"estimatedCostEur":6,"score":1.657784214699935},{"id":"moncagua_8853","citySlug":"moncagua","name":"Mirador de Moncagua","category":"mirador","lat":13.536693495958401,"lng":-88.25113321637362,"avgVisitMinutes":59,"estimatedCostEur":22,"score":0.9413954129794986},{"id":"moncagua_3628","citySlug":"moncagua","name":"Paseo Principal","category":"ocio","lat":13.54093361856986,"lng":-88.24236485263053,"avgVisitMinutes":25,"estimatedCostEur":9,"score":2.299661607479352},{"id":"metapan_7780","citySlug":"metapan","name":"Museo Cultural de Metapán","category":"cultura","lat":14.339494209008489,"lng":-89.44405462127736,"avgVisitMinutes":53,"estimatedCostEur":14,"score":3.889039756923172},{"id":"metapan_8864","citySlug":"metapan","name":"Murallas de Metapán","category":"historia","lat":14.341670570063616,"lng":-89.44811734585045,"avgVisitMinutes":88,"estimatedCostEur":11,"score":1.2203689307998595},{"id":"metapan_9960","citySlug":"metapan","name":"Restaurante Típico de Metapán","category":"gastronomia","lat":14.32373014508903,"lng":-89.4497333050769,"avgVisitMinutes":61,"estimatedCostEur":11,"score":0.6674734032993868},{"id":"metapan_1298","citySlug":"metapan","name":"Punto Panorámico","category":"mirador","lat":14.328339125624654,"lng":-89.44533393151313,"avgVisitMinutes":39,"estimatedCostEur":13,"score":4.909226236886075},{"id":"metapan_1680","citySlug":"metapan","name":"Centro Histórico","category":"historia","lat":14.335516727304297,"lng":-89.44625739257849,"avgVisitMinutes":76,"estimatedCostEur":20,"score":3.0253418907942544},{"id":"metapan_5830","citySlug":"metapan","name":"Playa Sur","category":"playa","lat":14.337731047678414,"lng":-89.44480341314363,"avgVisitMinutes":36,"estimatedCostEur":23,"score":2.3573000330678076},{"id":"metapan_7206","citySlug":"metapan","name":"Playa Central","category":"playa","lat":14.331633354238745,"lng":-89.44786001504028,"avgVisitMinutes":90,"estimatedCostEur":14,"score":4.54397546210307},{"id":"metapan_9956","citySlug":"metapan","name":"Punto Panorámico","category":"mirador","lat":14.333409554388968,"lng":-89.44138193990383,"avgVisitMinutes":50,"estimatedCostEur":0,"score":4.205092071625167},{"id":"metapan_6392","citySlug":"metapan","name":"Teatro Municipal","category":"cultura","lat":14.323935876619267,"lng":-89.44327308410197,"avgVisitMinutes":52,"estimatedCostEur":10,"score":3.7689158678755943},{"id":"metapan_3018","citySlug":"metapan","name":"Mercado Gastronómico","category":"gastronomia","lat":14.334809545539153,"lng":-89.44554238250525,"avgVisitMinutes":68,"estimatedCostEur":14,"score":4.700830218692522},{"id":"mejicanos_9135","citySlug":"mejicanos","name":"Mercado Gastronómico","category":"gastronomia","lat":13.733093873713756,"lng":-89.18251753622562,"avgVisitMinutes":24,"estimatedCostEur":2,"score":1.0136652700077435},{"id":"mejicanos_2109","citySlug":"mejicanos","name":"Museo Local de Mejicanos","category":"historia","lat":13.72098010783574,"lng":-89.18974770736862,"avgVisitMinutes":55,"estimatedCostEur":23,"score":2.0804906349286947},{"id":"mejicanos_3763","citySlug":"mejicanos","name":"Playa Sur","category":"playa","lat":13.732518384525576,"lng":-89.18288654075975,"avgVisitMinutes":60,"estimatedCostEur":6,"score":4.980232603820672},{"id":"mejicanos_2016","citySlug":"mejicanos","name":"Punto Panorámico","category":"mirador","lat":13.71512942826868,"lng":-89.18985821675282,"avgVisitMinutes":73,"estimatedCostEur":17,"score":3.2154833205661846},{"id":"mejicanos_5341","citySlug":"mejicanos","name":"Parque Central","category":"ocio","lat":13.725340845175081,"lng":-89.1856935398338,"avgVisitMinutes":36,"estimatedCostEur":14,"score":3.9808768390598606},{"id":"mejicanos_3674","citySlug":"mejicanos","name":"Restaurante Típico de Mejicanos","category":"gastronomia","lat":13.718903847615358,"lng":-89.19567209445783,"avgVisitMinutes":80,"estimatedCostEur":22,"score":1.9902053542967493},{"id":"mejicanos_3217","citySlug":"mejicanos","name":"Galería de Arte","category":"cultura","lat":13.732387913420363,"lng":-89.18098176204514,"avgVisitMinutes":42,"estimatedCostEur":24,"score":4.863627409010108},{"id":"mejicanos_5508","citySlug":"mejicanos","name":"Ruta de Tapas","category":"gastronomia","lat":13.730249522838214,"lng":-89.18576012184243,"avgVisitMinutes":85,"estimatedCostEur":20,"score":4.32204775954638},{"id":"mejicanos_3840","citySlug":"mejicanos","name":"Playa Norte","category":"playa","lat":13.725400094667227,"lng":-89.18768534010674,"avgVisitMinutes":88,"estimatedCostEur":5,"score":2.118111093150963},{"id":"lolotique_2021","citySlug":"lolotique","name":"Playa Central","category":"playa","lat":13.541920097172007,"lng":-88.34283000853829,"avgVisitMinutes":33,"estimatedCostEur":2,"score":4.537489412594638},{"id":"lolotique_5172","citySlug":"lolotique","name":"Zona Comercial","category":"ocio","lat":13.541239615870499,"lng":-88.35808289327677,"avgVisitMinutes":42,"estimatedCostEur":4,"score":2.3172208988422702},{"id":"lolotique_8907","citySlug":"lolotique","name":"Zona Comercial","category":"ocio","lat":13.551475948740897,"lng":-88.34212254156995,"avgVisitMinutes":85,"estimatedCostEur":25,"score":3.3534795368611015},{"id":"lolotique_6554","citySlug":"lolotique","name":"Castillo de Lolotique","category":"historia","lat":13.540210524588328,"lng":-88.35303917335871,"avgVisitMinutes":31,"estimatedCostEur":24,"score":1.5850608915567466},{"id":"lolotique_9006","citySlug":"lolotique","name":"Parque Central","category":"ocio","lat":13.557331379124687,"lng":-88.35486386669871,"avgVisitMinutes":39,"estimatedCostEur":17,"score":2.6798743189325798},{"id":"lolotique_9955","citySlug":"lolotique","name":"Playa Central","category":"playa","lat":13.55638308655176,"lng":-88.3568161538974,"avgVisitMinutes":70,"estimatedCostEur":23,"score":4.955620915732168},