{"country":"TZ","pois":[{"id":"zanzibar_8661","citySlug":"zanzibar","name":"Playa Central","category":"playa","lat":-6.157696381018634,"lng":39.19113802090623,"avgVisitMinutes":82,"estimatedCostEur":8,"score":1.9154378930080098},{"id":"zanzibar_2088","citySlug":"zanzibar","name":"Castillo de Zanzibar","category":"historia","lat":-6.163632484097767,"lng":39.19688172676015,"avgVisitMinutes":79,"estimatedCostEur":19,"score":3.151263729919196},{"id":"zanzibar_8172","citySlug":"zanzibar","name":"Mirador de Zanzibar","category":"mirador","lat":-6.155883718915659,"lng":39.19368548120889,"avgVisitMinutes":39,"estimatedCostEur":15,"score":0.8785552803756591},{"id":"zanzibar_6456","citySlug":"zanzibar","name":"Centro de Arte de Zanzibar","category":"cultura","lat":-6.157205255287662,"lng":39.20445355698302,"avgVisitMinutes":71,"estimatedCostEur":5,"score":3.679684686088885},{"id":"zanzibar_8649","citySlug":"zanzibar","name":"Ruta de Tapas","category":"gastronomia","lat":-6.156028636899344,"lng":39.199547962981846,"avgVisitMinutes":54,"estimatedCostEur":20,"score":1.1390708061808152},{"id":"zanzibar_1861","citySlug":"zanzibar","name":"Playa Central","category":"playa","lat":-6.1607258797379965,"lng":39.19169328440691,"avgVisitMinutes":51,"estimatedCostEur":24,"score":3.7283862939021777},{"id":"zanzibar_7555","citySlug":"zanzibar","name":"Teatro Municipal","category":"cultura","lat":-6.157989863113093,"lng":39.18827018934018,"avgVisitMinutes":22,"estimatedCostEur":5,"score":1.3436224072459737},{"id":"zanzibar_6680","citySlug":"zanzibar","name":"Teatro Municipal","category":"cultura","lat":-6.169066211721863,"lng":39.18979286270974,"avgVisitMinutes":67,"estimatedCostEur":11,"score":1.185820207813586},{"id":"zanzibar_5923","citySlug":"zanzibar","name":"Zona Comercial","category":"ocio","lat":-6.1609811646202735,"lng":39.20174505282541,"avgVisitMinutes":45,"estimatedCostEur":15,"score":3.303432343831598},{"id":"zanzibar_7605","citySlug":"zanzibar","name":"Centro de Arte de Zanzibar","category":"cultura","lat":-6.163550976905087,"lng":39.194244329967574,"avgVisitMinutes":58,"estimatedCostEur":7,"score":1.7813700023123245},{"id":"zanzibar_8724","citySlug":"zanzibar","name":"Zona Comercial","category":"ocio","lat":-6.160743542259424,"lng":39.18934039506707,"avgVisitMinutes":39,"estimatedCostEur":23,"score":4.593936964105755},{"id":"wete_5742","citySlug":"wete","name":"Castillo de Wete","category":"historia","lat":-5.056565067909618,"lng":39.73344920793889,"avgVisitMinutes":46,"estimatedCostEur":6,"score":1.3842240604474707},{"id":"wete_1028","citySlug":"wete","name":"Vista Alta de Wete","category":"mirador","lat":-5.056844436085564,"lng":39.72381304064853,"avgVisitMinutes":76,"estimatedCostEur":13,"score":1.6636703577205911},{"id":"wete_5986","citySlug":"wete","name":"Playa Sur","category":"playa","lat":-5.063056268338897,"lng":39.72307579708984,"avgVisitMinutes":35,"estimatedCostEur":23,"score":3.6360587622139753},{"id":"wete_3394","citySlug":"wete","name":"Playa Sur","category":"playa","lat":-5.060316789181298,"lng":39.73134994410638,"avgVisitMinutes":27,"estimatedCostEur":19,"score":4.939436606989796},{"id":"wete_4150","citySlug":"wete","name":"Mirador de Wete","category":"mirador","lat":-5.0642424283179714,"lng":39.734343021409025,"avgVisitMinutes":89,"estimatedCostEur":7,"score":4.57646200281271},{"id":"wete_5536","citySlug":"wete","name":"Zona Comercial","category":"ocio","lat":-5.048957444656649,"lng":39.73833684529466,"avgVisitMinutes":73,"estimatedCostEur":13,"score":4.534064510550351},{"id":"wete_6137","citySlug":"wete","name":"Mirador de Wete","category":"mirador","lat":-5.058700090402327,"lng":39.727035242205595,"avgVisitMinutes":56,"estimatedCostEur":7,"score":3.8107001650880408},{"id":"vwawa_9669","citySlug":"vwawa","name":"Playa Sur","category":"playa","lat":-9.105033255123619,"lng":32.934745819687926,"avgVisitMinutes":32,"estimatedCostEur":16,"score":4.720393205511175},{"id":"vwawa_6086","citySlug":"vwawa","name":"Mercado Gastronómico","category":"gastronomia","lat":-9.102465263493366,"lng":32.93056167837295,"avgVisitMinutes":27,"estimatedCostEur":17,"score":3.219012611388962},{"id":"vwawa_8338","citySlug":"vwawa","name":"Paseo Principal","category":"ocio","lat":-9.10713199229758,"lng":32.92971728167166,"avgVisitMinutes":46,"estimatedCostEur":9,"score":2.606666261722497},{"id":"vwawa_1913","citySlug":"vwawa","name":"Restaurante Típico de Vwawa","category":"gastronomia","lat":-9.115209402373116,"lng":32.943366115942325,"avgVisitMinutes":20,"estimatedCostEur":19,"score":3.5693308077646195},{"id":"vwawa_5186","citySlug":"vwawa","name":"Ruta de Tapas","category":"gastronomia","lat":-9.11521317934441,"lng":32.93815043049358,"avgVisitMinutes":47,"estimatedCostEur":11,"score":2.329954104143454},{"id":"vwawa_8108","citySlug":"vwawa","name":"Vista Alta de Vwawa","category":"mirador","lat":-9.109324813208023,"lng":32.93460777600241,"avgVisitMinutes":43,"estimatedCostEur":18,"score":2.6482529994854147},{"id":"vwawa_1086","citySlug":"vwawa","name":"Ruta de Tapas","category":"gastronomia","lat":-9.112391308972082,"lng":32.92505248357082,"avgVisitMinutes":61,"estimatedCostEur":6,"score":2.091956485065216},{"id":"vwawa_8979","citySlug":"vwawa","name":"Castillo de Vwawa","category":"historia","lat":-9.109217949786569,"lng":32.92865290076391,"avgVisitMinutes":51,"estimatedCostEur":11,"score":3.779833294702696},{"id":"vwawa_3889","citySlug":"vwawa","name":"Ruta de Tapas","category":"gastronomia","lat":-9.099163039135345,"lng":32.940428400905496,"avgVisitMinutes":47,"estimatedCostEur":21,"score":3.2801887570421107},{"id":"vwawa_3768","citySlug":"vwawa","name":"Centro Histórico","category":"historia","lat":-9.117574265511717,"lng":32.94191564776046,"avgVisitMinutes":74,"estimatedCostEur":22,"score":4.827692477626103},{"id":"vikindu_2242","citySlug":"vikindu","name":"Zona Comercial","category":"ocio","lat":-7.007306473429963,"lng":39.30680411329006,"avgVisitMinutes":90,"estimatedCostEur":22,"score":2.210122482932114},{"id":"vikindu_4365","citySlug":"vikindu","name":"Playa Norte","category":"playa","lat":-6.998613532665115,"lng":39.2994996060106,"avgVisitMinutes":37,"estimatedCostEur":7,"score":0.8689952923710802},{"id":"vikindu_4826","citySlug":"vikindu","name":"Murallas de Vikindu","category":"historia","lat":-7.014809343500323,"lng":39.302185370503,"avgVisitMinutes":61,"estimatedCostEur":15,"score":3.398206966363013},{"id":"vikindu_4766","citySlug":"vikindu","name":"Ruta de Tapas","category":"gastronomia","lat":-7.013492161462823,"lng":39.29577335444728,"avgVisitMinutes":90,"estimatedCostEur":15,"score":2.0979973912546224},{"id":"vikindu_2362","citySlug":"vikindu","name":"Parque Central","category":"ocio","lat":-7.006600288969485,"lng":39.30156871259628,"avgVisitMinutes":77,"estimatedCostEur":15,"score":4.819802638268874},{"id":"vikindu_7965","citySlug":"vikindu","name":"Playa Central","category":"playa","lat":-6.997513713423468,"lng":39.29106926263515,"avgVisitMinutes":22,"estimatedCostEur":5,"score":0.9861553900917808},{"id":"uyovu_7365","citySlug":"uyovu","name":"Galería de Arte","category":"cultura","lat":-3.278978359666839,"lng":31.53441578351345,"avgVisitMinutes":32,"estimatedCostEur":17,"score":1.6696964011240283},{"id":"uyovu_1606","citySlug":"uyovu","name":"Vista Alta de Uyovu","category":"mirador","lat":-3.2865318682193885,"lng":31.521227255822005,"avgVisitMinutes":56,"estimatedCostEur":24,"score":0.746190715999329},{"id":"uyovu_4137","citySlug":"uyovu","name":"Playa Sur","category":"playa","lat":-3.2811348827320863,"lng":31.52905420650005,"avgVisitMinutes":40,"estimatedCostEur":3,"score":0.8113512149085771},{"id":"uyovu_6857","citySlug":"uyovu","name":"Punto Panorámico","category":"mirador","lat":-3.2746430350066076,"lng":31.530793836707772,"avgVisitMinutes":73,"estimatedCostEur":0,"score":1.1117152334832205},{"id":"uyovu_3794","citySlug":"uyovu","name":"Mirador de Uyovu","category":"mirador","lat":-3.2919051633690475,"lng":31.5306270135355,"avgVisitMinutes":20,"estimatedCostEur":13,"score":3.5624347282836086},{"id":"uwelini_9535","citySlug":"uwelini","name":"Playa Norte","category":"playa","lat":-5.399639339114343,"lng":39.67504912772692,"avgVisitMinutes":84,"estimatedCostEur":23,"score":3.9015969314442622},{"id":"uwelini_4729","citySlug":"uwelini","name":"Mercado Gastronómico","category":"gastronomia","lat":-5.407447046849519,"lng":39.677646198204386,"avgVisitMinutes":26,"estimatedCostEur":13,"score":4.4926038632900545},{"id":"uwelini_8935","citySlug":"uwelini","name":"Teatro Municipal","category":"cultura","lat":-5.406241239088915,"lng":39.68617622160138,"avgVisitMinutes":23,"estimatedCostEur":11,"score":4.2833124016900905},{"id":"uwelini_8359","citySlug":"uwelini","name":"Castillo de Uwelini","category":"historia","lat":-5.409347751184056,"lng":39.68583714308667,"avgVisitMinutes":40,"estimatedCostEur":12,"score":1.2152702698217235},{"id":"uwelini_7686","citySlug":"uwelini","name":"Playa Norte","category":"playa","lat":-5.403479549146249,"lng":39.68616502706865,"avgVisitMinutes":56,"estimatedCostEur":19,"score":1.1288541183031415},{"id":"uwelini_7514","citySlug":"uwelini","name":"Paseo Principal","category":"ocio","lat":-5.399783524832693,"lng":39.67340400902212,"avgVisitMinutes":21,"estimatedCostEur":21,"score":2.930103856771294},{"id":"uwelini_5739","citySlug":"uwelini","name":"Punto Panorámico","category":"mirador","lat":-5.397517636912167,"lng":39.69137496177074,"avgVisitMinutes":44,"estimatedCostEur":12,"score":3.94051612926886},{"id":"uwelini_5753","citySlug":"uwelini","name":"Mercado Gastronómico","category":"gastronomia","lat":-5.398342878593513,"lng":39.68897383750403,"avgVisitMinutes":75,"estimatedCostEur":0,"score":4.201692490429053},{"id":"uwelini_8353","citySlug":"uwelini","name":"Galería de Arte","category":"cultura","lat":-5.396863545265847,"lng":39.67846029088002,"avgVisitMinutes":87,"estimatedCostEur":21,"score":0.5205273742704828},{"id":"uwelini_5548","citySlug":"uwelini","name":"Paseo Principal","category":"ocio","lat":-5.394302097364189,"lng":39.674490948706136,"avgVisitMinutes":52,"estimatedCostEur":12,"score":4.856141817285855},{"id":"uwelini_9155","citySlug":"uwelini","name":"Castillo de Uwelini","category":"historia","lat":-5.394420335487012,"lng":39.681368659784454,"avgVisitMinutes":81,"estimatedCostEur":4,"score":4.642063124580497},{"id":"uwelini_2001","citySlug":"uwelini","name":"Paseo Principal","category":"ocio","lat":-5.408834021489332,"lng":39.68941929465192,"avgVisitMinutes":60,"estimatedCostEur":11,"score":3.5184407394684887},{"id":"uvinza_5054","citySlug":"uvinza","name":"Castillo de Uvinza","category":"historia","lat":-5.107121101790855,"lng":30.388275107176323,"avgVisitMinutes":82,"estimatedCostEur":25,"score":4.795939177654098},{"id":"uvinza_3458","citySlug":"uvinza","name":"Restaurante Típico de Uvinza","category":"gastronomia","lat":-5.097709606152565,"lng":30.395345519755395,"avgVisitMinutes":44,"estimatedCostEur":8,"score":2.4902960246978743},{"id":"uvinza_5976","citySlug":"uvinza","name":"Playa Norte","category":"playa","lat":-5.108834248703257,"lng":30.3829926644812,"avgVisitMinutes":73,"estimatedCostEur":8,"score":2.469854727034445},{"id":"uvinza_8397","citySlug":"uvinza","name":"Ruta de Tapas","category":"gastronomia","lat":-5.0985152006459895,"lng":30.38611816309721,"avgVisitMinutes":60,"estimatedCostEur":12,"score":3.5450084804936157},{"id":"uvinza_4392","citySlug":"uvinza","name":"Playa Norte","category":"playa","lat":-5.097743077876609,"lng":30.390957811951957,"avgVisitMinutes":80,"estimatedCostEur":23,"score":2.0741269304628873},{"id":"uvinza_4965","citySlug":"uvinza","name":"Paseo Principal","category":"ocio","lat":-5.112776398773645,"lng":30.38505456864673,"avgVisitMinutes":66,"estimatedCostEur":19,"score":2.5330503844521886},{"id":"uvinza_6166","citySlug":"uvinza","name":"Castillo de Uvinza","category":"historia","lat":-5.106052002784361,"lng":30.393563335167244,"avgVisitMinutes":48,"estimatedCostEur":8,"score":3.9034719491113092},{"id":"utete_7618","citySlug":"utete","name":"Castillo de Utete","category":"historia","lat":-7.979094413087475,"lng":38.76412081829259,"avgVisitMinutes":65,"estimatedCostEur":15,"score":3.4107354951719087},{"id":"utete_1027","citySlug":"utete","name":"Mercado Gastronómico","category":"gastronomia","lat":-7.9864970826666974,"lng":38.765605695268796,"avgVisitMinutes":55,"estimatedCostEur":9,"score":4.663206050136486},{"id":"utete_7776","citySlug":"utete","name":"Mirador de Utete","category":"mirador","lat":-7.980730074447731,"lng":38.75732929376296,"avgVisitMinutes":48,"estimatedCostEur":14,"score":1.9879372145996237},{"id":"utete_8780","citySlug":"utete","name":"Teatro Municipal","category":"cultura","lat":-7.9873572502604615,"lng":38.75626447860608,"avgVisitMinutes":65,"estimatedCostEur":6,"score":3.992894786831682},{"id":"utete_9628","citySlug":"utete","name":"Punto Panorámico","category":"mirador","lat":-7.984170131989847,"lng":38.76153463075287,"avgVisitMinutes":28,"estimatedCostEur":17,"score":1.2484911512820667},{"id":"utete_9278","citySlug":"utete","name":"Restaurante Típico de Utete","category":"gastronomia","lat":-7.98544205885582,"lng":38.74913902426692,"avgVisitMinutes":49,"estimatedCostEur":8,"score":3.9602394720462},{"id":"utete_3904","citySlug":"utete","name":"Museo Cultural de Utete","category":"cultura","lat":-7.984227744627081,"lng":38.74930852634668,"avgVisitMinutes":72,"estimatedCostEur":18,"score":3.2324849044510495},{"id":"utete_6031","citySlug":"utete","name":"Galería de Arte","category":"cultura","lat":-7.98338659417785,"lng":38.75843338401804,"avgVisitMinutes":25,"estimatedCostEur":11,"score":2.151585739969025},{"id":"utete_3804","citySlug":"utete","name":"Murallas de Utete","category":"historia","lat":-7.992879068034173,"lng":38.755939950520656,"avgVisitMinutes":89,"estimatedCostEur":19,"score":3.378602204703914},{"id":"utete_9959","citySlug":"utete","name":"Zona Comercial","category":"ocio","lat":-7.988677692771362,"lng":38.76678657657014,"avgVisitMinutes":28,"estimatedCostEur":8,"score":1.6651810704240404},{"id":"utete_1300","citySlug":"utete","name":"Vista Alta de Utete","category":"mirador","lat":-7.986765504380372,"lng":38.753310523640494,"avgVisitMinutes":23,"estimatedCostEur":3,"score":4.1925220778035985},{"id":"utete_5739","citySlug":"utete","name":"Playa Sur","category":"playa","lat":-7.990426957643969,"lng":38.75868614699868,"avgVisitMinutes":85,"estimatedCostEur":6,"score":1.724543835777161},{"id":"utengule_3847","citySlug":"utengule","name":"Mirador de Utengule","category":"mirador","lat":-8.892302246153795,"lng":33.33778331417407,"avgVisitMinutes":76,"estimatedCostEur":2,"score":0.5282640653341546},{"id":"utengule_2548","citySlug":"utengule","name":"Paseo Principal","category":"ocio","lat":-8.900039281606071,"lng":33.34002321668893,"avgVisitMinutes":83,"estimatedCostEur":23,"score":3.482218593384658},{"id":"utengule_4499","citySlug":"utengule","name":"Paseo Principal","category":"ocio","lat":-8.899860516065047,"lng":33.33460029711814,"avgVisitMinutes":41,"estimatedCostEur":2,"score":4.7967607660607445},{"id":"utengule_7522","citySlug":"utengule","name":"Galería de Arte","category":"cultura","lat":-8.890045122266953,"lng":33.32604337140579,"avgVisitMinutes":42,"estimatedCostEur":16,"score":3.4904819541540584},{"id":"utengule_7963","citySlug":"utengule","name":"Mirador de Utengule","category":"mirador","lat":-8.895232693398317,"lng":33.33821291743467,"avgVisitMinutes":69,"estimatedCostEur":0,"score":3.282638321853944},{"id":"usoke_8856","citySlug":"usoke","name":"Galería de Arte","category":"cultura","lat":-5.160597827618919,"lng":32.35995333752788,"avgVisitMinutes":51,"estimatedCostEur":16,"score":4.289975770013152},{"id":"usoke_4889","citySlug":"usoke","name":"Museo Local de Usoke","category":"historia","lat":-5.167903035787807,"lng":32.348957062551065,"avgVisitMinutes":64,"estimatedCostEur":8,"score":1.2284771580307527},{"id":"usoke_6560","citySlug":"usoke","name":"Punto Panorámico","category":"mirador","lat":-5.157759801239947,"lng":32.34980485930167,"avgVisitMinutes":52,"estimatedCostEur":20,"score":1.973073602566731},{"id":"usoke_5380","citySlug":"usoke","name":"Centro de Arte de Usoke","category":"cultura","lat":-5.161339245801484,"lng":32.34789624807835,"avgVisitMinutes":75,"estimatedCostEur":7,"score":3.6280547173193134},{"id":"usoke_5471","citySlug":"usoke","name":"Galería de Arte","category":"cultura","lat":-5.156736047836549,"lng":32.353687007511446,"avgVisitMinutes":37,"estimatedCostEur":18,"score":4.514670192649225},{"id":"usoke_7300","citySlug":"usoke","name":"Zona Comercial","category":"ocio","lat":-5.168982708425155,"lng":32.34027678482715,"avgVisitMinutes":59,"estimatedCostEur":13,"score":1.7811415293889707},{"id":"ushirombo_1381","citySlug":"ushirombo","name":"Centro Histórico","category":"historia","lat":-3.4824958580695475,"lng":31.963759907906436,"avgVisitMinutes":41,"estimatedCostEur":7,"score":1.8872268734895343},{"id":"ushirombo_5433","citySlug":"ushirombo","name":"Murallas de Ushirombo","category":"historia","lat":-3.490406211661224,"lng":31.960544862527332,"avgVisitMinutes":44,"estimatedCostEur":5,"score":3.491923871202975},{"id":"ushirombo_6296","citySlug":"ushirombo","name":"Playa Sur","category":"playa","lat":-3.4884309303738714,"lng":31.96969980684565,"avgVisitMinutes":32,"estimatedCostEur":11,"score":2.072730166607004},{"id":"ushirombo_9266","citySlug":"ushirombo","name":"Restaurante Típico de Ushirombo","category":"gastronomia","lat":-3.4959794611808546,"lng":31.962118749274662,"avgVisitMinutes":88,"estimatedCostEur":13,"score":1.4516237033049724},{"id":"ushirombo_8059","citySlug":"ushirombo","name":"Mercado Gastronómico","category":"gastronomia","lat":-3.484875916865072,"lng":31.969575965129003,"avgVisitMinutes":90,"estimatedCostEur":15,"score":1.340686805671023},{"id":"ushirombo_5318","citySlug":"ushirombo","name":"Zona Comercial","category":"ocio","lat":-3.4905995293524477,"lng":31.96618464594232,"avgVisitMinutes":24,"estimatedCostEur":21,"score":0.7086067284471121},{"id":"ushirombo_2414","citySlug":"ushirombo","name":"Punto Panorámico","category":"mirador","lat":-3.48574374536018,"lng":31.965505571650617,"avgVisitMinutes":27,"estimatedCostEur":7,"score":1.474037795533333},{"id":"ushirombo_8634","citySlug":"ushirombo","name":"Mirador de Ushirombo","category":"mirador","lat":-3.4997148574733368,"lng":31.972216349238277,"avgVisitMinutes":53,"estimatedCostEur":24,"score":4.862698765658472},{"id":"ushirombo_9893","citySlug":"ushirombo","name":"Mercado Gastronómico","category":"gastronomia","lat":-3.490946650873337,"lng":31.963694394570165,"avgVisitMinutes":55,"estimatedCostEur":4,"score":4.811724846764568},{"id":"ushirombo_9957","citySlug":"ushirombo","name":"Centro de Arte de Ushirombo","category":"cultura","lat":-3.4819845688897786,"lng":31.9696720286088,"avgVisitMinutes":24,"estimatedCostEur":5,"score":0.95103772359141},{"id":"ushirombo_3444","citySlug":"ushirombo","name":"Zona Comercial","category":"ocio","lat":-3.501849085949026,"lng":31.963157915175,"avgVisitMinutes":22,"estimatedCostEur":20,"score":2.3315821982936002},{"id":"ushirombo_8606","citySlug":"ushirombo","name":"Castillo de Ushirombo","category":"historia","lat":-3.4931588951020616,"lng":31.962345079643182,"avgVisitMinutes":35,"estimatedCostEur":25,"score":4.367302006506609},{"id":"usevia_1826","citySlug":"usevia","name":"Parque Central","category":"ocio","lat":-7.0926307970781055,"lng":31.22413889064219,"avgVisitMinutes":30,"estimatedCostEur":21,"score":3.140449213020147},{"id":"usevia_8455","citySlug":"usevia","name":"Playa Sur","category":"playa","lat":-7.109724633366673,"lng":31.227338012835535,"avgVisitMinutes":38,"estimatedCostEur":20,"score":1.3064966832781182},{"id":"usevia_9160","citySlug":"usevia","name":"Restaurante Típico de Usevia","category":"gastronomia","lat":-7.098642060859617,"lng":31.23354668920812,"avgVisitMinutes":35,"estimatedCostEur":19,"score":1.5047905975500653},{"id":"usevia_7318","citySlug":"usevia","name":"Playa Central","category":"playa","lat":-7.093191859311799,"lng":31.243237990478658,"avgVisitMinutes":30,"estimatedCostEur":18,"score":2.1067424720177574},{"id":"usevia_6394","citySlug":"usevia","name":"Playa Norte","category":"playa","lat":-7.096635793706904,"lng":31.232412601401908,"avgVisitMinutes":72,"estimatedCostEur":24,"score":1.7952468822880006},{"id":"usangi_6892","citySlug":"usangi","name":"Playa Sur","category":"playa","lat":-3.703387321864303,"lng":37.661066300624945,"avgVisitMinutes":29,"estimatedCostEur":15,"score":3.3256674521077305},{"id":"usangi_1725","citySlug":"usangi","name":"Zona Comercial","category":"ocio","lat":-3.7055040651584292,"lng":37.67026122056069,"avgVisitMinutes":40,"estimatedCostEur":10,"score":3.5661086252651026},{"id":"usangi_6952","citySlug":"usangi","name":"Playa Norte","category":"playa","lat":-3.6911357259373045,"lng":37.66712949373464,"avgVisitMinutes":62,"estimatedCostEur":2,"score":4.873989582819627},{"id":"usangi_1307","citySlug":"usangi","name":"Museo Cultural de Usangi","category":"cultura","lat":-3.709625668006131,"lng":37.6692237729116,"avgVisitMinutes":30,"estimatedCostEur":0,"score":1.2771641617927294},{"id":"usangi_9239","citySlug":"usangi","name":"Parque Central","category":"ocio","lat":-3.6957399977855943,"lng":37.662312054592185,"avgVisitMinutes":58,"estimatedCostEur":11,"score":3.322007337192257},{"id":"usangi_2646","citySlug":"usangi","name":"Playa Norte","category":"playa","lat":-3.6919089652152177,"lng":37.67444421445378,"avgVisitMinutes":41,"estimatedCostEur":23,"score":1.0212776088482767},{"id":"usangi_3580","citySlug":"usangi","name":"Punto Panorámico","category":"mirador","lat":-3.6963696506755186,"lng":37.658335956877515,"avgVisitMinutes":75,"estimatedCostEur":11,"score":2.8189168626066694},{"id":"usangi_9334","citySlug":"usangi","name":"Punto Panorámico","category":"mirador","lat":-3.7045367628695414,"lng":37.67418336623927,"avgVisitMinutes":64,"estimatedCostEur":17,"score":1.848670604722423},{"id":"usangi_2553","citySlug":"usangi","name":"Castillo de Usangi","category":"historia","lat":-3.7066390255127177,"lng":37.66903412840578,"avgVisitMinutes":29,"estimatedCostEur":5,"score":2.6533762631522295},{"id":"usagara_8370","citySlug":"usagara","name":"Galería de Arte","category":"cultura","lat":-2.682997641352925,"lng":32.997335077333474,"avgVisitMinutes":75,"estimatedCostEur":11,"score":0.5623029025095647},{"id":"usagara_6732","citySlug":"usagara","name":"Vista Alta de Usagara","category":"mirador","lat":-2.6922988198846958,"lng":33.00511208142254,"avgVisitMinutes":75,"estimatedCostEur":12,"score":2.935665204149013},{"id":"usagara_5432","citySlug":"usagara","name":"Museo Cultural de Usagara","category":"cultura","lat":-2.679406989260063,"lng":32.99092773054102,"avgVisitMinutes":47,"estimatedCostEur":21,"score":1.0938147700849703},{"id":"usagara_1125","citySlug":"usagara","name":"Parque Central","category":"ocio","lat":-2.6792434608696922,"lng":32.99006089221189,"avgVisitMinutes":63,"estimatedCostEur":15,"score":3.9884562627219053},{"id":"usagara_2088","citySlug":"usagara","name":"Centro de Arte de Usagara","category":"cultura","lat":-2.6780694210904286,"lng":32.99802987165043,"avgVisitMinutes":39,"estimatedCostEur":7,"score":2.1449997727234154},{"id":"usagara_6474","citySlug":"usagara","name":"Mercado Gastronómico","category":"gastronomia","lat":-2.680807119522347,"lng":33.00142134775792,"avgVisitMinutes":65,"estimatedCostEur":5,"score":0.8689588222812141},{"id":"usagara_7321","citySlug":"usagara","name":"Restaurante Típico de Usagara","category":"gastronomia","lat":-2.6771071049533175,"lng":32.99172301968924,"avgVisitMinutes":62,"estimatedCostEur":22,"score":2.2067964447863866},{"id":"usa-river_5542","citySlug":"usa-river","name":"Punto Panorámico","category":"mirador","lat":-3.3706145151127553,"lng":36.85707291254101,"avgVisitMinutes":53,"estimatedCostEur":4,"score":0.875244185274765},{"id":"usa-river_6039","citySlug":"usa-river","name":"Punto Panorámico","category":"mirador","lat":-3.365500891928113,"lng":36.8569305569008,"avgVisitMinutes":72,"estimatedCostEur":7,"score":0.6349929967672898},{"id":"usa-river_4585","citySlug":"usa-river","name":"Vista Alta de Usa River","category":"mirador","lat":-3.3700526040932575,"lng":36.858978870097594,"avgVisitMinutes":81,"estimatedCostEur":12,"score":4.6494091698604665},{"id":"usa-river_9618","citySlug":"usa-river","name":"Mirador de Usa River","category":"mirador","lat":-3.3607489667343793,"lng":36.84246155776508,"avgVisitMinutes":71,"estimatedCostEur":21,"score":3.0327827636579796},{"id":"usa-river_2679","citySlug":"usa-river","name":"Punto Panorámico","category":"mirador","lat":-3.3587485454368675,"lng":36.841809889099835,"avgVisitMinutes":37,"estimatedCostEur":20,"score":0.7378613355637641},{"id":"usa-river_7304","citySlug":"usa-river","name":"Playa Sur","category":"playa","lat":-3.3762009310928383,"lng":36.842193300491786,"avgVisitMinutes":77,"estimatedCostEur":19,"score":3.652247873572265},{"id":"usa-river_6598","citySlug":"usa-river","name":"Vista Alta de Usa River","category":"mirador","lat":-3.3634642938721355,"lng":36.85601251361004,"avgVisitMinutes":33,"estimatedCostEur":25,"score":3.7553763870912262},{"id":"usa-river_8654","citySlug":"usa-river","name":"Galería de Arte","category":"cultura","lat":-3.362468467869424,"lng":36.854895548590264,"avgVisitMinutes":54,"estimatedCostEur":18,"score":4.275154937612328},{"id":"usa-river_6179","citySlug":"usa-river","name":"Restaurante Típico de Usa River","category":"gastronomia","lat":-3.3741182883475034,"lng":36.853081597425785,"avgVisitMinutes":71,"estimatedCostEur":0,"score":0.7094236911061318},{"id":"usa-river_4653","citySlug":"usa-river","name":"Iglesia de Usa River","category":"historia","lat":-3.3702862796852315,"lng":36.84797452080641,"avgVisitMinutes":58,"estimatedCostEur":24,"score":1.007339303618945},{"id":"usa-river_9322","citySlug":"usa-river","name":"Ruta de Tapas","category":"gastronomia","lat":-3.3679417548368735,"lng":36.845290015542346,"avgVisitMinutes":84,"estimatedCostEur":21,"score":3.121747343946667},{"id":"usa-river_9016","citySlug":"usa-river","name":"Parque Central","category":"ocio","lat":-3.36044048669171,"lng":36.84692222202581,"avgVisitMinutes":66,"estimatedCostEur":15,"score":3.250981975357974},{"id":"urunda_3105","citySlug":"urunda","name":"Museo Cultural de Urunda","category":"cultura","lat":-8.642130719990147,"lng":34.29915459531693,"avgVisitMinutes":46,"estimatedCostEur":2,"score":3.6054553229320674},{"id":"urunda_9275","citySlug":"urunda","name":"Teatro Municipal","category":"cultura","lat":-8.64145798444978,"lng":34.29716600908753,"avgVisitMinutes":63,"estimatedCostEur":3,"score":1.615840030051175},{"id":"urunda_9768","citySlug":"urunda","name":"Centro Histórico","category":"historia","lat":-8.641559299144873,"lng":34.301264077716375,"avgVisitMinutes":71,"estimatedCostEur":5,"score":1.7693585391002453},{"id":"urunda_5042","citySlug":"urunda","name":"Mirador de Urunda","category":"mirador","lat":-8.647229328201025,"lng":34.29359917024274,"avgVisitMinutes":82,"estimatedCostEur":18,"score":0.5220186336093248},{"id":"urunda_9912","citySlug":"urunda","name":"Playa Sur","category":"playa","lat":-8.647089708289448,"lng":34.30661616767586,"avgVisitMinutes":60,"estimatedCostEur":15,"score":1.7117185034330054},{"id":"urunda_6384","citySlug":"urunda","name":"Playa Norte","category":"playa","lat":-8.643442036244558,"lng":34.29669854052395,"avgVisitMinutes":20,"estimatedCostEur":20,"score":4.541161976237796},{"id":"urunda_1962","citySlug":"urunda","name":"Castillo de Urunda","category":"historia","lat":-8.645515689963393,"lng":34.29202369936068,"avgVisitMinutes":36,"estimatedCostEur":25,"score":4.788415865633693},{"id":"urunda_3411","citySlug":"urunda","name":"Galería de Arte","category":"cultura","lat":-8.657007465192477,"lng":34.29918686840968,"avgVisitMinutes":75,"estimatedCostEur":16,"score":2.0408673988152204},{"id":"urunda_2353","citySlug":"urunda","name":"Castillo de Urunda","category":"historia","lat":-8.659178622241127,"lng":34.30547181270867,"avgVisitMinutes":85,"estimatedCostEur":1,"score":1.5372673102604946},{"id":"urambo_8790","citySlug":"urambo","name":"Zona Comercial","category":"ocio","lat":-5.066596764570852,"lng":32.05529054236641,"avgVisitMinutes":67,"estimatedCostEur":9,"score":1.2878893409893493},{"id":"urambo_8931","citySlug":"urambo","name":"Zona Comercial","category":"ocio","lat":-5.067768223206491,"lng":32.049231837156974,"avgVisitMinutes":21,"estimatedCostEur":4,"score":1.2228222793382189},{"id":"urambo_8744","citySlug":"urambo","name":"Paseo Principal","category":"ocio","lat":-5.0689032364647675,"lng":32.053806906796744,"avgVisitMinutes":33,"estimatedCostEur":18,"score":4.338144732278069},{"id":"urambo_2102","citySlug":"urambo","name":"Vista Alta de Urambo","category":"mirador","lat":-5.07296208975381,"lng":32.050400836251136,"avgVisitMinutes":61,"estimatedCostEur":9,"score":3.510159661189315},{"id":"urambo_7046","citySlug":"urambo","name":"Museo Cultural de Urambo","category":"cultura","lat":-5.068161881025702,"lng":32.05288643838439,"avgVisitMinutes":76,"estimatedCostEur":14,"score":4.966680710986309},{"id":"urambo_7674","citySlug":"urambo","name":"Centro de Arte de Urambo","category":"cultura","lat":-5.058968095122794,"lng":32.04711567918591,"avgVisitMinutes":21,"estimatedCostEur":21,"score":2.6804893834095735},{"id":"urambo_1675","citySlug":"urambo","name":"Playa Norte","category":"playa","lat":-5.061423480152879,"lng":32.05614334304523,"avgVisitMinutes":39,"estimatedCostEur":0,"score":3.3982355057987332},{"id":"urambo_6285","citySlug":"urambo","name":"Centro Histórico","category":"historia","lat":-5.060078814157635,"lng":32.0445463291158,"avgVisitMinutes":45,"estimatedCostEur":16,"score":4.034588743675263},{"id":"urambo_2948","citySlug":"urambo","name":"Centro Histórico","category":"historia","lat":-5.06413951089369,"lng":32.04150781354625,"avgVisitMinutes":77,"estimatedCostEur":18,"score":4.882163029796321},{"id":"ulenje_5692","citySlug":"ulenje","name":"Playa Norte","category":"playa","lat":-8.92465748031023,"lng":33.6767696730221,"avgVisitMinutes":81,"estimatedCostEur":25,"score":0.798729257081335},{"id":"ulenje_5071","citySlug":"ulenje","name":"Mirador de Ulenje","category":"mirador","lat":-8.928702367743497,"lng":33.67497701086302,"avgVisitMinutes":62,"estimatedCostEur":25,"score":3.236075919176288},{"id":"ulenje_6147","citySlug":"ulenje","name":"Centro Histórico","category":"historia","lat":-8.92438417422154,"lng":33.69116302594568,"avgVisitMinutes":73,"estimatedCostEur":8,"score":3.2144631080933626},{"id":"ulenje_7237","citySlug":"ulenje","name":"Vista Alta de Ulenje","category":"mirador","lat":-8.931997322295416,"lng":33.68012214509844,"avgVisitMinutes":77,"estimatedCostEur":25,"score":0.8370890935930136},{"id":"ulenje_4957","citySlug":"ulenje","name":"Playa Norte","category":"playa","lat":-8.931382975587326,"lng":33.67917815582331,"avgVisitMinutes":47,"estimatedCostEur":15,"score":4.30214388305491},{"id":"ulenje_8449","citySlug":"ulenje","name":"Vista Alta de Ulenje","category":"mirador","lat":-8.928765577772234,"lng":33.67847332608373,"avgVisitMinutes":88,"estimatedCostEur":11,"score":3.7536462366777275},{"id":"ulenje_5575","citySlug":"ulenje","name":"Paseo Principal","category":"ocio","lat":-8.92691151632,"lng":33.689674511242465,"avgVisitMinutes":54,"estimatedCostEur":4,"score":1.541153806428721},{"id":"ulenje_5961","citySlug":"ulenje","name":"Castillo de Ulenje","category":"historia","lat":-8.93880543960189,"lng":33.67369115507181,"avgVisitMinutes":89,"estimatedCostEur":6,"score":3.6530608934691227},{"id":"ulenje_4312","citySlug":"ulenje","name":"Mercado Gastronómico","category":"gastronomia","lat":-8.932460113795232,"lng":33.67862202535736,"avgVisitMinutes":24,"estimatedCostEur":21,"score":4.312316391411419},{"id":"ulenje_1591","citySlug":"ulenje","name":"Teatro Municipal","category":"cultura","lat":-8.924957657408372,"lng":33.675560742223794,"avgVisitMinutes":59,"estimatedCostEur":12,"score":3.0210521108169783},{"id":"ulenje_9183","citySlug":"ulenje","name":"Mirador de Ulenje","category":"mirador","lat":-8.928564032084013,"lng":33.674722820740975,"avgVisitMinutes":78,"estimatedCostEur":13,"score":1.5612158341180784},{"id":"ulenje_7455","citySlug":"ulenje","name":"Iglesia de Ulenje","category":"historia","lat":-8.9296042663888,"lng":33.69232465643387,"avgVisitMinutes":80,"estimatedCostEur":15,"score":1.2642807742784068},{"id":"tunduma_1713","citySlug":"tunduma","name":"Mirador de Tunduma","category":"mirador","lat":-9.305733144193715,"lng":32.760295701361386,"avgVisitMinutes":66,"estimatedCostEur":12,"score":2.921142600892377},{"id":"tunduma_1409","citySlug":"tunduma","name":"Vista Alta de Tunduma","category":"mirador","lat":-9.300593951244313,"lng":32.75775307886961,"avgVisitMinutes":37,"estimatedCostEur":4,"score":4.627299738900927},{"id":"tunduma_5045","citySlug":"tunduma","name":"Playa Sur","category":"playa","lat":-9.293747880219005,"lng":32.75846119246077,"avgVisitMinutes":68,"estimatedCostEur":15,"score":4.613979879500927},{"id":"tunduma_7096","citySlug":"tunduma","name":"Parque Central","category":"ocio","lat":-9.3080590080878,"lng":32.77149720527748,"avgVisitMinutes":32,"estimatedCostEur":25,"score":1.0564166156511794},{"id":"tunduma_8585","citySlug":"tunduma","name":"Mercado Gastronómico","category":"gastronomia","lat":-9.307892001880921,"lng":32.76391487330349,"avgVisitMinutes":38,"estimatedCostEur":8,"score":3.382750876833058},{"id":"tunduma_6127","citySlug":"tunduma","name":"Paseo Principal","category":"ocio","lat":-9.29907585814032,"lng":32.76724114996855,"avgVisitMinutes":51,"estimatedCostEur":21,"score":2.7980356488157376},{"id":"tunduma_4792","citySlug":"tunduma","name":"Centro de Arte de Tunduma","category":"cultura","lat":-9.296446973717826,"lng":32.77389342819619,"avgVisitMinutes":57,"estimatedCostEur":2,"score":4.398603784852536},{"id":"tunduma_1979","citySlug":"tunduma","name":"Vista Alta de Tunduma","category":"mirador","lat":-9.299924462317522,"lng":32.76387344506463,"avgVisitMinutes":24,"estimatedCostEur":9,"score":0.8476270039264624},{"id":"tunduma_7094","citySlug":"tunduma","name":"Centro de Arte de Tunduma","category":"cultura","lat":-9.29485344631398,"lng":32.77396399100135,"avgVisitMinutes":73,"estimatedCostEur":22,"score":1.297907974224112},{"id":"tunduma_4906","citySlug":"tunduma","name":"Parque Central","category":"ocio","lat":-9.297414475252182,"lng":32.75791092908182,"avgVisitMinutes":83,"estimatedCostEur":22,"score":1.7008135893847713},{"id":"tunduma_3565","citySlug":"tunduma","name":"Museo Cultural de Tunduma","category":"cultura","lat":-9.302084130337107,"lng":32.7643545538212,"avgVisitMinutes":71,"estimatedCostEur":7,"score":3.106626607423547},{"id":"tumbi_5757","citySlug":"tumbi","name":"Zona Comercial","category":"ocio","lat":-5.06800951342265,"lng":32.72446599846481,"avgVisitMinutes":43,"estimatedCostEur":21,"score":4.520021289741999},{"id":"tumbi_2949","citySlug":"tumbi","name":"Ruta de Tapas","category":"gastronomia","lat":-5.0610996074454535,"lng":32.73961479225909,"avgVisitMinutes":49,"estimatedCostEur":20,"score":4.105253110969696},{"id":"tumbi_1473","citySlug":"tumbi","name":"Castillo de Tumbi","category":"historia","lat":-5.06064210962938,"lng":32.72458386904396,"avgVisitMinutes":34,"estimatedCostEur":23,"score":2.341036159025935},{"id":"tumbi_6390","citySlug":"tumbi","name":"Vista Alta de Tumbi","category":"mirador","lat":-5.075112751611384,"lng":32.72885546972808,"avgVisitMinutes":43,"estimatedCostEur":0,"score":3.7232808163087334},{"id":"tumbi_2928","citySlug":"tumbi","name":"Teatro Municipal","category":"cultura","lat":-5.057631362222162,"lng":32.72738993424847,"avgVisitMinutes":31,"estimatedCostEur":3,"score":2.2296110865860057},{"id":"tumbi_5122","citySlug":"tumbi","name":"Centro de Arte de Tumbi","category":"cultura","lat":-5.0766180416498825,"lng":32.7273236990768,"avgVisitMinutes":61,"estimatedCostEur":22,"score":4.199369840632777},{"id":"tukuyu_1119","citySlug":"tukuyu","name":"Zona Comercial","category":"ocio","lat":-9.241741216711064,"lng":33.645114656495736,"avgVisitMinutes":48,"estimatedCostEur":19,"score":3.4537414765312957},{"id":"tukuyu_7453","citySlug":"tukuyu","name":"Teatro Municipal","category":"cultura","lat":-9.24008433530766,"lng":33.654477049116295,"avgVisitMinutes":46,"estimatedCostEur":8,"score":2.6409315079460813},{"id":"tukuyu_9163","citySlug":"tukuyu","name":"Museo Cultural de Tukuyu","category":"cultura","lat":-9.250008680693364,"lng":33.656245103796486,"avgVisitMinutes":38,"estimatedCostEur":10,"score":1.3978824043627578},{"id":"tukuyu_1334","citySlug":"tukuyu","name":"Vista Alta de Tukuyu","category":"mirador","lat":-9.240378804802393,"lng":33.64252431136324,"avgVisitMinutes":36,"estimatedCostEur":19,"score":2.0527613197119123},{"id":"tukuyu_6256","citySlug":"tukuyu","name":"Museo Local de Tukuyu","category":"historia","lat":-9.252230892985823,"lng":33.64465068594521,"avgVisitMinutes":43,"estimatedCostEur":24,"score":4.426686037425663},{"id":"tinde_8602","citySlug":"tinde","name":"Playa Central","category":"playa","lat":-3.889875276379613,"lng":33.20685260801408,"avgVisitMinutes":58,"estimatedCostEur":14,"score":1.0417358370673302},{"id":"tinde_9766","citySlug":"tinde","name":"Playa Central","category":"playa","lat":-3.8876298359975974,"lng":33.193792559084415,"avgVisitMinutes":70,"estimatedCostEur":14,"score":1.1391962243187637},{"id":"tinde_4185","citySlug":"tinde","name":"Teatro Municipal","category":"cultura","lat":-3.88728747471281,"lng":33.20247206439639,"avgVisitMinutes":87,"estimatedCostEur":25,"score":4.175545530429985},{"id":"tinde_9258","citySlug":"tinde","name":"Vista Alta de Tinde","category":"mirador","lat":-3.8810696118952595,"lng":33.20751083954207,"avgVisitMinutes":43,"estimatedCostEur":18,"score":0.9633171077431657},{"id":"tinde_9550","citySlug":"tinde","name":"Paseo Principal","category":"ocio","lat":-3.8762437623554344,"lng":33.19968256490062,"avgVisitMinutes":85,"estimatedCostEur":7,"score":3.7187928349032626},{"id":"tinde_3473","citySlug":"tinde","name":"Galería de Arte","category":"cultura","lat":-3.8802890548897624,"lng":33.199527079363065,"avgVisitMinutes":28,"estimatedCostEur":24,"score":2.3284916792809023},{"id":"tinde_9122","citySlug":"tinde","name":"Murallas de Tinde","category":"historia","lat":-3.8895366118983983,"lng":33.209236213287255,"avgVisitMinutes":28,"estimatedCostEur":8,"score":3.1755841174973587},{"id":"tinde_3539","citySlug":"tinde","name":"Restaurante Típico de Tinde","category":"gastronomia","lat":-3.8751643483343696,"lng":33.19799451834152,"avgVisitMinutes":30,"estimatedCostEur":6,"score":1.6458602789203365},{"id":"tinde_2159","citySlug":"tinde","name":"Mirador de Tinde","category":"mirador","lat":-3.878223345241687,"lng":33.19817514273065,"avgVisitMinutes":76,"estimatedCostEur":24,"score":2.268692555165628},{"id":"tinde_5949","citySlug":"tinde","name":"Restaurante Típico de Tinde","category":"gastronomia","lat":-3.893321806273416,"lng":33.20677775981961,"avgVisitMinutes":51,"estimatedCostEur":22,"score":4.769333415121251},{"id":"tinde_5349","citySlug":"tinde","name":"Vista Alta de Tinde","category":"mirador","lat":-3.8841345164038095,"lng":33.209408252075285,"avgVisitMinutes":25,"estimatedCostEur":25,"score":1.238895612782739},{"id":"tinde_8848","citySlug":"tinde","name":"Mercado Gastronómico","category":"gastronomia","lat":-3.8903667883522304,"lng":33.201452605712156,"avgVisitMinutes":60,"estimatedCostEur":9,"score":4.515879816226422},{"id":"tarime_6808","citySlug":"tarime","name":"Playa Norte","category":"playa","lat":-1.3436439095415966,"lng":34.358071658458165,"avgVisitMinutes":42,"estimatedCostEur":24,"score":2.848917791264197},{"id":"tarime_6385","citySlug":"tarime","name":"Murallas de Tarime","category":"historia","lat":-1.3498479846155809,"lng":34.37145136282671,"avgVisitMinutes":81,"estimatedCostEur":11,"score":3.7478602077756857},{"id":"tarime_1364","citySlug":"tarime","name":"Zona Comercial","category":"ocio","lat":-1.3537936016663557,"lng":34.370794894325755,"avgVisitMinutes":48,"estimatedCostEur":20,"score":0.7705957827285586},{"id":"tarime_3293","citySlug":"tarime","name":"Vista Alta de Tarime","category":"mirador","lat":-1.3428817802377977,"lng":34.3698159461512,"avgVisitMinutes":82,"estimatedCostEur":9,"score":4.481718930208515},{"id":"tarime_2631","citySlug":"tarime","name":"Zona Comercial","category":"ocio","lat":-1.3512662586112447,"lng":34.36991159697062,"avgVisitMinutes":42,"estimatedCostEur":24,"score":1.5332856794184397},{"id":"tarime_8623","citySlug":"tarime","name":"Ruta de Tapas","category":"gastronomia","lat":-1.3561757606842157,"lng":34.36591216745011,"avgVisitMinutes":55,"estimatedCostEur":20,"score":3.6867602618892135},{"id":"tarime_5970","citySlug":"tarime","name":"Playa Sur","category":"playa","lat":-1.347703488472254,"lng":34.36855050131105,"avgVisitMinutes":82,"estimatedCostEur":7,"score":3.3080740481090176},{"id":"tarime_8370","citySlug":"tarime","name":"Vista Alta de Tarime","category":"mirador","lat":-1.3548943935506343,"lng":34.36112089657743,"avgVisitMinutes":65,"estimatedCostEur":20,"score":3.961883203661742},{"id":"tarime_4806","citySlug":"tarime","name":"Mirador de Tarime","category":"mirador","lat":-1.3485150931739887,"lng":34.36000333851063,"avgVisitMinutes":35,"estimatedCostEur":10,"score":2.161937136305477},{"id":"tarime_5126","citySlug":"tarime","name":"Museo Local de Tarime","category":"historia","lat":-1.3489390921295759,"lng":34.37099947347772,"avgVisitMinutes":34,"estimatedCostEur":21,"score":4.493449437631844},{"id":"tanga_9166","citySlug":"tanga","name":"Playa Norte","category":"playa","lat":-5.070136857913446,"lng":39.096320575601936,"avgVisitMinutes":37,"estimatedCostEur":25,"score":0.5804270352988123},{"id":"tanga_3417","citySlug":"tanga","name":"Punto Panorámico","category":"mirador","lat":-5.078494818797838,"lng":39.08968967065994,"avgVisitMinutes":46,"estimatedCostEur":6,"score":0.9851881894656072},{"id":"tanga_7322","citySlug":"tanga","name":"Punto Panorámico","category":"mirador","lat":-5.074548639378897,"lng":39.10778642303003,"avgVisitMinutes":76,"estimatedCostEur":9,"score":3.2035396865015398},{"id":"tanga_1367","citySlug":"tanga","name":"Zona Comercial","category":"ocio","lat":-5.068369992904784,"lng":39.09983328514566,"avgVisitMinutes":39,"estimatedCostEur":3,"score":1.5273970189768342},{"id":"tanga_1891","citySlug":"tanga","name":"Playa Norte","category":"playa","lat":-5.07172695855474,"lng":39.10499645396619,"avgVisitMinutes":32,"estimatedCostEur":24,"score":4.931429920954452},{"id":"tanga_7657","citySlug":"tanga","name":"Parque Central","category":"ocio","lat":-5.067305956176102,"lng":39.103139105741185,"avgVisitMinutes":75,"estimatedCostEur":6,"score":0.6656686005597315},{"id":"tanga_5791","citySlug":"tanga","name":"Playa Sur","category":"playa","lat":-5.059146645827254,"lng":39.10204643247786,"avgVisitMinutes":89,"estimatedCostEur":19,"score":4.1924314302436425},{"id":"tanga_7695","citySlug":"tanga","name":"Mirador de Tanga","category":"mirador","lat":-5.069207708710733,"lng":39.09822496796397,"avgVisitMinutes":20,"estimatedCostEur":25,"score":1.6865989944001214},{"id":"tanga_3364","citySlug":"tanga","name":"Mirador de Tanga","category":"mirador","lat":-5.070220757431554,"lng":39.09259987616128,"avgVisitMinutes":58,"estimatedCostEur":18,"score":1.671468510631772},{"id":"tanga_2569","citySlug":"tanga","name":"Ruta de Tapas","category":"gastronomia","lat":-5.070687572057129,"lng":39.096580367258255,"avgVisitMinutes":86,"estimatedCostEur":22,"score":0.5545513553571157},{"id":"tabora_4254","citySlug":"tabora","name":"Museo Cultural de Tabora","category":"cultura","lat":-5.014173791875194,"lng":32.82597830954727,"avgVisitMinutes":48,"estimatedCostEur":9,"score":4.847959265758889},{"id":"tabora_9604","citySlug":"tabora","name":"Paseo Principal","category":"ocio","lat":-5.0078755264244155,"lng":32.82527009163207,"avgVisitMinutes":42,"estimatedCostEur":3,"score":2.897814274737806},{"id":"tabora_1129","citySlug":"tabora","name":"Museo Local de Tabora","category":"historia","lat":-5.0232793679253005,"lng":32.8270360994006,"avgVisitMinutes":42,"estimatedCostEur":4,"score":1.9969510764833376},{"id":"tabora_3699","citySlug":"tabora","name":"Restaurante Típico de Tabora","category":"gastronomia","lat":-5.012863547405175,"lng":32.82633549702901,"avgVisitMinutes":88,"estimatedCostEur":4,"score":1.4458533274249565},{"id":"tabora_5474","citySlug":"tabora","name":"Vista Alta de Tabora","category":"mirador","lat":-5.021034510291276,"lng":32.821964995301705,"avgVisitMinutes":44,"estimatedCostEur":2,"score":0.6895300636647945},{"id":"tabora_9165","citySlug":"tabora","name":"Parque Central","category":"ocio","lat":-5.018438577986722,"lng":32.83576895160667,"avgVisitMinutes":35,"estimatedCostEur":6,"score":4.109215556149931},{"id":"tabora_6641","citySlug":"tabora","name":"Galería de Arte","category":"cultura","lat":-5.0081035694853115,"lng":32.834696777429535,"avgVisitMinutes":90,"estimatedCostEur":4,"score":4.194372969654463},{"id":"tabora_9004","citySlug":"tabora","name":"Restaurante Típico de Tabora","category":"gastronomia","lat":-5.011647737624062,"lng":32.819441704825095,"avgVisitMinutes":36,"estimatedCostEur":6,"score":1.7692904698372367},{"id":"tabora_3013","citySlug":"tabora","name":"Paseo Principal","category":"ocio","lat":-5.012135040418057,"lng":32.82070921135197,"avgVisitMinutes":63,"estimatedCostEur":23,"score":3.3989990303987643},{"id":"tabora_6239","citySlug":"tabora","name":"Vista Alta de Tabora","category":"mirador","lat":-5.0156928589290395,"lng":32.81741031930321,"avgVisitMinutes":43,"estimatedCostEur":21,"score":4.770472040271003},{"id":"tabora_3347","citySlug":"tabora","name":"Playa Sur","category":"playa","lat":-5.01458504245522,"lng":32.83528638422204,"avgVisitMinutes":65,"estimatedCostEur":4,"score":4.871374211353589},{"id":"sumbawanga_7025","citySlug":"sumbawanga","name":"Punto Panorámico","category":"mirador","lat":-7.957145521960854,"lng":31.619743077916546,"avgVisitMinutes":38,"estimatedCostEur":25,"score":3.523335574745408},{"id":"sumbawanga_8223","citySlug":"sumbawanga","name":"Iglesia de Sumbawanga","category":"historia","lat":-7.972053446345623,"lng":31.606729583547178,"avgVisitMinutes":21,"estimatedCostEur":9,"score":3.151337343928771},{"id":"sumbawanga_8735","citySlug":"sumbawanga","name":"Castillo de Sumbawanga","category":"historia","lat":-7.971993788183309,"lng":31.61538676872289,"avgVisitMinutes":38,"estimatedCostEur":8,"score":1.7975921281142395},{"id":"sumbawanga_6685","citySlug":"sumbawanga","name":"Vista Alta de Sumbawanga","category":"mirador","lat":-7.9758909615637785,"lng":31.611263928036685,"avgVisitMinutes":35,"estimatedCostEur":17,"score":4.853767269630911},{"id":"sumbawanga_6238","citySlug":"sumbawanga","name":"Museo Cultural de Sumbawanga","category":"cultura","lat":-7.969778908526902,"lng":31.608994845544686,"avgVisitMinutes":28,"estimatedCostEur":11,"score":0.6477455858414265},{"id":"sumbawanga_4921","citySlug":"sumbawanga","name":"Playa Norte","category":"playa","lat":-7.9676257460132405,"lng":31.620560742046294,"avgVisitMinutes":35,"estimatedCostEur":4,"score":1.7018595095296571},{"id":"sumbawanga_5884","citySlug":"sumbawanga","name":"Ruta de Tapas","category":"gastronomia","lat":-7.971466472572004,"lng":31.6238482861295,"avgVisitMinutes":86,"estimatedCostEur":3,"score":2.745820075856485},{"id":"sumbawanga_9215","citySlug":"sumbawanga","name":"Playa Sur","category":"playa","lat":-7.974968338860158,"lng":31.615069108253948,"avgVisitMinutes":59,"estimatedCostEur":19,"score":1.395686760944215},{"id":"sumbawanga_2852","citySlug":"sumbawanga","name":"Restaurante Típico de Sumbawanga","category":"gastronomia","lat":-7.966681353248275,"lng":31.62063269928617,"avgVisitMinutes":81,"estimatedCostEur":25,"score":2.7137933983535074},{"id":"sumbawanga_9762","citySlug":"sumbawanga","name":"Paseo Principal","category":"ocio","lat":-7.966725778202186,"lng":31.622557778553812,"avgVisitMinutes":23,"estimatedCostEur":12,"score":4.713153511767601},{"id":"soni_2566","citySlug":"soni","name":"Paseo Principal","category":"ocio","lat":-4.845093003631465,"lng":38.3588411403036,"avgVisitMinutes":40,"estimatedCostEur":2,"score":4.867729245050637},{"id":"soni_4743","citySlug":"soni","name":"Centro de Arte de Soni","category":"cultura","lat":-4.849328193620624,"lng":38.368756234588936,"avgVisitMinutes":66,"estimatedCostEur":14,"score":4.843365518366916},{"id":"soni_6583","citySlug":"soni","name":"Galería de Arte","category":"cultura","lat":-4.851011575468668,"lng":38.362843506242235,"avgVisitMinutes":39,"estimatedCostEur":13,"score":1.3279298279237746},{"id":"soni_7226","citySlug":"soni","name":"Galería de Arte","category":"cultura","lat":-4.849185246753611,"lng":38.36606866750505,"avgVisitMinutes":82,"estimatedCostEur":0,"score":3.683579264697804},{"id":"soni_2079","citySlug":"soni","name":"Iglesia de Soni","category":"historia","lat":-4.843330634732333,"lng":38.361256124717706,"avgVisitMinutes":42,"estimatedCostEur":17,"score":3.457657573684801},{"id":"soni_1618","citySlug":"soni","name":"Centro Histórico","category":"historia","lat":-4.849140374047482,"lng":38.36770816131404,"avgVisitMinutes":61,"estimatedCostEur":24,"score":1.405450632689245},{"id":"songwa_6602","citySlug":"songwa","name":"Centro de Arte de Songwa","category":"cultura","lat":-3.50704375707032,"lng":33.52464718589472,"avgVisitMinutes":25,"estimatedCostEur":21,"score":0.6906333800704278},{"id":"songwa_2916","citySlug":"songwa","name":"Galería de Arte","category":"cultura","lat":-3.514459794195037,"lng":33.51633212563901,"avgVisitMinutes":63,"estimatedCostEur":17,"score":4.11957021319164},{"id":"songwa_5072","citySlug":"songwa","name":"Playa Sur","category":"playa","lat":-3.5145840404879323,"lng":33.50933702705036,"avgVisitMinutes":76,"estimatedCostEur":17,"score":2.4158271890205754},{"id":"songwa_8376","citySlug":"songwa","name":"Iglesia de Songwa","category":"historia","lat":-3.5114578081946695,"lng":33.52096285128617,"avgVisitMinutes":56,"estimatedCostEur":14,"score":4.970152274126959},{"id":"songwa_9256","citySlug":"songwa","name":"Mirador de Songwa","category":"mirador","lat":-3.5227308320500708,"lng":33.51344930136089,"avgVisitMinutes":47,"estimatedCostEur":5,"score":3.7675284704487804},{"id":"songwa_5755","citySlug":"songwa","name":"Zona Comercial","category":"ocio","lat":-3.51777911442983,"lng":33.524161369159756,"avgVisitMinutes":88,"estimatedCostEur":15,"score":4.483909025487582},{"id":"songwa_2028","citySlug":"songwa","name":"Galería de Arte","category":"cultura","lat":-3.5176923575510277,"lng":33.52311531058137,"avgVisitMinutes":63,"estimatedCostEur":24,"score":0.8256022584028695},{"id":"songwa_3473","citySlug":"songwa","name":"Mirador de Songwa","category":"mirador","lat":-3.5070425113016195,"lng":33.51485066504153,"avgVisitMinutes":83,"estimatedCostEur":5,"score":0.5384400738121075},{"id":"songwa_8052","citySlug":"songwa","name":"Museo Cultural de Songwa","category":"cultura","lat":-3.5147122404974356,"lng":33.51655031530907,"avgVisitMinutes":24,"estimatedCostEur":9,"score":0.9907676798673113},{"id":"songwa_2224","citySlug":"songwa","name":"Playa Central","category":"playa","lat":-3.51720326118893,"lng":33.50797502642806,"avgVisitMinutes":31,"estimatedCostEur":2,"score":3.8100209215769194},{"id":"songwa_8063","citySlug":"songwa","name":"Zona Comercial","category":"ocio","lat":-3.517455840445702,"lng":33.52528381248,"avgVisitMinutes":32,"estimatedCostEur":0,"score":1.5399494486223753},{"id":"songwa_5656","citySlug":"songwa","name":"Teatro Municipal","category":"cultura","lat":-3.5067612430923494,"lng":33.5241520344082,"avgVisitMinutes":21,"estimatedCostEur":7,"score":4.4590020890943585},{"id":"somanda_6218","citySlug":"somanda","name":"Museo Cultural de Somanda","category":"cultura","lat":-3.373653095207802,"lng":33.95693099554666,"avgVisitMinutes":77,"estimatedCostEur":8,"score":2.344707002042666},{"id":"somanda_3744","citySlug":"somanda","name":"Galería de Arte","category":"cultura","lat":-3.3578363966703937,"lng":33.94261807689141,"avgVisitMinutes":47,"estimatedCostEur":1,"score":3.4990166277101276},{"id":"somanda_9261","citySlug":"somanda","name":"Centro Histórico","category":"historia","lat":-3.3602632064400364,"lng":33.95868825070654,"avgVisitMinutes":34,"estimatedCostEur":16,"score":0.6272000502253748},{"id":"somanda_2472","citySlug":"somanda","name":"Zona Comercial","category":"ocio","lat":-3.3671981973644614,"lng":33.947926679363206,"avgVisitMinutes":49,"estimatedCostEur":21,"score":3.9685140987919443},{"id":"somanda_8918","citySlug":"somanda","name":"Parque Central","category":"ocio","lat":-3.3653743216551613,"lng":33.95759811489456,"avgVisitMinutes":21,"estimatedCostEur":25,"score":2.90526232100866},{"id":"somanda_4214","citySlug":"somanda","name":"Murallas de Somanda","category":"historia","lat":-3.3620713363135897,"lng":33.948110451187844,"avgVisitMinutes":48,"estimatedCostEur":12,"score":4.870125450909347},{"id":"somanda_4747","citySlug":"somanda","name":"Parque Central","category":"ocio","lat":-3.3673546528925002,"lng":33.957460425139104,"avgVisitMinutes":38,"estimatedCostEur":6,"score":2.3557037817972457},{"id":"somanda_9221","citySlug":"somanda","name":"Mercado Gastronómico","category":"gastronomia","lat":-3.3751769586564864,"lng":33.94959726765077,"avgVisitMinutes":41,"estimatedCostEur":15,"score":4.259721938649515},{"id":"somanda_2965","citySlug":"somanda","name":"Ruta de Tapas","category":"gastronomia","lat":-3.366465140971797,"lng":33.94256967551727,"avgVisitMinutes":57,"estimatedCostEur":12,"score":4.233021466101768},{"id":"somanda_9838","citySlug":"somanda","name":"Centro Histórico","category":"historia","lat":-3.3736266097755143,"lng":33.94471955119638,"avgVisitMinutes":29,"estimatedCostEur":16,"score":1.745524406225635},{"id":"sokoni_1504","citySlug":"sokoni","name":"Mercado Gastronómico","category":"gastronomia","lat":-6.4421199420370225,"lng":39.547148114119025,"avgVisitMinutes":65,"estimatedCostEur":22,"score":4.13779060473426},{"id":"sokoni_1846","citySlug":"sokoni","name":"Museo Local de Sokoni","category":"historia","lat":-6.425277433124624,"lng":39.54458970770659,"avgVisitMinutes":29,"estimatedCostEur":7,"score":2.4326939643821857},{"id":"sokoni_7908","citySlug":"sokoni","name":"Vista Alta de Sokoni","category":"mirador","lat":-6.436026435223465,"lng":39.55844440644921,"avgVisitMinutes":83,"estimatedCostEur":19,"score":1.3153892220555523},{"id":"sokoni_3172","citySlug":"sokoni","name":"Zona Comercial","category":"ocio","lat":-6.425044742651176,"lng":39.55106681756926,"avgVisitMinutes":60,"estimatedCostEur":8,"score":4.414073061509284},{"id":"sokoni_4601","citySlug":"sokoni","name":"Paseo Principal","category":"ocio","lat":-6.441829517026209,"lng":39.559836995761174,"avgVisitMinutes":78,"estimatedCostEur":2,"score":1.4594198985516855},{"id":"sokoni_2183","citySlug":"sokoni","name":"Mercado Gastronómico","category":"gastronomia","lat":-6.437751532206713,"lng":39.557240097264796,"avgVisitMinutes":37,"estimatedCostEur":6,"score":4.421199397545017},{"id":"sokoni_8274","citySlug":"sokoni","name":"Murallas de Sokoni","category":"historia","lat":-6.428675146757258,"lng":39.55136650949016,"avgVisitMinutes":73,"estimatedCostEur":17,"score":1.909973572941057},{"id":"sokoni_8820","citySlug":"sokoni","name":"Punto Panorámico","category":"mirador","lat":-6.42363714734847,"lng":39.557238151340364,"avgVisitMinutes":72,"estimatedCostEur":6,"score":1.372950233936082},{"id":"sirari_6285","citySlug":"sirari","name":"Restaurante Típico de Sirari","category":"gastronomia","lat":-1.257097604758967,"lng":34.475490022229636,"avgVisitMinutes":74,"estimatedCostEur":16,"score":1.326297376168016},{"id":"sirari_7815","citySlug":"sirari","name":"Museo Local de Sirari","category":"historia","lat":-1.2536879976023443,"lng":34.48578910450454,"avgVisitMinutes":30,"estimatedCostEur":2,"score":2.762123104222274},{"id":"sirari_3655","citySlug":"sirari","name":"Centro Histórico","category":"historia","lat":-1.253312551147782,"lng":34.473041455880995,"avgVisitMinutes":56,"estimatedCostEur":22,"score":3.863043411836485},{"id":"sirari_5060","citySlug":"sirari","name":"Punto Panorámico","category":"mirador","lat":-1.2636249091698084,"lng":34.47156408530646,"avgVisitMinutes":39,"estimatedCostEur":5,"score":4.166188544387742},{"id":"sirari_3670","citySlug":"sirari","name":"Zona Comercial","category":"ocio","lat":-1.2610118507021468,"lng":34.4694740634611,"avgVisitMinutes":30,"estimatedCostEur":10,"score":3.864785795482348},{"id":"sirari_6758","citySlug":"sirari","name":"Teatro Municipal","category":"cultura","lat":-1.244588461105327,"lng":34.47816837308046,"avgVisitMinutes":64,"estimatedCostEur":12,"score":3.3896959676207574},{"id":"sirari_2793","citySlug":"sirari","name":"Murallas de Sirari","category":"historia","lat":-1.2565806258050252,"lng":34.46821086589229,"avgVisitMinutes":24,"estimatedCostEur":23,"score":2.873200962773173},{"id":"sirari_4402","citySlug":"sirari","name":"Centro Histórico","category":"historia","lat":-1.247830844506032,"lng":34.48459555687983,"avgVisitMinutes":33,"estimatedCostEur":5,"score":1.5489368028789379},{"id":"sirari_9243","citySlug":"sirari","name":"Zona Comercial","category":"ocio","lat":-1.2601565006654143,"lng":34.47444342632878,"avgVisitMinutes":87,"estimatedCostEur":7,"score":1.8019655361230753},{"id":"sirari_2735","citySlug":"sirari","name":"Museo Cultural de Sirari","category":"cultura","lat":-1.246555971784077,"lng":34.48497463015813,"avgVisitMinutes":51,"estimatedCostEur":18,"score":3.8237164508925283},{"id":"singida_9961","citySlug":"singida","name":"Mercado Gastronómico","category":"gastronomia","lat":-4.817288413919793,"lng":34.75250336059,"avgVisitMinutes":60,"estimatedCostEur":7,"score":1.9745234904417888},{"id":"singida_2136","citySlug":"singida","name":"Playa Sur","category":"playa","lat":-4.812537778501446,"lng":34.73859052218747,"avgVisitMinutes":84,"estimatedCostEur":3,"score":3.635398876446166},{"id":"singida_9754","citySlug":"singida","name":"Playa Sur","category":"playa","lat":-4.8084369904717095,"lng":34.7530550239751,"avgVisitMinutes":88,"estimatedCostEur":14,"score":1.5515171180457525},{"id":"singida_5629","citySlug":"singida","name":"Centro de Arte de Singida","category":"cultura","lat":-4.811924599931003,"lng":34.74787752344167,"avgVisitMinutes":85,"estimatedCostEur":22,"score":2.0814331939275945},{"id":"singida_4982","citySlug":"singida","name":"Centro de Arte de Singida","category":"cultura","lat":-4.806682431028046,"lng":34.75121609213894,"avgVisitMinutes":77,"estimatedCostEur":22,"score":1.553254716591397},{"id":"singida_5458","citySlug":"singida","name":"Teatro Municipal","category":"cultura","lat":-4.812988216704984,"lng":34.742313372011836,"avgVisitMinutes":67,"estimatedCostEur":20,"score":3.043284678231709},{"id":"sikonge_6122","citySlug":"sikonge","name":"Murallas de Sikonge","category":"historia","lat":-5.628361888991528,"lng":32.75910607184657,"avgVisitMinutes":59,"estimatedCostEur":9,"score":2.0620735201987146},{"id":"sikonge_4076","citySlug":"sikonge","name":"Ruta de Tapas","category":"gastronomia","lat":-5.642203618221286,"lng":32.75848614204508,"avgVisitMinutes":62,"estimatedCostEur":21,"score":2.4354665404499154},{"id":"sikonge_1299","citySlug":"sikonge","name":"Punto Panorámico","category":"mirador","lat":-5.627646145364515,"lng":32.75872088941849,"avgVisitMinutes":37,"estimatedCostEur":1,"score":4.88158355194476},{"id":"sikonge_3523","citySlug":"sikonge","name":"Playa Central","category":"playa","lat":-5.633826871478835,"lng":32.769967862687665,"avgVisitMinutes":79,"estimatedCostEur":4,"score":4.137031622157286},{"id":"sikonge_1591","citySlug":"sikonge","name":"Vista Alta de Sikonge","category":"mirador","lat":-5.626679203425873,"lng":32.77099828420472,"avgVisitMinutes":26,"estimatedCostEur":18,"score":0.870107936925365},{"id":"sikonge_2820","citySlug":"sikonge","name":"Mercado Gastronómico","category":"gastronomia","lat":-5.623917317292679,"lng":32.758594238200715,"avgVisitMinutes":59,"estimatedCostEur":7,"score":2.4664908730098727},{"id":"shirati_8032","citySlug":"shirati","name":"Teatro Municipal","category":"cultura","lat":-1.1404355834884061,"lng":33.99313289571915,"avgVisitMinutes":56,"estimatedCostEur":3,"score":3.1387443711065703},{"id":"shirati_6132","citySlug":"shirati","name":"Restaurante Típico de Shirati","category":"gastronomia","lat":-1.1300012172808254,"lng":33.984067261919094,"avgVisitMinutes":41,"estimatedCostEur":4,"score":4.072258685230276},{"id":"shirati_4559","citySlug":"shirati","name":"Iglesia de Shirati","category":"historia","lat":-1.1351157372444518,"lng":33.9774844026312,"avgVisitMinutes":71,"estimatedCostEur":25,"score":1.8788684375879907},{"id":"shirati_1493","citySlug":"shirati","name":"Mirador de Shirati","category":"mirador","lat":-1.1297885915281307,"lng":33.9814243579545,"avgVisitMinutes":26,"estimatedCostEur":2,"score":4.9395574335386},{"id":"shirati_1767","citySlug":"shirati","name":"Playa Norte","category":"playa","lat":-1.1342490623483692,"lng":33.98638763824888,"avgVisitMinutes":65,"estimatedCostEur":7,"score":1.980482045642712},{"id":"shirati_3211","citySlug":"shirati","name":"Paseo Principal","category":"ocio","lat":-1.1264029844539227,"lng":33.980574764567244,"avgVisitMinutes":53,"estimatedCostEur":20,"score":2.3664466318149695},{"id":"shirati_1419","citySlug":"shirati","name":"Iglesia de Shirati","category":"historia","lat":-1.1354501314310164,"lng":33.99263203412381,"avgVisitMinutes":59,"estimatedCostEur":20,"score":2.0993125411254656},{"id":"shirati_5749","citySlug":"shirati","name":"Zona Comercial","category":"ocio","lat":-1.141509139165283,"lng":33.97827943427591,"avgVisitMinutes":88,"estimatedCostEur":1,"score":1.5659958755975756},{"id":"shirati_6593","citySlug":"shirati","name":"Mirador de Shirati","category":"mirador","lat":-1.1320074352410519,"lng":33.98280252115418,"avgVisitMinutes":57,"estimatedCostEur":21,"score":0.8580019553009703},{"id":"shinyanga_8098","citySlug":"shinyanga","name":"Centro de Arte de Shinyanga","category":"cultura","lat":-3.671714537957308,"lng":33.42213431986634,"avgVisitMinutes":21,"estimatedCostEur":7,"score":2.289217993911554},{"id":"shinyanga_9575","citySlug":"shinyanga","name":"Centro de Arte de Shinyanga","category":"cultura","lat":-3.660916298742018,"lng":33.42785919584165,"avgVisitMinutes":53,"estimatedCostEur":3,"score":4.284281227127305},{"id":"shinyanga_1745","citySlug":"shinyanga","name":"Centro de Arte de Shinyanga","category":"cultura","lat":-3.6572531135977835,"lng":33.42254195117948,"avgVisitMinutes":26,"estimatedCostEur":2,"score":0.8542877924795265},{"id":"shinyanga_3249","citySlug":"shinyanga","name":"Punto Panorámico","category":"mirador","lat":-3.6617816213739864,"lng":33.42090636471115,"avgVisitMinutes":30,"estimatedCostEur":22,"score":0.6220626243361317},{"id":"shinyanga_8880","citySlug":"shinyanga","name":"Playa Central","category":"playa","lat":-3.6661918121342523,"lng":33.41585257907985,"avgVisitMinutes":29,"estimatedCostEur":1,"score":0.6466545055111257},{"id":"shinyanga_6247","citySlug":"shinyanga","name":"Centro de Arte de Shinyanga","category":"cultura","lat":-3.659374774438218,"lng":33.42486409085674,"avgVisitMinutes":80,"estimatedCostEur":20,"score":2.986856122235105},{"id":"shinyanga_6680","citySlug":"shinyanga","name":"Playa Central","category":"playa","lat":-3.664143172294087,"lng":33.41863050434082,"avgVisitMinutes":49,"estimatedCostEur":17,"score":1.6291988812491291},{"id":"shinyanga_3391","citySlug":"shinyanga","name":"Centro de Arte de Shinyanga","category":"cultura","lat":-3.6572955960208295,"lng":33.42446386886981,"avgVisitMinutes":76,"estimatedCostEur":17,"score":1.0121083777099154},{"id":"shelui_8690","citySlug":"shelui","name":"Mirador de Shelui","category":"mirador","lat":-4.3620793654405645,"lng":34.19146520660507,"avgVisitMinutes":75,"estimatedCostEur":2,"score":1.4249540903542617},{"id":"shelui_5264","citySlug":"shelui","name":"Punto Panorámico","category":"mirador","lat":-4.37405929394075,"lng":34.20914265257842,"avgVisitMinutes":57,"estimatedCostEur":9,"score":2.5164667974640005},{"id":"shelui_3536","citySlug":"shelui","name":"Restaurante Típico de Shelui","category":"gastronomia","lat":-4.359407735671964,"lng":34.2019810446095,"avgVisitMinutes":29,"estimatedCostEur":20,"score":2.436403921923991},{"id":"shelui_4911","citySlug":"shelui","name":"Iglesia de Shelui","category":"historia","lat":-4.369228927778187,"lng":34.194095840192325,"avgVisitMinutes":49,"estimatedCostEur":9,"score":0.810019123265546},{"id":"shelui_6151","citySlug":"shelui","name":"Playa Central","category":"playa","lat":-4.36214755065034,"lng":34.20948007873081,"avgVisitMinutes":44,"estimatedCostEur":4,"score":0.7374808946304677},{"id":"shelui_7860","citySlug":"shelui","name":"Murallas de Shelui","category":"historia","lat":-4.360138522004971,"lng":34.20925451798094,"avgVisitMinutes":34,"estimatedCostEur":19,"score":3.4146351954794962},{"id":"shanwa_2228","citySlug":"shanwa","name":"Playa Central","category":"playa","lat":-3.161072326585357,"lng":33.7627513735335,"avgVisitMinutes":77,"estimatedCostEur":23,"score":1.6513345699221873},{"id":"shanwa_6208","citySlug":"shanwa","name":"Centro de Arte de Shanwa","category":"cultura","lat":-3.158081712621649,"lng":33.76186923522923,"avgVisitMinutes":42,"estimatedCostEur":14,"score":1.5734725449563733},{"id":"shanwa_4959","citySlug":"shanwa","name":"Museo Local de Shanwa","category":"historia","lat":-3.171558252643393,"lng":33.76317626963044,"avgVisitMinutes":88,"estimatedCostEur":0,"score":3.5092870016082305},{"id":"shanwa_4198","citySlug":"shanwa","name":"Galería de Arte","category":"cultura","lat":-3.168246761686645,"lng":33.764561127516856,"avgVisitMinutes":33,"estimatedCostEur":2,"score":4.265355995107357},{"id":"shanwa_1423","citySlug":"shanwa","name":"Centro de Arte de Shanwa","category":"cultura","lat":-3.16775278569155,"lng":33.76700590045707,"avgVisitMinutes":24,"estimatedCostEur":14,"score":4.487384793758924},{"id":"shanwa_2043","citySlug":"shanwa","name":"Ruta de Tapas","category":"gastronomia","lat":-3.163213980695338,"lng":33.77231489929794,"avgVisitMinutes":75,"estimatedCostEur":9,"score":3.5203685878889415},{"id":"shanwa_4358","citySlug":"shanwa","name":"Ruta de Tapas","category":"gastronomia","lat":-3.164537053685335,"lng":33.76532652117745,"avgVisitMinutes":48,"estimatedCostEur":5,"score":1.0808740335047122},{"id":"shanwa_5094","citySlug":"shanwa","name":"Mercado Gastronómico","category":"gastronomia","lat":-3.1655624703716043,"lng":33.760469469224745,"avgVisitMinutes":62,"estimatedCostEur":23,"score":2.234683538165875},{"id":"shanwa_6536","citySlug":"shanwa","name":"Museo Cultural de Shanwa","category":"cultura","lat":-3.1612508209827395,"lng":33.77467241610095,"avgVisitMinutes":83,"estimatedCostEur":12,"score":1.5924009233663372},{"id":"shanwa_3085","citySlug":"shanwa","name":"Punto Panorámico","category":"mirador","lat":-3.1692648592409283,"lng":33.7720601118836,"avgVisitMinutes":88,"estimatedCostEur":14,"score":4.049483217793003},{"id":"shanwa_3475","citySlug":"shanwa","name":"Iglesia de Shanwa","category":"historia","lat":-3.176424507916535,"lng":33.775852666408234,"avgVisitMinutes":57,"estimatedCostEur":22,"score":0.7799825370693068},{"id":"sepuka_4264","citySlug":"sepuka","name":"Museo Cultural de Sepuka","category":"cultura","lat":-4.747223168882796,"lng":34.53418633313951,"avgVisitMinutes":61,"estimatedCostEur":17,"score":2.3448135080484267},{"id":"sepuka_2731","citySlug":"sepuka","name":"Zona Comercial","category":"ocio","lat":-4.7512876315906345,"lng":34.52418333212416,"avgVisitMinutes":49,"estimatedCostEur":12,"score":3.2595686678421343},{"id":"sepuka_4209","citySlug":"sepuka","name":"Ruta de Tapas","category":"gastronomia","lat":-4.752336835872489,"lng":34.52901138628796,"avgVisitMinutes":53,"estimatedCostEur":21,"score":3.5686405455298145},{"id":"sepuka_3625","citySlug":"sepuka","name":"Centro Histórico","category":"historia","lat":-4.754382792823727,"lng":34.53873152353672,"avgVisitMinutes":72,"estimatedCostEur":21,"score":3.989448518918516},{"id":"sepuka_6447","citySlug":"sepuka","name":"Paseo Principal","category":"ocio","lat":-4.74555861800672,"lng":34.5426666418212,"avgVisitMinutes":67,"estimatedCostEur":15,"score":3.4178950164647617},{"id":"sepuka_8647","citySlug":"sepuka","name":"Galería de Arte","category":"cultura","lat":-4.743104011490852,"lng":34.52442370090207,"avgVisitMinutes":27,"estimatedCostEur":4,"score":1.7065514685953524},{"id":"sepuka_3523","citySlug":"sepuka","name":"Punto Panorámico","category":"mirador","lat":-4.751455539563067,"lng":34.52434878134768,"avgVisitMinutes":33,"estimatedCostEur":17,"score":3.2727980369439704},{"id":"sengerema_1541","citySlug":"sengerema","name":"Iglesia de Sengerema","category":"historia","lat":-2.6655885048547603,"lng":32.653358635023295,"avgVisitMinutes":36,"estimatedCostEur":18,"score":3.980498243026479},{"id":"sengerema_3419","citySlug":"sengerema","name":"Paseo Principal","category":"ocio","lat":-2.6592425689082,"lng":32.65609709153992,"avgVisitMinutes":84,"estimatedCostEur":14,"score":2.0866986841539994},{"id":"sengerema_6916","citySlug":"sengerema","name":"Parque Central","category":"ocio","lat":-2.6639705726908973,"lng":32.646183468551214,"avgVisitMinutes":38,"estimatedCostEur":25,"score":3.0574908932648883},{"id":"sengerema_8539","citySlug":"sengerema","name":"Parque Central","category":"ocio","lat":-2.660691926997809,"lng":32.65980839762569,"avgVisitMinutes":85,"estimatedCostEur":13,"score":4.904870502098845},{"id":"sengerema_8881","citySlug":"sengerema","name":"Paseo Principal","category":"ocio","lat":-2.6579521849221517,"lng":32.642532349215955,"avgVisitMinutes":40,"estimatedCostEur":5,"score":3.1998728807494556},{"id":"same_9439","citySlug":"same","name":"Centro de Arte de Same","category":"cultura","lat":-4.061863637619047,"lng":37.727540049175126,"avgVisitMinutes":42,"estimatedCostEur":3,"score":4.394805359841127},{"id":"same_4808","citySlug":"same","name":"Playa Sur","category":"playa","lat":-4.075159248865133,"lng":37.730633751229085,"avgVisitMinutes":83,"estimatedCostEur":2,"score":1.1658447705891657},{"id":"same_2551","citySlug":"same","name":"Zona Comercial","category":"ocio","lat":-4.0718225982643315,"lng":37.742155623230055,"avgVisitMinutes":66,"estimatedCostEur":23,"score":0.9988348124041198},{"id":"same_5760","citySlug":"same","name":"Parque Central","category":"ocio","lat":-4.073876989557101,"lng":37.73778721037788,"avgVisitMinutes":27,"estimatedCostEur":16,"score":0.5060242320945978},{"id":"same_3618","citySlug":"same","name":"Parque Central","category":"ocio","lat":-4.062280231260575,"lng":37.733083378827224,"avgVisitMinutes":23,"estimatedCostEur":19,"score":2.31678932347583},{"id":"same_4835","citySlug":"same","name":"Paseo Principal","category":"ocio","lat":-4.062436005593396,"lng":37.74205336586391,"avgVisitMinutes":75,"estimatedCostEur":20,"score":1.4439925049646314},{"id":"same_8678","citySlug":"same","name":"Iglesia de Same","category":"historia","lat":-4.075585570633093,"lng":37.72789690244341,"avgVisitMinutes":23,"estimatedCostEur":18,"score":4.6685889350354985},{"id":"same_8104","citySlug":"same","name":"Vista Alta de Same","category":"mirador","lat":-4.071750835603766,"lng":37.742828338421475,"avgVisitMinutes":72,"estimatedCostEur":24,"score":1.5548691889702457},{"id":"same_3033","citySlug":"same","name":"Iglesia de Same","category":"historia","lat":-4.065463552270343,"lng":37.728965638018686,"avgVisitMinutes":87,"estimatedCostEur":14,"score":2.9322850640215945},{"id":"same_7176","citySlug":"same","name":"Playa Norte","category":"playa","lat":-4.064581776968706,"lng":37.72915740338216,"avgVisitMinutes":78,"estimatedCostEur":11,"score":3.1266237759840765},{"id":"same_2942","citySlug":"same","name":"Mirador de Same","category":"mirador","lat":-4.064940531160692,"lng":37.72829722861502,"avgVisitMinutes":81,"estimatedCostEur":19,"score":2.3842355143382745},{"id":"same_9349","citySlug":"same","name":"Restaurante Típico de Same","category":"gastronomia","lat":-4.060478424594487,"lng":37.7326057497203,"avgVisitMinutes":58,"estimatedCostEur":22,"score":3.2352684978684483},{"id":"rulenge_1662","citySlug":"rulenge","name":"Zona Comercial","category":"ocio","lat":-2.708297313703619,"lng":30.637186981096402,"avgVisitMinutes":86,"estimatedCostEur":1,"score":3.0966167742279187},{"id":"rulenge_5562","citySlug":"rulenge","name":"Punto Panorámico","category":"mirador","lat":-2.719024573347516,"lng":30.628616293034334,"avgVisitMinutes":53,"estimatedCostEur":22,"score":1.369404953978655},{"id":"rulenge_7612","citySlug":"rulenge","name":"Playa Sur","category":"playa","lat":-2.70828309987052,"lng":30.622901204133164,"avgVisitMinutes":55,"estimatedCostEur":16,"score":1.307854698813196},{"id":"rulenge_9015","citySlug":"rulenge","name":"Restaurante Típico de Rulenge","category":"gastronomia","lat":-2.716914785311139,"lng":30.629440796792327,"avgVisitMinutes":50,"estimatedCostEur":23,"score":4.284346228937932},{"id":"rulenge_9692","citySlug":"rulenge","name":"Mercado Gastronómico","category":"gastronomia","lat":-2.720019443866902,"lng":30.628561404175706,"avgVisitMinutes":55,"estimatedCostEur":9,"score":2.615360628959482},{"id":"rulenge_7865","citySlug":"rulenge","name":"Playa Norte","category":"playa","lat":-2.7191260509305986,"lng":30.633634582843737,"avgVisitMinutes":51,"estimatedCostEur":16,"score":4.093737578058667},{"id":"rulenge_7077","citySlug":"rulenge","name":"Restaurante Típico de Rulenge","category":"gastronomia","lat":-2.7164533589821565,"lng":30.635837843627645,"avgVisitMinutes":70,"estimatedCostEur":11,"score":4.61321577405392},{"id":"rulenge_3061","citySlug":"rulenge","name":"Vista Alta de Rulenge","category":"mirador","lat":-2.7207489799162934,"lng":30.632308008629632,"avgVisitMinutes":27,"estimatedCostEur":0,"score":2.3339690611801425},{"id":"rulenge_9981","citySlug":"rulenge","name":"Galería de Arte","category":"cultura","lat":-2.7152613376005923,"lng":30.623050094802995,"avgVisitMinutes":67,"estimatedCostEur":1,"score":3.0212916441840263},{"id":"rulenge_7770","citySlug":"rulenge","name":"Mirador de Rulenge","category":"mirador","lat":-2.716674061990341,"lng":30.63733604752701,"avgVisitMinutes":60,"estimatedCostEur":15,"score":1.1585767531840707},{"id":"rulenge_2920","citySlug":"rulenge","name":"Playa Central","category":"playa","lat":-2.715174480519981,"lng":30.626197933324413,"avgVisitMinutes":64,"estimatedCostEur":11,"score":1.6749294454753076},{"id":"rujewa_4272","citySlug":"rujewa","name":"Zona Comercial","category":"ocio","lat":-8.692900174088399,"lng":34.38320392622301,"avgVisitMinutes":31,"estimatedCostEur":13,"score":4.5890348990717005},{"id":"rujewa_5247","citySlug":"rujewa","name":"Playa Sur","category":"playa","lat":-8.694917293773935,"lng":34.382651225931205,"avgVisitMinutes":68,"estimatedCostEur":9,"score":2.5853500269207528},{"id":"rujewa_2290","citySlug":"rujewa","name":"Mercado Gastronómico","category":"gastronomia","lat":-8.705936859711231,"lng":34.37762816511033,"avgVisitMinutes":75,"estimatedCostEur":16,"score":1.937145075531004},{"id":"rujewa_5352","citySlug":"rujewa","name":"Paseo Principal","category":"ocio","lat":-8.705236718578798,"lng":34.38488038796382,"avgVisitMinutes":28,"estimatedCostEur":25,"score":1.1810541675680875},{"id":"rujewa_1405","citySlug":"rujewa","name":"Parque Central","category":"ocio","lat":-8.696262507287523,"lng":34.38048727945807,"avgVisitMinutes":34,"estimatedCostEur":6,"score":1.7540528196471634},{"id":"rujewa_9058","citySlug":"rujewa","name":"Playa Norte","category":"playa","lat":-8.703859422502507,"lng":34.3886987513416,"avgVisitMinutes":51,"estimatedCostEur":15,"score":1.2292995913420857},{"id":"rujewa_7351","citySlug":"rujewa","name":"Centro de Arte de Rujewa","category":"cultura","lat":-8.70374585233091,"lng":34.3812581125568,"avgVisitMinutes":47,"estimatedCostEur":12,"score":3.392409517813473},{"id":"rujewa_5513","citySlug":"rujewa","name":"Centro de Arte de Rujewa","category":"cultura","lat":-8.703044431327548,"lng":34.378687506027006,"avgVisitMinutes":32,"estimatedCostEur":15,"score":1.7049841472688263},{"id":"puma_6206","citySlug":"puma","name":"Mercado Gastronómico","category":"gastronomia","lat":-4.990612710309736,"lng":34.728923713472646,"avgVisitMinutes":37,"estimatedCostEur":10,"score":1.836134001281425},{"id":"puma_8128","citySlug":"puma","name":"Paseo Principal","category":"ocio","lat":-4.994592110670508,"lng":34.73774070601919,"avgVisitMinutes":84,"estimatedCostEur":23,"score":2.5101745663165884},{"id":"puma_6997","citySlug":"puma","name":"Parque Central","category":"ocio","lat":-4.996422802146262,"lng":34.726310058926714,"avgVisitMinutes":65,"estimatedCostEur":24,"score":0.5227982261256171},{"id":"puma_8491","citySlug":"puma","name":"Teatro Municipal","category":"cultura","lat":-4.99859646086205,"lng":34.73469287153935,"avgVisitMinutes":59,"estimatedCostEur":8,"score":3.0512011741694165},{"id":"puma_2095","citySlug":"puma","name":"Vista Alta de Puma","category":"mirador","lat":-4.993734841480264,"lng":34.736854592151836,"avgVisitMinutes":55,"estimatedCostEur":20,"score":4.00557960848516},{"id":"puma_3337","citySlug":"puma","name":"Centro de Arte de Puma","category":"cultura","lat":-5.009727522414562,"lng":34.732591741865775,"avgVisitMinutes":39,"estimatedCostEur":9,"score":1.5980438382147901},{"id":"puma_4811","citySlug":"puma","name":"Museo Cultural de Puma","category":"cultura","lat":-4.9932913585336545,"lng":34.72844748994497,"avgVisitMinutes":33,"estimatedCostEur":1,"score":2.4708442436749363},{"id":"puma_2891","citySlug":"puma","name":"Punto Panorámico","category":"mirador","lat":-4.999350227611501,"lng":34.73924332248226,"avgVisitMinutes":23,"estimatedCostEur":6,"score":0.6549370574703963},{"id":"poli_1789","citySlug":"poli","name":"Restaurante Típico de Poli","category":"gastronomia","lat":-3.3560014516994823,"lng":36.81016543209887,"avgVisitMinutes":73,"estimatedCostEur":25,"score":1.5985348765043008},{"id":"poli_4655","citySlug":"poli","name":"Playa Norte","category":"playa","lat":-3.354181378850363,"lng":36.820728282917344,"avgVisitMinutes":39,"estimatedCostEur":10,"score":2.6502851234131084},{"id":"poli_5685","citySlug":"poli","name":"Mirador de Poli","category":"mirador","lat":-3.3641740740203385,"lng":36.81060255349173,"avgVisitMinutes":40,"estimatedCostEur":21,"score":3.4124598117781257},{"id":"poli_4999","citySlug":"poli","name":"Ruta de Tapas","category":"gastronomia","lat":-3.370958919301383,"lng":36.80839748113843,"avgVisitMinutes":50,"estimatedCostEur":5,"score":4.426753586386318},{"id":"poli_3114","citySlug":"poli","name":"Mirador de Poli","category":"mirador","lat":-3.360195866451752,"lng":36.820554789356876,"avgVisitMinutes":89,"estimatedCostEur":23,"score":4.183201489093692},{"id":"poli_5992","citySlug":"poli","name":"Centro Histórico","category":"historia","lat":-3.3561375538875104,"lng":36.82153415732252,"avgVisitMinutes":23,"estimatedCostEur":13,"score":0.5982709556285886},{"id":"poli_2806","citySlug":"poli","name":"Teatro Municipal","category":"cultura","lat":-3.3709306225954725,"lng":36.81114348260973,"avgVisitMinutes":28,"estimatedCostEur":7,"score":0.7147067103018723},{"id":"poli_3646","citySlug":"poli","name":"Mirador de Poli","category":"mirador","lat":-3.360944604514046,"lng":36.82062846800257,"avgVisitMinutes":85,"estimatedCostEur":21,"score":1.2259443622315216},{"id":"poli_9514","citySlug":"poli","name":"Museo Cultural de Poli","category":"cultura","lat":-3.3642596974888046,"lng":36.82452074588961,"avgVisitMinutes":54,"estimatedCostEur":11,"score":2.2700231452397404},{"id":"pangani_2129","citySlug":"pangani","name":"Playa Central","category":"playa","lat":-5.429642081454402,"lng":38.96489978077995,"avgVisitMinutes":78,"estimatedCostEur":2,"score":3.6082751897383907},{"id":"pangani_7157","citySlug":"pangani","name":"Ruta de Tapas","category":"gastronomia","lat":-5.424654757770196,"lng":38.97264741566843,"avgVisitMinutes":64,"estimatedCostEur":6,"score":3.831587937037003},{"id":"pangani_6558","citySlug":"pangani","name":"Mercado Gastronómico","category":"gastronomia","lat":-5.433067426115162,"lng":38.97262586765233,"avgVisitMinutes":89,"estimatedCostEur":1,"score":2.165086713102063},{"id":"pangani_5395","citySlug":"pangani","name":"Iglesia de Pangani","category":"historia","lat":-5.42232899363421,"lng":38.970019745637465,"avgVisitMinutes":78,"estimatedCostEur":14,"score":2.3004591302736968},{"id":"pangani_7125","citySlug":"pangani","name":"Playa Sur","category":"playa","lat":-5.433229888423377,"lng":38.97117750961571,"avgVisitMinutes":45,"estimatedCostEur":9,"score":0.5316771400336804},{"id":"pangani_9805","citySlug":"pangani","name":"Mercado Gastronómico","category":"gastronomia","lat":-5.431125704529031,"lng":38.966342986016805,"avgVisitMinutes":53,"estimatedCostEur":7,"score":0.792985974553279},{"id":"pangani_6132","citySlug":"pangani","name":"Teatro Municipal","category":"cultura","lat":-5.43340095065957,"lng":38.98236490551591,"avgVisitMinutes":38,"estimatedCostEur":16,"score":1.1819490912097925},{"id":"pangani_1261","citySlug":"pangani","name":"Ruta de Tapas","category":"gastronomia","lat":-5.426334835240896,"lng":38.98118753525775,"avgVisitMinutes":76,"estimatedCostEur":5,"score":1.3411591740747633},{"id":"pangani_5032","citySlug":"pangani","name":"Zona Comercial","category":"ocio","lat":-5.418059134646136,"lng":38.980411736914434,"avgVisitMinutes":33,"estimatedCostEur":5,"score":3.03328987512403},{"id":"pangani_7977","citySlug":"pangani","name":"Vista Alta de Pangani","category":"mirador","lat":-5.428359132662486,"lng":38.96584406819057,"avgVisitMinutes":21,"estimatedCostEur":14,"score":3.9683744350888324},{"id":"old-shinyanga_7072","citySlug":"old-shinyanga","name":"Playa Norte","category":"playa","lat":-3.5480679884250237,"lng":33.40384762291031,"avgVisitMinutes":38,"estimatedCostEur":13,"score":2.7789459800115752},{"id":"old-shinyanga_3800","citySlug":"old-shinyanga","name":"Playa Central","category":"playa","lat":-3.5505377685880246,"lng":33.39247363305772,"avgVisitMinutes":64,"estimatedCostEur":17,"score":0.8457196909580257},{"id":"old-shinyanga_8778","citySlug":"old-shinyanga","name":"Restaurante Típico de Old Shinyanga","category":"gastronomia","lat":-3.543179846418467,"lng":33.3940067231914,"avgVisitMinutes":31,"estimatedCostEur":0,"score":4.9432164042211575},{"id":"old-shinyanga_9727","citySlug":"old-shinyanga","name":"Mirador de Old Shinyanga","category":"mirador","lat":-3.5535631586537253,"lng":33.39286268574683,"avgVisitMinutes":83,"estimatedCostEur":1,"score":4.833875692699193},{"id":"old-shinyanga_1105","citySlug":"old-shinyanga","name":"Iglesia de Old Shinyanga","category":"historia","lat":-3.5484311711106113,"lng":33.4056011095585,"avgVisitMinutes":43,"estimatedCostEur":24,"score":0.5293892698087188},{"id":"old-shinyanga_7036","citySlug":"old-shinyanga","name":"Zona Comercial","category":"ocio","lat":-3.557402946179648,"lng":33.39031280412378,"avgVisitMinutes":30,"estimatedCostEur":7,"score":1.1138759009251742},{"id":"old-shinyanga_3761","citySlug":"old-shinyanga","name":"Zona Comercial","category":"ocio","lat":-3.54458801793229,"lng":33.39899507527197,"avgVisitMinutes":35,"estimatedCostEur":19,"score":1.0854142116659147},{"id":"old-shinyanga_9100","citySlug":"old-shinyanga","name":"Vista Alta de Old Shinyanga","category":"mirador","lat":-3.5404497329733267,"lng":33.398895371081444,"avgVisitMinutes":54,"estimatedCostEur":19,"score":2.870825793222342},{"id":"old-shinyanga_1310","citySlug":"old-shinyanga","name":"Mercado Gastronómico","category":"gastronomia","lat":-3.547351046941009,"lng":33.39066935353243,"avgVisitMinutes":35,"estimatedCostEur":19,"score":1.0682858142287743},{"id":"old-shinyanga_9599","citySlug":"old-shinyanga","name":"Playa Central","category":"playa","lat":-3.549656594835723,"lng":33.40181727346237,"avgVisitMinutes":53,"estimatedCostEur":8,"score":4.581926187039548},{"id":"old-shinyanga_3833","citySlug":"old-shinyanga","name":"Restaurante Típico de Old Shinyanga","category":"gastronomia","lat":-3.5434302386046,"lng":33.402829527771516,"avgVisitMinutes":72,"estimatedCostEur":25,"score":0.9039167024580937},{"id":"old-shinyanga_2708","citySlug":"old-shinyanga","name":"Iglesia de Old Shinyanga","category":"historia","lat":-3.5551039397647943,"lng":33.40690230419745,"avgVisitMinutes":66,"estimatedCostEur":10,"score":2.5328300190164206},{"id":"nzega_7561","citySlug":"nzega","name":"Restaurante Típico de Nzega","category":"gastronomia","lat":-4.224866721739876,"lng":33.18147177089994,"avgVisitMinutes":44,"estimatedCostEur":1,"score":0.7817674517270712},{"id":"nzega_7437","citySlug":"nzega","name":"Castillo de Nzega","category":"historia","lat":-4.225317722531416,"lng":33.18361776828086,"avgVisitMinutes":89,"estimatedCostEur":23,"score":1.0753620833942439},{"id":"nzega_7161","citySlug":"nzega","name":"Museo Local de Nzega","category":"historia","lat":-4.213728208096482,"lng":33.184510837871684,"avgVisitMinutes":51,"estimatedCostEur":20,"score":4.428472208107489},{"id":"nzega_5843","citySlug":"nzega","name":"Zona Comercial","category":"ocio","lat":-4.21006201845622,"lng":33.185801090752,"avgVisitMinutes":80,"estimatedCostEur":11,"score":2.3280389135736796},{"id":"nzega_4164","citySlug":"nzega","name":"Restaurante Típico de Nzega","category":"gastronomia","lat":-4.216773507879259,"lng":33.17776094462794,"avgVisitMinutes":62,"estimatedCostEur":15,"score":3.9442545512363405},{"id":"nzega_4187","citySlug":"nzega","name":"Iglesia de Nzega","category":"historia","lat":-4.223082515499556,"lng":33.19025477835926,"avgVisitMinutes":61,"estimatedCostEur":11,"score":0.8582130838655075},{"id":"nzega_6397","citySlug":"nzega","name":"Playa Central","category":"playa","lat":-4.211421565778281,"lng":33.19016805176122,"avgVisitMinutes":72,"estimatedCostEur":18,"score":1.7412241879482717},{"id":"nzega_3726","citySlug":"nzega","name":"Playa Central","category":"playa","lat":-4.221261136559361,"lng":33.17886741392085,"avgVisitMinutes":58,"estimatedCostEur":10,"score":4.071957769304335},{"id":"nyanguge_7495","citySlug":"nyanguge","name":"Murallas de Nyanguge","category":"historia","lat":-2.559185730730623,"lng":33.200795185023274,"avgVisitMinutes":87,"estimatedCostEur":11,"score":1.89335255784855},{"id":"nyanguge_7863","citySlug":"nyanguge","name":"Playa Norte","category":"playa","lat":-2.547123651043887,"lng":33.19936204722403,"avgVisitMinutes":40,"estimatedCostEur":14,"score":2.9012749731741727},{"id":"nyanguge_5828","citySlug":"nyanguge","name":"Zona Comercial","category":"ocio","lat":-2.5561053399900464,"lng":33.19174778644774,"avgVisitMinutes":40,"estimatedCostEur":13,"score":1.231787717441141},{"id":"nyanguge_8405","citySlug":"nyanguge","name":"Galería de Arte","category":"cultura","lat":-2.550033915924148,"lng":33.20175977812579,"avgVisitMinutes":32,"estimatedCostEur":22,"score":4.638510071043142},{"id":"nyanguge_6105","citySlug":"nyanguge","name":"Mirador de Nyanguge","category":"mirador","lat":-2.546176764057446,"lng":33.20123526671523,"avgVisitMinutes":81,"estimatedCostEur":14,"score":4.82348225298681},{"id":"nyanguge_4738","citySlug":"nyanguge","name":"Playa Central","category":"playa","lat":-2.5549580198257007,"lng":33.19615870332178,"avgVisitMinutes":60,"estimatedCostEur":11,"score":3.207615688464269},{"id":"nyanguge_2224","citySlug":"nyanguge","name":"Playa Norte","category":"playa","lat":-2.5573106150452927,"lng":33.19199293178856,"avgVisitMinutes":23,"estimatedCostEur":17,"score":4.633141866028414},{"id":"nyamuswa_6583","citySlug":"nyamuswa","name":"Playa Central","category":"playa","lat":-1.9053544682508843,"lng":34.009633410360145,"avgVisitMinutes":54,"estimatedCostEur":10,"score":0.800337784478439},{"id":"nyamuswa_2514","citySlug":"nyamuswa","name":"Punto Panorámico","category":"mirador","lat":-1.892429860025791,"lng":34.02527741827925,"avgVisitMinutes":84,"estimatedCostEur":15,"score":3.685180977434018},{"id":"nyamuswa_2838","citySlug":"nyamuswa","name":"Punto Panorámico","category":"mirador","lat":-1.9028848861971654,"lng":34.00760149989378,"avgVisitMinutes":65,"estimatedCostEur":7,"score":3.7899940865246515},{"id":"nyamuswa_3099","citySlug":"nyamuswa","name":"Mirador de Nyamuswa","category":"mirador","lat":-1.9014872991504073,"lng":34.01247924650905,"avgVisitMinutes":76,"estimatedCostEur":8,"score":1.6556164000860603},{"id":"nyamuswa_3913","citySlug":"nyamuswa","name":"Playa Sur","category":"playa","lat":-1.9090446908041259,"lng":34.020703877640564,"avgVisitMinutes":80,"estimatedCostEur":5,"score":4.846605468722777},{"id":"nyamuswa_5789","citySlug":"nyamuswa","name":"Ruta de Tapas","category":"gastronomia","lat":-1.893119778706159,"lng":34.019101061981175,"avgVisitMinutes":20,"estimatedCostEur":13,"score":0.8417016893513661},{"id":"nyamuswa_5831","citySlug":"nyamuswa","name":"Restaurante Típico de Nyamuswa","category":"gastronomia","lat":-1.897957831088442,"lng":34.013065107607005,"avgVisitMinutes":34,"estimatedCostEur":10,"score":3.180019269540395},{"id":"nyalikungu_4623","citySlug":"nyalikungu","name":"Playa Sur","category":"playa","lat":-3.185705143264058,"lng":33.79231988029074,"avgVisitMinutes":43,"estimatedCostEur":20,"score":3.4625449870292906},{"id":"nyalikungu_8241","citySlug":"nyalikungu","name":"Playa Central","category":"playa","lat":-3.187470946049509,"lng":33.78395786430467,"avgVisitMinutes":24,"estimatedCostEur":3,"score":3.652828481582593},{"id":"nyalikungu_4873","citySlug":"nyalikungu","name":"Punto Panorámico","category":"mirador","lat":-3.18192706591612,"lng":33.79038535929925,"avgVisitMinutes":52,"estimatedCostEur":4,"score":1.050788966295506},{"id":"nyalikungu_9074","citySlug":"nyalikungu","name":"Centro de Arte de Nyalikungu","category":"cultura","lat":-3.1920028500053954,"lng":33.78166763290245,"avgVisitMinutes":77,"estimatedCostEur":10,"score":4.2841219063510625},{"id":"nyalikungu_4406","citySlug":"nyalikungu","name":"Zona Comercial","category":"ocio","lat":-3.1876838094126985,"lng":33.78657843782105,"avgVisitMinutes":43,"estimatedCostEur":15,"score":2.6023643082413743},{"id":"nyalikungu_1163","citySlug":"nyalikungu","name":"Museo Cultural de Nyalikungu","category":"cultura","lat":-3.185905371800712,"lng":33.78106030098929,"avgVisitMinutes":31,"estimatedCostEur":24,"score":3.1501461853762827},{"id":"nyalikungu_8024","citySlug":"nyalikungu","name":"Galería de Arte","category":"cultura","lat":-3.1777171298144973,"lng":33.78953574136121,"avgVisitMinutes":59,"estimatedCostEur":15,"score":3.8556597123205214},{"id":"nyalikungu_9458","citySlug":"nyalikungu","name":"Museo Cultural de Nyalikungu","category":"cultura","lat":-3.1907769539021893,"lng":33.77889634867061,"avgVisitMinutes":39,"estimatedCostEur":17,"score":1.9895691103410162},{"id":"nyalikungu_5249","citySlug":"nyalikungu","name":"Ruta de Tapas","category":"gastronomia","lat":-3.181158381652457,"lng":33.78692947844445,"avgVisitMinutes":81,"estimatedCostEur":11,"score":2.9980461668526037},{"id":"nyalikungu_3099","citySlug":"nyalikungu","name":"Playa Central","category":"playa","lat":-3.1866472454884995,"lng":33.77802595057516,"avgVisitMinutes":52,"estimatedCostEur":17,"score":4.5720581211655675},{"id":"nyalikungu_7894","citySlug":"nyalikungu","name":"Ruta de Tapas","category":"gastronomia","lat":-3.175992637859579,"lng":33.78302696733914,"avgVisitMinutes":67,"estimatedCostEur":10,"score":3.665300179135074},{"id":"nyakahanga_4672","citySlug":"nyakahanga","name":"Mirador de Nyakahanga","category":"mirador","lat":-1.6091545973547614,"lng":31.145011695423275,"avgVisitMinutes":67,"estimatedCostEur":6,"score":0.8734702295342003},{"id":"nyakahanga_1255","citySlug":"nyakahanga","name":"Museo Local de Nyakahanga","category":"historia","lat":-1.5938977219376473,"lng":31.140380862778443,"avgVisitMinutes":44,"estimatedCostEur":1,"score":1.0916098256137914},{"id":"nyakahanga_7524","citySlug":"nyakahanga","name":"Parque Central","category":"ocio","lat":-1.6071782697429164,"lng":31.140745493062692,"avgVisitMinutes":72,"estimatedCostEur":20,"score":4.774935026368924},{"id":"nyakahanga_1444","citySlug":"nyakahanga","name":"Centro de Arte de Nyakahanga","category":"cultura","lat":-1.6014764464507074,"lng":31.140312214970336,"avgVisitMinutes":33,"estimatedCostEur":19,"score":2.1652238711439153},{"id":"nyakahanga_7386","citySlug":"nyakahanga","name":"Mercado Gastronómico","category":"gastronomia","lat":-1.5967172694019895,"lng":31.144937023644424,"avgVisitMinutes":21,"estimatedCostEur":14,"score":2.0826761063521015},{"id":"nyakahanga_3756","citySlug":"nyakahanga","name":"Playa Central","category":"playa","lat":-1.6121886949829614,"lng":31.141481884774542,"avgVisitMinutes":22,"estimatedCostEur":3,"score":4.4609566656666875},{"id":"nyakahanga_9538","citySlug":"nyakahanga","name":"Centro Histórico","category":"historia","lat":-1.5957788821255472,"lng":31.131642973336568,"avgVisitMinutes":58,"estimatedCostEur":10,"score":3.9543303015809643},{"id":"nyakahanga_3164","citySlug":"nyakahanga","name":"Parque Central","category":"ocio","lat":-1.5958224349920336,"lng":31.144193293322317,"avgVisitMinutes":25,"estimatedCostEur":17,"score":2.8855292273102924},{"id":"nyakahanga_5920","citySlug":"nyakahanga","name":"Punto Panorámico","category":"mirador","lat":-1.601375887425108,"lng":31.14569255621336,"avgVisitMinutes":30,"estimatedCostEur":2,"score":1.0218983931376782},{"id":"nyakabindi_4197","citySlug":"nyakabindi","name":"Galería de Arte","category":"cultura","lat":-2.638207698179614,"lng":33.9806382444215,"avgVisitMinutes":40,"estimatedCostEur":12,"score":1.0133939394057672},{"id":"nyakabindi_6160","citySlug":"nyakabindi","name":"Playa Sur","category":"playa","lat":-2.6268588765028764,"lng":33.97656841572012,"avgVisitMinutes":33,"estimatedCostEur":11,"score":2.2779137535893215},{"id":"nyakabindi_9881","citySlug":"nyakabindi","name":"Playa Central","category":"playa","lat":-2.6344218828110075,"lng":33.97871730337576,"avgVisitMinutes":66,"estimatedCostEur":25,"score":3.326938663579135},{"id":"nyakabindi_4419","citySlug":"nyakabindi","name":"Playa Norte","category":"playa","lat":-2.638429022357329,"lng":33.98418168720545,"avgVisitMinutes":36,"estimatedCostEur":12,"score":4.0847025218544095},{"id":"nyakabindi_7514","citySlug":"nyakabindi","name":"Vista Alta de Nyakabindi","category":"mirador","lat":-2.629585206156669,"lng":33.990867036703705,"avgVisitMinutes":89,"estimatedCostEur":16,"score":2.6742670862861773},{"id":"nyakabindi_8309","citySlug":"nyakabindi","name":"Museo Cultural de Nyakabindi","category":"cultura","lat":-2.6251051600361643,"lng":33.98459554338746,"avgVisitMinutes":28,"estimatedCostEur":14,"score":3.170653867755286},{"id":"nyakabindi_6301","citySlug":"nyakabindi","name":"Mercado Gastronómico","category":"gastronomia","lat":-2.6266101498802428,"lng":33.98205273504974,"avgVisitMinutes":46,"estimatedCostEur":17,"score":4.081077877547513},{"id":"nyakabindi_2238","citySlug":"nyakabindi","name":"Paseo Principal","category":"ocio","lat":-2.6421396469679514,"lng":33.97795367878011,"avgVisitMinutes":38,"estimatedCostEur":11,"score":1.2992870412983328},{"id":"nyakabindi_2350","citySlug":"nyakabindi","name":"Vista Alta de Nyakabindi","category":"mirador","lat":-2.6422916752487167,"lng":33.98770702255731,"avgVisitMinutes":84,"estimatedCostEur":15,"score":3.703937339798607},{"id":"nyakabindi_6232","citySlug":"nyakabindi","name":"Parque Central","category":"ocio","lat":-2.637186488583924,"lng":33.98227843641758,"avgVisitMinutes":71,"estimatedCostEur":21,"score":1.574175382546267},{"id":"nyakabindi_9635","citySlug":"nyakabindi","name":"Vista Alta de Nyakabindi","category":"mirador","lat":-2.6245947670945466,"lng":33.98875853993673,"avgVisitMinutes":50,"estimatedCostEur":17,"score":2.23699210397833},{"id":"nsunga_9777","citySlug":"nsunga","name":"Mirador de Nsunga","category":"mirador","lat":-1.1339626454367444,"lng":31.39761588049482,"avgVisitMinutes":87,"estimatedCostEur":10,"score":3.8980133727234922},{"id":"nsunga_2206","citySlug":"nsunga","name":"Murallas de Nsunga","category":"historia","lat":-1.1367451086944687,"lng":31.39158898997561,"avgVisitMinutes":61,"estimatedCostEur":20,"score":3.309308664953506},{"id":"nsunga_8396","citySlug":"nsunga","name":"Zona Comercial","category":"ocio","lat":-1.1507801822954318,"lng":31.403770258200474,"avgVisitMinutes":63,"estimatedCostEur":10,"score":3.7158509593979443},{"id":"nsunga_3324","citySlug":"nsunga","name":"Playa Sur","category":"playa","lat":-1.1386830875898444,"lng":31.393556231959792,"avgVisitMinutes":86,"estimatedCostEur":17,"score":2.1223766517957054},{"id":"nsunga_8966","citySlug":"nsunga","name":"Playa Norte","category":"playa","lat":-1.150923141925452,"lng":31.386139850320294,"avgVisitMinutes":21,"estimatedCostEur":17,"score":1.7456270436198726},{"id":"nsunga_6313","citySlug":"nsunga","name":"Playa Sur","category":"playa","lat":-1.1444378816713112,"lng":31.40144024228924,"avgVisitMinutes":23,"estimatedCostEur":23,"score":0.9653925419997815},{"id":"nsunga_8670","citySlug":"nsunga","name":"Museo Local de Nsunga","category":"historia","lat":-1.1358027053187774,"lng":31.391763655072527,"avgVisitMinutes":81,"estimatedCostEur":24,"score":2.550718266132777},{"id":"nsunga_3464","citySlug":"nsunga","name":"Paseo Principal","category":"ocio","lat":-1.1433268152975773,"lng":31.3937123205053,"avgVisitMinutes":46,"estimatedCostEur":7,"score":1.4652164809760981},{"id":"nshamba_3003","citySlug":"nshamba","name":"Zona Comercial","category":"ocio","lat":-1.7940634152206265,"lng":31.552462006292604,"avgVisitMinutes":21,"estimatedCostEur":24,"score":1.3123135447382883},{"id":"nshamba_8670","citySlug":"nshamba","name":"Parque Central","category":"ocio","lat":-1.7926953506198782,"lng":31.552804256921654,"avgVisitMinutes":44,"estimatedCostEur":20,"score":1.4774444530446516},{"id":"nshamba_7134","citySlug":"nshamba","name":"Punto Panorámico","category":"mirador","lat":-1.7906245903145759,"lng":31.55940926889625,"avgVisitMinutes":35,"estimatedCostEur":13,"score":2.60442536180905},{"id":"nshamba_8843","citySlug":"nshamba","name":"Restaurante Típico de Nshamba","category":"gastronomia","lat":-1.7911790289275136,"lng":31.54148216911667,"avgVisitMinutes":24,"estimatedCostEur":16,"score":0.9819415099330129},{"id":"nshamba_8081","citySlug":"nshamba","name":"Vista Alta de Nshamba","category":"mirador","lat":-1.8068672983909722,"lng":31.545474331228245,"avgVisitMinutes":84,"estimatedCostEur":16,"score":3.4615864811309165},{"id":"nshamba_8782","citySlug":"nshamba","name":"Playa Norte","category":"playa","lat":-1.8035891540600197,"lng":31.54620689643715,"avgVisitMinutes":53,"estimatedCostEur":23,"score":2.9017644865204923},{"id":"nshamba_9605","citySlug":"nshamba","name":"Playa Norte","category":"playa","lat":-1.7902238902050787,"lng":31.560190084276396,"avgVisitMinutes":38,"estimatedCostEur":1,"score":1.4203329343897244},{"id":"nshamba_8579","citySlug":"nshamba","name":"Playa Norte","category":"playa","lat":-1.8021109905188648,"lng":31.54343423582916,"avgVisitMinutes":58,"estimatedCostEur":24,"score":2.682389877621338},{"id":"nshamba_7323","citySlug":"nshamba","name":"Mirador de Nshamba","category":"mirador","lat":-1.806922130962647,"lng":31.547659244228047,"avgVisitMinutes":63,"estimatedCostEur":8,"score":2.0433467843096587},{"id":"nkove_2187","citySlug":"nkove","name":"Playa Central","category":"playa","lat":-7.957775558298045,"lng":30.858412742783308,"avgVisitMinutes":39,"estimatedCostEur":4,"score":1.9167150420611083},{"id":"nkove_4156","citySlug":"nkove","name":"Playa Sur","category":"playa","lat":-7.951512321760985,"lng":30.847891640932666,"avgVisitMinutes":33,"estimatedCostEur":13,"score":2.9840900554359333},